~Version Information
 VERS.                2.0:  CWLS LOG ASCII STANDARD -VERSION 2.0
 WRAP.                 NO:  ONE LINE PER DEPTH STEP
~WELL INFORMATION BLOCK
#MNEM.UNIT       DATA		            DESCRIPTION OF MNEMONIC
#---------    -------------            ------------------------
 STRT.FT  2.100                          :START DEPTH
 STOP.FT  468.300                        :STOP DEPTH
 STEP.FT  0.100                          :STEP    UP_HOLE  
 NULL.    -999.25                        :NULL VALUE
 COMP.    NORTHFIELD CREAMERY            :COMPANY
 WELL.    217760                                                       :WELL
 FLD .    NORTHFIELD  71-B               :FIELD\LOCATION
 LOC .    36    112   20                 :LOCATION
 CNTY.    RICE                           :COUNTY
 STAT.    DDACAA                         :STATE
 CTRY.    USA                            :COUNTRY
 SRVC.    TRUCK                          :SERVICE COMPANY
 DATE.    11/08/91                       :LOG DATE
 API .                                       :API NUMBER
 LIC .                                   :LICENSE NUMBER
~Curve Information Block
#MNEM.UNIT      API CODE     Curve Description
#---------    -------------  ------------------------
 DEPT     .FT        00 001 00 00          :  1  DEPTH   
 GAMMA    .API-GR    00 310 00 00          :  2  GAMMA RAY           
 RES      .OHM       00 000 00 00          :  3  SINGLE POINT RES    
 SP       .MV        00 010 00 00          :  4  SPON POTENTIAL      
~Parameter Information Block
#MNEM.UNIT   Information     Description
#---------- ---------------  ------------------------
 FILE.      PROCESSED          :File Type
 FIID.      9060A              :File Type Identifier
 VERS.      V 6.0              :System Version
 SER .      1                  :System Serial Number
 TRUK.      1.000000           :Truck Calibration Number
 TOOL.         202             :Tool Serial Number
 TIME.      1310               :Time    HrHrMinMin
 LAT .                         :Latitude
 LON .                         :Longitude
 LMF .                         :Log Measured From
 DMF .                         :Driller Measured From
 PD  .      -5                 :Permanent Data
 PDEV.FT                       :Elevation Permanent Data
 EKB .FT                       :Elevation Kelly Bushing
 ELEV.FT                       :Elevation DF
 EGL .FT    912  5             :Elevation Ground Level
 DRDP.FT    647                :Driller's Depth
 CASD.FT                       :Casing Diameter
 CASB.FT                       :Casing Bottom
 CASX.      STEEL              :Casing Type
 CAST.IN    8                  :Casing Thickness
 TNOC.                         :Time Circulation Stopped
 LOGU.      C-1                :Logging Unit
 RECB.      RUNKEL             :Recorded By
 OSR1.                         :Other Services
 OSR2.                         :Other Services
 OSR3.                         :Other Services
 BS  .IN                       :Bit Size
 MST .F                        :Mean Surface Temperature
 TGRD.F                        :Temperature Gradiant
 MAGN.                         :Magnetic Declination
 MDEN.                         :Density Matrix
 MATR.                         :Neutron Matrix
 DTMT.                         :Delta T Matrix
 DTFL.                         :Delta T Fluid
 MUDS.                         :Mud Sample Source
 MRS .                         :Mud Resistivity
 MTP .                         :Mud Temperature
 MFRS.                         :Resistivity Mud Filtrate
 MFTP.                         :Temperature Mud Filtrate
 MCRS.                         :Resistivity Mud Cake
 MCTP.                         :Temperature Mud Cake
 FTYP.      WATER              :Fluid Type
 FD  .LB/G                     :Mud Weight
 DFV .S                        :Fluid Viscosity
 FPH .                         :Fuild PH
 ELCO.                         :Electron Cutoff
 CASL.IN                       :Casing Logger
 LOTD.FT                       :Logger TD
 ARTM.                         :Arrival Time
 DPTM.                         :Departure Time
 RIGN.                         :Rig Number
~Other Information
#MNEM.UNIT  Information      Description
#---------- ---------------  ------------------------
                                                                                                                                                                                C
                                                                                                                                                                 C
                                                                                                                                             C
                                                                                                                           C
                                                                                                       C
            0.000000000
         0.000000000
# -------------------------- 
~A DEPTH  GAMMA    RES      SP    
# ...
  25.000     16.7     70.7  425.3 
  25.100  -999.25     70.4  422.4 
  25.200     16.7     70.0  421.6 
  25.300  -999.25     70.4  420.0 
  25.400     33.4     70.0  420.0 
  25.500     16.7     70.0  419.2 
  25.600     16.7     69.3  416.8 
  25.700  -999.25     68.9  413.6 
  25.800     16.7     69.7  408.8 
  25.900  -999.25     70.0  404.0 
  26.000  -999.25     70.8  397.6 
  26.100     16.7     70.8  392.8 
  26.200     16.7     71.6  388.8 
  26.300  -999.25     70.8  386.4 
  26.400  -999.25     70.8  385.6 
  26.500     16.7     70.4  385.6 
  26.600     50.1     70.8  385.6 
  26.700  -999.25     70.4  385.6 
  26.800     16.7     71.2  385.6 
  26.900     16.7     72.0  386.4 
  27.000  -999.25     70.8  385.6 
  27.100  -999.25     71.2  385.6 
  27.200  -999.25     70.8  386.4 
  27.300  -999.25     70.4  387.2 
  27.400     16.7     70.4  388.8 
  27.500  -999.25     70.0  389.6 
  27.600  -999.25     70.0  390.4 
  27.700     16.7     70.0  392.0 
  27.800  -999.25     70.0  393.6 
  27.900     33.4     70.0  392.8 
  28.000     16.7     69.7  393.6 
  28.100  -999.25     69.7  392.8 
  28.200     16.7     69.4  392.3 
  28.300  -999.25     69.3  392.0 
  28.400     11.1     69.7  392.0 
  28.500     16.7     70.0  391.2 
  28.600  -999.25     69.7  391.2 
  28.700     16.7     70.0  391.2 
  28.800  -999.25     70.0  389.6 
  28.900     16.7     68.9  388.8 
  29.000     33.4     68.9  388.0 
  29.100     16.7     68.1  387.2 
  29.200  -999.25     68.9  388.0 
  29.300  -999.25     68.1  385.3 
  29.400  -999.25     67.7  383.2 
  29.500     11.1     68.1  382.4 
  29.600     16.7     67.7  379.2 
  29.700     33.4     68.1  378.4 
  29.800     16.7     68.1  377.6 
  29.900  -999.25     67.7  377.6 
  30.000  -999.25     68.1  379.2 
  30.100  -999.25     68.5  380.8 
  30.200  -999.25     68.1  383.2 
  30.300     16.7     69.7  384.8 
  30.400  -999.25     69.4  390.1 
  30.500     16.7     70.4  396.8 
  30.600     33.4     71.2  402.4 
  30.700     16.7     71.6  408.8 
  30.800     16.7     72.0  412.0 
  30.900  -999.25     72.0  415.2 
  31.000  -999.25     71.7  417.3 
  31.100  -999.25     71.6  420.8 
  31.200     11.1     72.0  422.4 
  31.300  -999.25     72.0  423.2 
  31.400  -999.25     71.6  424.0 
  31.500     16.7     71.2  424.8 
  31.600     16.7     71.2  423.2 
  31.700     16.7     70.0  422.4 
  31.800     33.4     68.9  420.0 
  31.900     33.4     68.1  416.0 
  32.000  -999.25     67.3  413.6 
  32.100  -999.25     66.3  408.8 
  32.200     16.7     66.1  400.0 
  32.300     33.4     66.1  393.6 
  32.400     33.4     65.8  386.4 
  32.500     16.7     64.6  379.2 
  32.600     66.8     62.2  374.4 
  32.700  -999.25     61.9  371.2 
  32.800  -999.25     63.8  368.8 
  32.900  -999.25     64.6  368.0 
  33.000  -999.25     65.0  368.8 
  33.100     50.1     64.2  371.2 
  33.200     33.4     63.4  373.6 
  33.300     50.1     63.4  376.8 
  33.400     50.1     64.6  380.0 
  33.500     16.7     65.0  382.4 
  33.600     33.4     66.1  384.8 
  33.700  -999.25     66.5  384.8 
  33.800     55.6     65.8  384.0 
  33.900     16.7     65.4  384.8 
  34.000     66.8     65.4  383.2 
  34.100  -999.25     65.8  384.8 
  34.200     33.4     66.5  383.2 
  34.300     50.1     66.9  383.2 
  34.400  -999.25     67.7  381.6 
  34.500     16.7     67.3  381.6 
  34.600     33.4     66.5  380.0 
  34.700  -999.25     66.8  380.0 
  34.800     33.4     65.0  380.0 
  34.900     33.4     63.8  379.2 
  35.000     33.4     63.0  377.6 
  35.100     66.8     61.9  376.8 
  35.200     33.4     61.9  373.6 
  35.300     50.1     62.6  370.4 
  35.400  -999.25     64.2  368.0 
  35.500     33.4     65.4  365.6 
  35.600     50.1     66.1  363.2 
  35.700     83.4     66.5  362.4 
  35.800     50.1     66.3  358.7 
  35.900  -999.25     66.9  356.0 
  36.000     11.1     68.1  352.8 
  36.100     16.7     68.9  351.2 
  36.200  -999.25     70.0  348.0 
  36.300     50.1     70.0  347.2 
  36.400     16.7     69.7  347.2 
  36.500     33.4     69.3  348.8 
  36.600     50.1     68.5  352.0 
  36.700     33.4     67.7  355.2 
  36.800     16.7     67.3  356.0 
  36.900  -999.25     67.8  357.1 
  37.000     22.3     67.7  356.0 
  37.100     22.3     66.9  353.6 
  37.200  -999.25     66.1  348.8 
  37.300     33.4     65.0  345.6 
  37.400     33.4     63.8  342.4 
  37.500  -999.25     62.2  341.6 
  37.600  -999.25     61.5  343.2 
  37.700     16.7     60.3  347.2 
  37.800     16.7     59.9  352.8 
  37.900     16.7     58.7  359.7 
  38.000     66.8     58.7  359.7 
  38.100     33.4     57.2  363.2 
  38.200     16.7     55.6  362.4 
  38.300     16.7     55.2  358.4 
  38.400  -999.25     54.8  353.6 
  38.500     16.7     54.4  350.4 
  38.600     66.8     53.7  349.6 
  38.700     16.7     54.1  351.2 
  38.800     50.1     54.8  352.0 
  38.900     66.8     54.1  349.6 
  39.000     33.4     52.9  347.2 
  39.100     50.1     50.5  343.2 
  39.200     33.4     51.7  338.4 
  39.300     50.1     50.9  335.2 
  39.400     33.4     48.8  329.6 
  39.500     16.7     49.3  326.4 
  39.600     33.4     47.7  321.6 
  39.700     22.3     49.3  317.6 
  39.800     33.4     49.0  317.6 
  39.900     33.4     47.7  319.2 
  40.000     33.4     49.3  324.8 
  40.100    100.1     47.4  332.8 
  40.200     16.7     48.5  342.4 
  40.300     16.7     47.4  352.0 
  40.400     16.7     48.2  360.8 
  40.500     66.8     47.4  367.2 
  40.600     33.4     46.9  377.3 
  40.700  -999.25     47.4  389.6 
  40.800  -999.25     47.4  399.2 
  40.900     16.7     47.4  408.8 
  41.000  -999.25     47.7  416.8 
  41.100     16.7     49.0  423.2 
  41.200  -999.25     48.5  427.2 
  41.300     33.4     49.0  432.0 
  41.400     33.4     48.8  434.4 
  41.500     50.1     48.2  436.8 
  41.600     16.7     48.0  437.6 
  41.700     16.7     47.6  438.1 
  41.800     16.7     47.7  439.2 
  41.900  -999.25     47.4  439.2 
  42.000     33.4     48.2  439.2 
  42.100  -999.25     48.2  438.4 
  42.200     16.7     48.0  437.6 
  42.300  -999.25     47.8  434.9 
  42.400     33.4     47.4  432.0 
  42.500  -999.25     47.4  429.6 
  42.600     16.7     47.4  425.6 
  42.700  -999.25     47.7  422.4 
  42.800     16.7     47.4  418.4 
  42.900  -999.25     49.0  416.0 
  43.000  -999.25     48.0  410.4 
  43.100  -999.25     48.5  406.4 
  43.200  -999.25     48.2  399.2 
  43.300  -999.25     49.0  392.8 
  43.400  -999.25     48.8  383.2 
  43.500  -999.25     49.8  375.2 
  43.600  -999.25     48.5  365.6 
  43.700  -999.25     48.8  357.6 
  43.800  -999.25     46.9  351.2 
  43.900     16.7     46.1  348.0 
  44.000  -999.25     45.5  345.6 
  44.100     16.7     46.4  345.6 
  44.200     50.1     46.6  346.4 
  44.300     33.4     47.2  346.4 
  44.400  -999.25     46.9  346.4 
  44.500     22.3     50.5  344.8 
  44.600     33.4     49.0  342.4 
  44.700  -999.25     48.5  338.4 
  44.800     16.7     47.7  333.6 
  44.900     16.7     48.0  328.8 
  45.000  -999.25     47.7  325.6 
  45.100     16.7     47.2  323.2 
  45.200  -999.25     46.9  322.4 
  45.300  -999.25     46.4  324.0 
  45.400     16.7     46.5  322.9 
  45.500     16.7     46.4  325.6 
  45.600  -999.25     46.1  327.2 
  45.700     33.4     46.4  329.6 
  45.800     16.7     46.1  332.0 
  45.900  -999.25     45.8  332.0 
  46.000  -999.25     46.6  333.6 
  46.100  -999.25     46.9  333.6 
  46.200     22.3     46.9  334.4 
  46.300     16.7     47.4  335.2 
  46.400  -999.25     47.7  336.0 
  46.500     16.7     46.9  336.8 
  46.600     16.7     46.6  336.8 
  46.700     16.7     48.0  337.6 
  46.800     16.7     49.6  336.0 
  46.900     33.4     46.9  336.0 
  47.000     50.1     48.0  335.2 
  47.100     16.7     47.6  335.7 
  47.200  -999.25     48.5  336.0 
  47.300     11.1     47.2  336.8 
  47.400     50.1     50.2  338.4 
  47.500     50.1     52.1  340.8 
  47.600     33.4     50.5  340.8 
  47.700     16.7     49.0  342.4 
  47.800  -999.25     49.8  342.4 
