~Version Information
 VERS.                2.0:  CWLS LOG ASCII STANDARD -VERSION 2.0
 WRAP.                 NO:  ONE LINE PER DEPTH STEP
~WELL INFORMATION BLOCK
#MNEM.UNIT       DATA		            DESCRIPTION OF MNEMONIC
#---------    -------------            ------------------------
 STRT.FT  2.100                          :START DEPTH
 STOP.FT  468.300                        :STOP DEPTH
 STEP.FT  0.100                          :STEP    UP_HOLE  
 NULL.    -999.25                        :NULL VALUE
 COMP.    NORTHFIELD CREAMERY            :COMPANY
 WELL.    217760                                                       :WELL
 FLD .    NORTHFIELD  71-B               :FIELD\LOCATION
 LOC .    36    112   20                 :LOCATION
 CNTY.    RICE                           :COUNTY
 STAT.    DDACAA                         :STATE
 CTRY.    USA                            :COUNTRY
 SRVC.    TRUCK                          :SERVICE COMPANY
 DATE.    11/08/91                       :LOG DATE
 API .                                       :API NUMBER
 LIC .                                   :LICENSE NUMBER
~Curve Information Block
#MNEM.UNIT      API CODE     Curve Description
#---------    -------------  ------------------------
 DEPT     .FT        00 001 00 00          :  1  DEPTH   
 GAMMA    .API-GR    00 310 00 00          :  2  GAMMA RAY           
 RES      .OHM       00 000 00 00          :  3  SINGLE POINT RES    
 SP       .MV        00 010 00 00          :  4  SPON POTENTIAL      
~Parameter Information Block
#MNEM.UNIT   Information     Description
#---------- ---------------  ------------------------
 FILE.      PROCESSED          :File Type
 FIID.      9060A              :File Type Identifier
 VERS.      V 6.0              :System Version
 SER .      1                  :System Serial Number
 TRUK.      1.000000           :Truck Calibration Number
 TOOL.         202             :Tool Serial Number
 TIME.      1310               :Time    HrHrMinMin
 LAT .                         :Latitude
 LON .                         :Longitude
 LMF .                         :Log Measured From
 DMF .                         :Driller Measured From
 PD  .      -5                 :Permanent Data
 PDEV.FT                       :Elevation Permanent Data
 EKB .FT                       :Elevation Kelly Bushing
 ELEV.FT                       :Elevation DF
 EGL .FT    912  5             :Elevation Ground Level
 DRDP.FT    647                :Driller's Depth
 CASD.FT                       :Casing Diameter
 CASB.FT                       :Casing Bottom
 CASX.      STEEL              :Casing Type
 CAST.IN    8                  :Casing Thickness
 TNOC.                         :Time Circulation Stopped
 LOGU.      C-1                :Logging Unit
 RECB.      RUNKEL             :Recorded By
 OSR1.                         :Other Services
 OSR2.                         :Other Services
 OSR3.                         :Other Services
 BS  .IN                       :Bit Size
 MST .F                        :Mean Surface Temperature
 TGRD.F                        :Temperature Gradiant
 MAGN.                         :Magnetic Declination
 MDEN.                         :Density Matrix
 MATR.                         :Neutron Matrix
 DTMT.                         :Delta T Matrix
 DTFL.                         :Delta T Fluid
 MUDS.                         :Mud Sample Source
 MRS .                         :Mud Resistivity
 MTP .                         :Mud Temperature
 MFRS.                         :Resistivity Mud Filtrate
 MFTP.                         :Temperature Mud Filtrate
 MCRS.                         :Resistivity Mud Cake
 MCTP.                         :Temperature Mud Cake
 FTYP.      WATER              :Fluid Type
 FD  .LB/G                     :Mud Weight
 DFV .S                        :Fluid Viscosity
 FPH .                         :Fuild PH
 ELCO.                         :Electron Cutoff
 CASL.IN                       :Casing Logger
 LOTD.FT                       :Logger TD
 ARTM.                         :Arrival Time
 DPTM.                         :Departure Time
 RIGN.                         :Rig Number
~Other Information
#MNEM.UNIT  Information      Description
#---------- ---------------  ------------------------
                                                                                                                                                                                C
                                                                                                                                                                 C
                                                                                                                                             C
                                                                                                                           C
                                                                                                       C
            0.000000000
         0.000000000
# -------------------------- 
~A DEPTH  GAMMA    RES      SP    
# ...
 322.700     50.1    153.5  17.6  
 322.800     50.1    154.2  16.8  
 322.900     50.1    155.6  16.3  
 323.000     66.8    156.3  16.0  
 323.100    100.1    158.4  17.6  
 323.200    100.1    159.1  17.6  
 323.300     83.4    161.3  20.0  
 323.400     83.4    161.3  18.4  
 323.500    116.8    161.8  20.0  
 323.600     50.1    163.4  21.6  
 323.700     50.1    163.4  24.0  
 323.800     50.1    164.1  25.6  
 323.900     33.4    164.8  24.8  
 324.000     66.8    163.4  25.6  
 324.100     66.8    162.7  25.6  
 324.200    100.1    161.3  24.8  
 324.300    133.5    161.3  24.0  
 324.400     66.8    160.6  24.0  
 324.500     50.1    160.6  23.2  
 324.600    100.1    160.6  24.0  
 324.700     16.7    160.6  24.0  
 324.800     83.4    159.9  26.4  
 324.900    183.6    161.3  25.6  
 325.000    100.1    161.3  26.4  
 325.100     50.1    161.3  25.6  
 325.200     16.7    162.7  25.6  
 325.300     83.4    162.7  25.6  
 325.400     50.1    164.8  25.6  
 325.500     83.4    164.8  25.6  
 325.600     83.4    166.3  27.2  
 325.700     66.8    165.5  27.2  
 325.800     22.3    164.8  27.2  
 325.900     66.8    165.5  28.0  
 326.000    100.1    165.5  26.4  
 326.100    100.1    165.5  25.6  
 326.200     33.4    167.7  25.6  
 326.300     50.1    167.7  24.8  
 326.400    133.5    169.1  25.6  
 326.500    100.1    169.1  26.4  
 326.600     66.8    169.8  26.4  
 326.700     50.1    170.3  26.4  
 326.800  -999.25    173.4  27.2  
 326.900    133.5    175.5  26.4  
 327.000     83.4    176.9  27.2  
 327.100    100.1    177.6  26.4  
 327.200     83.4    176.9  27.2  
 327.300    100.1    175.5  27.2  
 327.400    100.1    175.5  26.4  
 327.500     66.8    174.8  26.4  
 327.600     83.4    175.5  26.4  
 327.700     33.4    178.3  26.4  
 327.800     33.4    179.1  26.4  
 327.900     33.4    181.9  26.4  
 328.000    100.1    184.0  25.6  
 328.100     66.8    185.5  25.6  
 328.200     50.1    186.9  25.6  
 328.300     50.1    186.9  26.4  
 328.400     83.4    188.3  25.3  
 328.500    133.5    189.7  26.4  
 328.600     66.8    190.4  25.6  
 328.700     66.8    189.7  26.4  
 328.800     50.1    189.7  26.4  
 328.900    116.8    189.0  25.6  
 329.000    100.1    189.7  25.6  
 329.100     83.4    190.4  24.8  
 329.200     83.4    193.3  24.8  
 329.300     83.4    197.5  25.6  
 329.400    133.5    199.7  25.6  
 329.500    133.5    200.4  24.8  
 329.600     50.1    199.7  24.0  
 329.700     83.4    198.2  23.2  
 329.800     66.8    198.2  23.2  
 329.900     16.7    199.7  22.4  
 330.000    116.8    201.1  21.6  
 330.100     83.4    203.9  21.6  
 330.200    116.8    206.8  21.6  
 330.300    150.2    208.2  23.2  
 330.400    116.8    209.6  24.8  
 330.500     33.4    211.0  25.6  
 330.600     66.8    211.8  26.4  
 330.700    100.1    213.2  26.4  
 330.800    100.1    214.6  27.2  
 330.900    116.8    216.7  26.4  
 331.000     83.4    217.4  26.4  
 331.100     83.4    215.3  25.6  
 331.200     66.8    209.6  26.4  
 331.300    133.5    205.4  25.6  
 331.400     66.8    203.9  26.4  
 331.500    100.1    201.8  25.6  
 331.600    133.5    201.1  25.6  
 331.700     83.4    199.0  24.8  
 331.800     83.4    198.2  25.6  
 331.900     66.8    198.2  26.4  
 332.000    100.1    196.1  26.4  
 332.100     66.8    192.6  26.4  
 332.200    116.8    192.6  26.4  
 332.300    100.1    194.7  27.2  
 332.400    150.2    193.3  27.2  
 332.500     66.8    190.4  28.0  
 332.600    183.6    187.6  28.0  
 332.700    150.2    184.7  28.0  
 332.800    116.8    184.0  28.0  
 332.900    133.5    182.6  28.0  
 333.000    122.4    181.9  28.8  
 333.100    166.9    181.2  28.0  
 333.200    100.1    180.5  28.0  
 333.300    166.9    179.8  28.8  
 333.400    150.2    179.1  28.0  
 333.500     50.1    179.1  27.2  
 333.600    150.2    178.3  28.0  
 333.700     83.4    177.6  27.2  
 333.800    116.8    178.3  28.0  
 333.900    216.9    179.8  27.5  
 334.000    100.1    179.8  26.4  
 334.100    133.5    179.8  27.2  
 334.200    233.6    179.8  28.0  
 334.300    150.2    179.8  28.0  
 334.400     83.4    179.8  27.2  
 334.500    150.2    179.1  27.2  
 334.600     83.4    179.1  25.6  
 334.700    200.3    179.8  25.6  
 334.800    133.5    179.1  25.6  
 334.900    116.8    178.3  24.8  
 335.000    200.3    176.2  25.6  
 335.100    166.9    172.7  25.6  
 335.200    116.8    167.7  26.4  
 335.300    183.6    164.8  28.0  
 335.400     83.4    162.7  28.0  
 335.500    133.5    160.6  28.0  
 335.600    116.8    159.9  26.4  
 335.700    300.4    158.4  24.8  
 335.800    150.2    155.6  24.0  
 335.900    133.5    153.5  24.0  
 336.000    200.3    152.0  24.0  
 336.100    166.9    148.5  23.2  
 336.200    116.8    146.4  24.0  
 336.300    183.6    144.2  24.0  
 336.400    116.8    144.2  24.0  
 336.500    267.0    143.5  24.8  
 336.600    116.8    147.1  24.0  
 336.700    100.1    152.0  24.0  
 336.800    122.4    157.7  24.8  
 336.900    150.2    164.1  24.8  
 337.000     66.8    167.0  25.6  
 337.100     66.8    170.5  25.6  
 337.200    116.8    174.1  25.6  
 337.300     66.8    176.2  26.4  
 337.400     66.8    179.1  25.6  
 337.500     66.8    180.5  26.4  
 337.600     33.4    182.6  24.8  
 337.700     83.4    184.0  25.9  
 337.800    100.1    187.6  24.8  
 337.900     66.8    189.0  25.6  
 338.000     33.4    189.0  24.8  
 338.100     33.4    189.0  24.8  
 338.200     50.1    190.4  24.8  
 338.300     33.4    192.6  26.4  
 338.400  -999.25    201.1  24.8  
 338.500    100.1    204.6  25.6  
 338.600    116.8    202.5  25.6  
 338.700     66.8    199.7  25.6  
 338.800     66.8    196.8  24.8  
 338.900     83.4    196.1  24.0  
 339.000     50.1    194.0  24.8  
 339.100     83.4    195.4  23.2  
 339.200     66.8    196.1  23.2  
 339.300     83.4    199.7  21.6  
 339.400    100.1    205.4  21.6  
 339.500     33.4    208.9  20.8  
 339.600     50.1    208.9  21.6  
 339.700     83.4    208.2  21.6  
 339.800    100.1    206.8  21.6  
 339.900     66.8    205.4  21.6  
 340.000     66.8    203.9  22.4  
 340.100    116.8    205.4  22.4  
 340.200    166.9    211.0  21.6  
 340.300    100.1    208.2  22.4  
 340.400     66.8    201.1  22.4  
 340.500     50.1    195.4  23.2  
 340.600    116.8    191.1  23.2  
 340.700     50.1    183.3  22.4  
 340.800    116.8    179.8  23.2  
 340.900    100.1    179.1  21.6  
 341.000    183.6    177.6  21.6  
 341.100    116.8    180.5  20.8  
 341.200    100.1    181.2  20.0  
 341.300    116.8    182.6  20.8  
 341.400    183.6    183.3  20.0  
 341.500    116.8    184.0  19.2  
 341.600    100.1    188.3  19.2  
 341.700     83.4    184.0  18.4  
 341.800    133.5    171.9  19.2  
 341.900    216.9    161.3  18.4  
 342.000    150.2    155.6  18.4  
 342.100     66.8    152.0  19.2  
 342.200    133.5    149.2  18.4  
 342.300    166.9    146.4  18.4  
 342.400    216.9    147.1  19.2  
 342.500    150.2    148.5  18.4  
 342.600    200.3    148.5  19.2  
 342.700    150.2    147.8  18.4  
 342.800    133.5    147.8  19.2  
 342.900    166.9    147.8  20.0  
 343.000     83.4    145.6  19.2  
 343.100    116.8    145.6  20.0  
 343.200    216.9    143.3  19.5  
 343.300    116.8    142.8  20.8  
 343.400    150.2    143.5  20.0  
 343.500    250.3    144.2  20.8  
 343.600    166.9    142.1  21.6  
 343.700    116.8    140.7  21.6  
 343.800    166.9    140.0  21.6  
 343.900    216.9    142.8  21.6  
 344.000    166.9    144.9  21.6  
 344.100    166.9    146.4  20.8  
 344.200    200.3    149.9  20.8  
 344.300    183.6    152.7  20.0  
 344.400    100.1    155.6  20.8  
 344.500    133.5    159.1  20.0  
 344.600    166.9    159.1  20.0  
 344.700    122.4    157.7  20.8  
 344.800  -999.25    159.9  20.0  
 344.900    183.6    165.5  20.8  
 345.000    166.9    172.7  21.6  
 345.100    150.2    182.6  20.8  
 345.200     83.4    192.6  21.6  
 345.300    166.9    199.7  21.6  
 345.400    116.8    205.4  21.6  
 345.500     83.4    209.6  20.8  
