~Version Information
 VERS.                2.0:  CWLS LOG ASCII STANDARD -VERSION 2.0
 WRAP.                 NO:  ONE LINE PER DEPTH STEP
~WELL INFORMATION BLOCK
#MNEM.UNIT       DATA		            DESCRIPTION OF MNEMONIC
#---------    -------------            ------------------------
 STRT.FT  2.100                          :START DEPTH
 STOP.FT  468.300                        :STOP DEPTH
 STEP.FT  0.100                          :STEP    UP_HOLE  
 NULL.    -999.25                        :NULL VALUE
 COMP.    NORTHFIELD CREAMERY            :COMPANY
 WELL.    217760                                                       :WELL
 FLD .    NORTHFIELD  71-B               :FIELD\LOCATION
 LOC .    36    112   20                 :LOCATION
 CNTY.    RICE                           :COUNTY
 STAT.    DDACAA                         :STATE
 CTRY.    USA                            :COUNTRY
 SRVC.    TRUCK                          :SERVICE COMPANY
 DATE.    11/08/91                       :LOG DATE
 API .                                       :API NUMBER
 LIC .                                   :LICENSE NUMBER
~Curve Information Block
#MNEM.UNIT      API CODE     Curve Description
#---------    -------------  ------------------------
 DEPT     .FT        00 001 00 00          :  1  DEPTH   
 GAMMA    .API-GR    00 310 00 00          :  2  GAMMA RAY           
 RES      .OHM       00 000 00 00          :  3  SINGLE POINT RES    
 SP       .MV        00 010 00 00          :  4  SPON POTENTIAL      
~Parameter Information Block
#MNEM.UNIT   Information     Description
#---------- ---------------  ------------------------
 FILE.      PROCESSED          :File Type
 FIID.      9060A              :File Type Identifier
 VERS.      V 6.0              :System Version
 SER .      1                  :System Serial Number
 TRUK.      1.000000           :Truck Calibration Number
 TOOL.         202             :Tool Serial Number
 TIME.      1310               :Time    HrHrMinMin
 LAT .                         :Latitude
 LON .                         :Longitude
 LMF .                         :Log Measured From
 DMF .                         :Driller Measured From
 PD  .      -5                 :Permanent Data
 PDEV.FT                       :Elevation Permanent Data
 EKB .FT                       :Elevation Kelly Bushing
 ELEV.FT                       :Elevation DF
 EGL .FT    912  5             :Elevation Ground Level
 DRDP.FT    647                :Driller's Depth
 CASD.FT                       :Casing Diameter
 CASB.FT                       :Casing Bottom
 CASX.      STEEL              :Casing Type
 CAST.IN    8                  :Casing Thickness
 TNOC.                         :Time Circulation Stopped
 LOGU.      C-1                :Logging Unit
 RECB.      RUNKEL             :Recorded By
 OSR1.                         :Other Services
 OSR2.                         :Other Services
 OSR3.                         :Other Services
 BS  .IN                       :Bit Size
 MST .F                        :Mean Surface Temperature
 TGRD.F                        :Temperature Gradiant
 MAGN.                         :Magnetic Declination
 MDEN.                         :Density Matrix
 MATR.                         :Neutron Matrix
 DTMT.                         :Delta T Matrix
 DTFL.                         :Delta T Fluid
 MUDS.                         :Mud Sample Source
 MRS .                         :Mud Resistivity
 MTP .                         :Mud Temperature
 MFRS.                         :Resistivity Mud Filtrate
 MFTP.                         :Temperature Mud Filtrate
 MCRS.                         :Resistivity Mud Cake
 MCTP.                         :Temperature Mud Cake
 FTYP.      WATER              :Fluid Type
 FD  .LB/G                     :Mud Weight
 DFV .S                        :Fluid Viscosity
 FPH .                         :Fuild PH
 ELCO.                         :Electron Cutoff
 CASL.IN                       :Casing Logger
 LOTD.FT                       :Logger TD
 ARTM.                         :Arrival Time
 DPTM.                         :Departure Time
 RIGN.                         :Rig Number
~Other Information
#MNEM.UNIT  Information      Description
#---------- ---------------  ------------------------
                                                                                                                                                                                C
                                                                                                                                                                 C
                                                                                                                                             C
                                                                                                                           C
                                                                                                       C
            0.000000000
         0.000000000
# -------------------------- 
~A DEPTH  GAMMA    RES      SP    
# ...
 231.100     16.7    211.0  12.0  
 231.200     16.7    211.8  12.0  
 231.300     33.4    210.3  12.8  
 231.400  -999.25    209.6  12.8  
 231.500     16.7    208.2  13.6  
 231.600  -999.25    209.6  12.0  
 231.700     16.7    208.9  12.8  
 231.800  -999.25    209.6  12.8  
 231.900  -999.25    208.9  12.8  
 232.000  -999.25    208.9  12.0  
 232.100     50.1    208.2  12.8  
 232.200     33.4    209.6  12.0  
 232.300  -999.25    208.2  12.8  
 232.400  -999.25    207.5  12.0  
 232.500  -999.25    207.5  12.8  
 232.600  -999.25    206.1  13.6  
 232.700  -999.25    204.6  13.6  
 232.800  -999.25    204.6  13.6  
 232.900  -999.25    202.5  13.6  
 233.000  -999.25    203.9  14.4  
 233.100  -999.25    203.2  14.4  
 233.200  -999.25    203.2  14.4  
 233.300     33.4    203.2  14.4  
 233.400  -999.25    204.6  14.4  
 233.500  -999.25    204.6  15.2  
 233.600  -999.25    205.4  13.6  
 233.700  -999.25    205.4  15.2  
 233.800     16.7    206.1  15.2  
 233.900  -999.25    204.6  15.2  
 234.000  -999.25    204.6  16.0  
 234.100  -999.25    203.9  16.0  
 234.200  -999.25    203.9  16.8  
 234.300  -999.25    202.5  16.8  
 234.400  -999.25    202.5  16.8  
 234.500     16.7    201.1  16.8  
 234.600  -999.25    201.1  16.0  
 234.700  -999.25    199.7  16.8  
 234.800  -999.25    199.7  16.8  
 234.900  -999.25    199.0  16.8  
 235.000     16.7    199.7  16.8  
 235.100  -999.25    199.0  17.6  
 235.200  -999.25    198.2  16.8  
 235.300  -999.25    198.2  17.6  
 235.400  -999.25    199.0  16.8  
 235.500  -999.25    199.7  17.6  
 235.600  -999.25    199.0  17.6  
 235.700  -999.25    199.7  16.8  
 235.800     16.7    199.7  18.4  
 235.900  -999.25    199.7  17.6  
 236.000  -999.25    198.2  17.6  
 236.100  -999.25    197.5  19.2  
 236.200  -999.25    198.2  18.4  
 236.300  -999.25    198.2  19.2  
 236.400  -999.25    196.8  20.0  
 236.500  -999.25    197.5  19.2  
 236.600  -999.25    195.4  20.0  
 236.700     16.7    193.3  20.0  
 236.800     16.7    192.6  20.0  
 236.900  -999.25    193.3  20.0  
 237.000  -999.25    192.6  20.0  
 237.100  -999.25    192.6  19.2  
 237.200  -999.25    191.8  20.0  
 237.300     16.7    192.6  20.0  
 237.400  -999.25    191.8  19.2  
 237.500  -999.25    192.6  20.0  
 237.600     16.7    191.1  20.0  
 237.700     16.7    190.4  19.2  
 237.800     16.7    191.1  20.0  
 237.900  -999.25    189.7  19.5  
 238.000  -999.25    189.7  20.8  
 238.100  -999.25    189.7  20.8  
 238.200  -999.25    189.7  22.4  
 238.300  -999.25    189.7  21.6  
 238.400  -999.25    188.3  23.2  
 238.500  -999.25    189.0  23.2  
 238.600  -999.25    188.3  21.6  
 238.700  -999.25    188.3  20.0  
 238.800  -999.25    188.3  20.0  
 238.900  -999.25    187.6  20.0  
 239.000  -999.25    188.3  20.8  
 239.100  -999.25    187.6  20.0  
 239.200     11.1    187.6  20.8  
 239.300  -999.25    188.3  20.8  
 239.400  -999.25    188.3  20.8  
 239.500  -999.25    188.3  21.6  
 239.600  -999.25    188.3  21.6  
 239.700     33.4    187.6  21.6  
 239.800  -999.25    187.6  20.8  
 239.900     16.7    186.9  20.8  
 240.000  -999.25    185.5  21.6  
 240.100  -999.25    186.9  21.1  
 240.200  -999.25    186.9  21.6  
 240.300  -999.25    186.9  22.4  
 240.400     11.1    186.9  23.2  
 240.500  -999.25    187.6  23.2  
 240.600  -999.25    186.9  23.2  
 240.700  -999.25    187.8  23.2  
 240.800     16.7    188.3  23.2  
 240.900  -999.25    188.3  23.2  
 241.000  -999.25    186.9  22.4  
 241.100  -999.25    186.9  22.4  
 241.200     16.7    186.9  21.6  
 241.300     33.4    184.5  22.1  
 241.400  -999.25    182.6  22.4  
 241.500  -999.25    181.9  22.4  
 241.600  -999.25    182.6  21.6  
 241.700  -999.25    181.2  21.6  
 241.800     16.7    181.2  21.6  
 241.900  -999.25    178.8  21.1  
 242.000  -999.25    176.9  20.8  
 242.100  -999.25    176.2  21.6  
 242.200  -999.25    175.5  21.6  
 242.300     16.7    176.2  21.6  
 242.400  -999.25    176.2  22.4  
 242.500  -999.25    174.8  21.6  
 242.600  -999.25    174.8  22.4  
 242.700     16.7    174.1  23.2  
 242.800  -999.25    174.1  22.4  
 242.900  -999.25    175.5  23.2  
 243.000  -999.25    174.8  22.4  
 243.100  -999.25    175.5  23.2  
 243.200  -999.25    174.1  21.6  
 243.300  -999.25    173.4  22.4  
 243.400  -999.25    171.9  20.8  
 243.500  -999.25    171.2  21.6  
 243.600  -999.25    171.2  21.6  
 243.700     16.7    171.9  21.6  
 243.800  -999.25    171.2  21.6  
 243.900     16.7    172.7  21.6  
 244.000  -999.25    172.7  22.4  
 244.100  -999.25    173.4  22.4  
 244.200  -999.25    172.7  23.2  
 244.300  -999.25    173.4  23.2  
 244.400  -999.25    173.4  24.0  
 244.500     16.7    172.7  24.0  
 244.600     33.4    173.4  24.8  
 244.700     16.7    173.4  24.0  
 244.800  -999.25    173.4  24.0  
 244.900     16.7    173.4  24.8  
 245.000  -999.25    174.1  26.4  
 245.100  -999.25    174.1  24.8  
 245.200     16.7    174.1  25.6  
 245.300  -999.25    175.5  25.6  
 245.400  -999.25    175.5  25.6  
 245.500  -999.25    176.9  24.8  
 245.600     16.7    176.9  25.6  
 245.700     16.7    179.1  24.8  
 245.800  -999.25    179.8  24.8  
 245.900  -999.25    182.6  24.8  
 246.000  -999.25    184.0  24.8  
 246.100  -999.25    184.7  24.8  
 246.200     33.4    184.0  23.2  
 246.300  -999.25    184.0  24.8  
 246.400     33.4    184.7  24.0  
 246.500     33.4    184.0  24.8  
 246.600  -999.25    184.0  24.0  
 246.700  -999.25    184.0  24.0  
 246.800  -999.25    184.0  24.0  
 246.900  -999.25    186.9  24.8  
 247.000  -999.25    186.2  24.8  
 247.100     16.7    188.3  25.6  
 247.200     33.4    191.8  26.4  
 247.300  -999.25    193.3  28.0  
 247.400  -999.25    192.6  27.2  
 247.500  -999.25    191.1  26.4  
 247.600  -999.25    191.1  24.0  
 247.700  -999.25    190.4  24.0  
 247.800  -999.25    189.0  24.0  
 247.900     11.1    186.9  24.8  
 248.000  -999.25    186.2  24.8  
 248.100  -999.25    185.5  24.8  
 248.200  -999.25    185.5  24.8  
 248.300  -999.25    183.3  24.0  
 248.400  -999.25    182.6  24.0  
 248.500     16.7    183.3  24.0  
 248.600  -999.25    184.0  23.2  
 248.700  -999.25    182.6  21.6  
 248.800     33.4    182.1  23.2  
 248.900  -999.25    181.2  21.6  
 249.000     16.7    181.2  23.2  
 249.100  -999.25    180.5  23.2  
 249.200  -999.25    179.1  23.2  
 249.300  -999.25    180.5  22.4  
 249.400  -999.25    179.8  23.2  
 249.500     16.7    180.5  24.0  
 249.600     16.7    179.8  24.0  
 249.700     16.7    178.3  23.2  
 249.800  -999.25    177.6  24.8  
 249.900  -999.25    176.9  22.4  
 250.000  -999.25    176.9  22.4  
 250.100     16.7    176.9  22.4  
 250.200     16.7    178.3  23.2  
 250.300     33.4    179.1  22.4  
 250.400     16.7    181.2  23.2  
 250.500  -999.25    181.2  22.4  
 250.600  -999.25    181.2  22.4  
 250.700  -999.25    180.5  21.6  
 250.800     66.8    179.8  22.4  
 250.900     16.7    179.8  21.6  
 251.000  -999.25    179.8  22.4  
 251.100     16.7    179.8  21.6  
 251.200  -999.25    180.5  22.4  
 251.300  -999.25    179.1  22.4  
 251.400  -999.25    179.1  21.6  
 251.500  -999.25    179.1  21.6  
 251.600  -999.25    176.9  21.6  
 251.700  -999.25    177.6  20.8  
 251.800     16.7    177.6  20.8  
 251.900  -999.25    178.3  20.8  
 252.000  -999.25    179.1  20.8  
 252.100  -999.25    179.8  20.8  
 252.200     16.7    178.3  21.6  
 252.300     66.8    179.8  21.6  
 252.400     11.1    179.1  21.6  
 252.500  -999.25    179.1  21.6  
 252.600     16.7    177.6  21.6  
 252.700     33.4    176.2  20.8  
 252.800  -999.25    174.8  20.8  
 252.900     33.4    174.8  20.8  
 253.000     11.1    175.5  20.0  
 253.100  -999.25    175.5  21.6  
 253.200     16.7    175.5  21.6  
 253.300  -999.25    175.5  21.1  
 253.400  -999.25    176.2  21.6  
 253.500  -999.25    176.2  21.6  
 253.600  -999.25    174.1  21.6  
 253.700  -999.25    175.5  20.8  
 253.800     16.7    175.5  21.6  
 253.900  -999.25    174.5  21.6  
