~Version Information
 VERS.                2.0:  CWLS LOG ASCII STANDARD -VERSION 2.0
 WRAP.                 NO:  ONE LINE PER DEPTH STEP
~WELL INFORMATION BLOCK
#MNEM.UNIT       DATA		            DESCRIPTION OF MNEMONIC
#---------    -------------            ------------------------
 STRT.FT  2.100                          :START DEPTH
 STOP.FT  468.300                        :STOP DEPTH
 STEP.FT  0.100                          :STEP    UP_HOLE  
 NULL.    -999.25                        :NULL VALUE
 COMP.    NORTHFIELD CREAMERY            :COMPANY
 WELL.    217760                                                       :WELL
 FLD .    NORTHFIELD  71-B               :FIELD\LOCATION
 LOC .    36    112   20                 :LOCATION
 CNTY.    RICE                           :COUNTY
 STAT.    DDACAA                         :STATE
 CTRY.    USA                            :COUNTRY
 SRVC.    TRUCK                          :SERVICE COMPANY
 DATE.    11/08/91                       :LOG DATE
 API .                                       :API NUMBER
 LIC .                                   :LICENSE NUMBER
~Curve Information Block
#MNEM.UNIT      API CODE     Curve Description
#---------    -------------  ------------------------
 DEPT     .FT        00 001 00 00          :  1  DEPTH   
 GAMMA    .API-GR    00 310 00 00          :  2  GAMMA RAY           
 RES      .OHM       00 000 00 00          :  3  SINGLE POINT RES    
 SP       .MV        00 010 00 00          :  4  SPON POTENTIAL      
~Parameter Information Block
#MNEM.UNIT   Information     Description
#---------- ---------------  ------------------------
 FILE.      PROCESSED          :File Type
 FIID.      9060A              :File Type Identifier
 VERS.      V 6.0              :System Version
 SER .      1                  :System Serial Number
 TRUK.      1.000000           :Truck Calibration Number
 TOOL.         202             :Tool Serial Number
 TIME.      1310               :Time    HrHrMinMin
 LAT .                         :Latitude
 LON .                         :Longitude
 LMF .                         :Log Measured From
 DMF .                         :Driller Measured From
 PD  .      -5                 :Permanent Data
 PDEV.FT                       :Elevation Permanent Data
 EKB .FT                       :Elevation Kelly Bushing
 ELEV.FT                       :Elevation DF
 EGL .FT    912  5             :Elevation Ground Level
 DRDP.FT    647                :Driller's Depth
 CASD.FT                       :Casing Diameter
 CASB.FT                       :Casing Bottom
 CASX.      STEEL              :Casing Type
 CAST.IN    8                  :Casing Thickness
 TNOC.                         :Time Circulation Stopped
 LOGU.      C-1                :Logging Unit
 RECB.      RUNKEL             :Recorded By
 OSR1.                         :Other Services
 OSR2.                         :Other Services
 OSR3.                         :Other Services
 BS  .IN                       :Bit Size
 MST .F                        :Mean Surface Temperature
 TGRD.F                        :Temperature Gradiant
 MAGN.                         :Magnetic Declination
 MDEN.                         :Density Matrix
 MATR.                         :Neutron Matrix
 DTMT.                         :Delta T Matrix
 DTFL.                         :Delta T Fluid
 MUDS.                         :Mud Sample Source
 MRS .                         :Mud Resistivity
 MTP .                         :Mud Temperature
 MFRS.                         :Resistivity Mud Filtrate
 MFTP.                         :Temperature Mud Filtrate
 MCRS.                         :Resistivity Mud Cake
 MCTP.                         :Temperature Mud Cake
 FTYP.      WATER              :Fluid Type
 FD  .LB/G                     :Mud Weight
 DFV .S                        :Fluid Viscosity
 FPH .                         :Fuild PH
 ELCO.                         :Electron Cutoff
 CASL.IN                       :Casing Logger
 LOTD.FT                       :Logger TD
 ARTM.                         :Arrival Time
 DPTM.                         :Departure Time
 RIGN.                         :Rig Number
~Other Information
#MNEM.UNIT  Information      Description
#---------- ---------------  ------------------------
                                                                                                                                                                                C
                                                                                                                                                                 C
                                                                                                                                             C
                                                                                                                           C
                                                                                                       C
            0.000000000
         0.000000000
# -------------------------- 
~A DEPTH  GAMMA    RES      SP    
# ...
 437.200    150.2    157.7  13.6  
 437.300    133.5    155.6  13.6  
 437.400    183.6    152.0  12.0  
 437.500    166.9    145.6  12.8  
 437.600    283.7    142.1  12.0  
 437.700    200.3    140.7  12.0  
 437.800    166.9    143.5  12.0  
 437.900    200.3    147.1  12.0  
 438.000    183.6    149.9  12.0  
 438.100    200.3    151.3  12.0  
 438.200    200.3    152.7  12.0  
 438.300    150.2    154.2  12.0  
 438.400    183.6    154.9  12.0  
 438.500    200.3    156.3  12.0  
 438.600    133.5    157.0  12.8  
 438.700    133.5    158.4  12.0  
 438.800    200.3    159.1  12.8  
 438.900    166.9    159.9  12.8  
 439.000    166.9    161.3  13.6  
 439.100    150.2    162.0  12.8  
 439.200    100.1    162.7  13.6  
 439.300    116.8    163.4  13.6  
 439.400    166.9    164.1  12.8  
 439.500    133.5    164.8  12.0  
 439.600    178.0    164.1  10.4  
 439.700    116.8    163.4  12.0  
 439.800    166.9    162.7  11.2  
 439.900    166.9    161.3  11.2  
 440.000    200.3    159.9  12.0  
 440.100    183.6    159.9  12.8  
 440.200    150.2    159.9  12.8  
 440.300    183.6    158.4  12.8  
 440.400    100.1    157.0  13.6  
 440.500    367.1    155.6  13.1  
 440.600    200.3    154.9  12.8  
 440.700    150.2    152.7  12.8  
 440.800    166.9    151.3  12.0  
 440.900    150.2    149.9  12.0  
 441.000    250.3    150.6  12.8  
 441.100    166.9    150.6  12.0  
 441.200    333.8    146.4  12.0  
 441.300    200.3    140.7  12.0  
 441.400    166.9    137.1  12.0  
 441.500    183.6    138.5  12.8  
 441.600     83.4    145.6  13.6  
 441.700    116.8    157.7  14.4  
 441.800    150.2    169.1  14.4  
 441.900    100.1    177.6  14.4  
 442.000    150.2    183.3  12.8  
 442.100  -999.25    186.9  12.0  
 442.200     33.4    189.7  13.1  
 442.300    116.8    190.4  14.4  
 442.400    150.2    188.3  14.4  
 442.500    216.9    186.9  14.4  
 442.600    166.9    184.0  14.4  
 442.700    200.3    183.3  13.6  
 442.800     33.4    181.9  12.8  
 442.900    166.9    180.5  12.0  
 443.000    166.9    179.8  12.0  
 443.100    116.8    179.1  12.0  
 443.200    183.6    178.3  12.0  
 443.300    183.6    177.6  12.8  
 443.400     50.1    177.6  13.6  
 443.500    200.3    176.9  12.8  
 443.600    150.2    176.9  13.6  
 443.700    116.8    176.9  12.8  
 443.800    200.3    176.9  13.6  
 443.900    183.6    176.2  14.4  
 444.000    150.2    175.5  13.6  
 444.100    150.2    176.2  14.4  
 444.200    183.6    175.5  13.6  
 444.300    200.3    174.8  14.4  
 444.400    200.3    175.5  13.6  
 444.500    233.6    174.1  14.4  
 444.600    333.8    172.7  13.6  
 444.700    216.9    171.9  14.4  
 444.800    166.9    171.2  13.6  
 444.900    166.9    170.5  13.6  
 445.000    166.9    170.5  14.4  
 445.100    200.3    169.8  13.6  
 445.200    216.9    169.8  13.6  
 445.300    133.5    169.8  13.6  
 445.400    166.9    169.1  12.8  
 445.500    300.4    170.5  12.8  
 445.600    178.0    169.8  12.8  
 445.700    133.5    169.8  12.8  
 445.800    267.0    169.8  12.0  
 445.900    267.0    169.8  13.1  
 446.000    150.2    170.5  12.8  
 446.100    283.7    171.2  13.6  
 446.200    116.8    171.2  13.6  
 446.300    233.6    171.2  13.6  
 446.400    183.6    172.7  13.6  
 446.500    216.9    174.1  14.1  
 446.600    267.0    175.5  13.6  
 446.700    166.9    176.2  14.4  
 446.800    267.0    178.3  14.4  
 446.900    200.3    179.1  14.4  
 447.000    283.7    180.5  14.4  
 447.100    250.3    180.5  14.4  
 447.200    166.9    181.2  13.6  
 447.300    178.0    182.6  14.4  
 447.400    150.2    183.3  14.4  
 447.500    100.1    185.5  13.6  
 447.600    166.9    185.0  14.7  
 447.700    100.1    186.2  13.6  
 447.800    150.2    185.5  15.2  
 447.900    216.9    185.5  13.6  
 448.000    133.5    185.5  14.4  
 448.100    133.5    185.5  13.6  
 448.200    233.6    184.5  13.6  
 448.300    166.9    183.3  13.6  
 448.400    178.0    181.9  12.8  
 448.500    133.5    181.2  12.8  
 448.600    183.6    180.5  12.0  
 448.700    133.5    179.1  12.0  
 448.800    216.9    177.6  11.2  
 448.900    233.6    176.9  12.0  
 449.000    166.9    176.9  11.2  
 449.100    216.9    176.9  10.4  
 449.200     83.4    175.5  12.0  
 449.300    133.5    175.5  10.4  
 449.400    200.3    174.1  10.4  
 449.500    233.6    174.8  10.4  
 449.600    150.2    174.1  10.4  
 449.700    100.1    173.4  10.4  
 449.800    183.6    172.7  10.4  
 449.900    267.0    173.6  10.4  
 450.000    233.6    172.7  10.4  
 450.100    116.8    174.1  11.2  
 450.200    116.8    175.5  12.0  
 450.300    183.6    176.9  12.0  
 450.400    166.9    179.1  12.8  
 450.500    116.8    179.8  12.8  
 450.600    233.6    180.5  12.8  
 450.700    111.3    179.8  11.2  
 450.800    300.4    179.8  11.2  
 450.900    133.5    179.8  10.4  
 451.000    100.1    179.8  10.4  
 451.100    150.2    178.3  11.2  
 451.200    116.8    177.6  10.4  
 451.300    233.6    176.2  10.4  
 451.400    133.5    174.1  11.2  
 451.500    100.1    172.7  10.4  
 451.600    200.3    172.2  11.5  
 451.700    133.5    171.2  11.2  
 451.800    200.3    170.5  11.2  
 451.900    183.6    169.1  11.2  
 452.000    267.0    169.1  11.2  
 452.100    150.2    167.0  11.2  
 452.200    133.5    166.3  11.2  
 452.300    200.3    163.4  12.0  
 452.400    200.3    161.3  11.2  
 452.500    183.6    159.9  12.0  
 452.600    233.6    161.3  11.2  
 452.700    116.8    162.7  12.0  
 452.800    216.9    164.1  11.2  
 452.900    300.4    165.5  12.0  
 453.000    183.6    167.0  12.0  
 453.100    233.6    167.7  11.2  
 453.200    166.9    169.1  12.8  
 453.300    178.0    168.4  12.0  
 453.400    250.3    169.1  12.0  
 453.500    216.9    168.4  11.2  
 453.600    200.3    169.1  12.8  
 453.700    166.9    169.1  12.8  
 453.800    133.5    169.8  12.8  
 453.900    222.5    170.5  12.0  
 454.000    333.8    171.9  12.8  
 454.100    216.9    171.2  12.0  
 454.200    183.6    172.7  12.5  
 454.300    216.9    172.7  12.8  
 454.400    250.3    173.4  12.0  
 454.500    150.2    171.9  12.0  
 454.600    300.4    171.2  13.6  
 454.700    166.9    171.2  12.0  
 454.800    200.3    169.8  12.5  
 454.900    300.4    168.4  12.8  
 455.000    200.3    165.5  12.0  
 455.100    216.9    164.1  12.8  
 455.200    100.1    164.1  12.8  
 455.300    200.3    163.4  12.0  
 455.400    166.9    165.5  12.0  
 455.500    300.4    169.8  12.0  
 455.600    178.0    171.9  12.0  
 455.700    150.2    170.5  11.2  
 455.800    267.0    169.8  12.0  
 455.900    267.0    167.0  12.5  
 456.000    216.9    167.0  12.0  
 456.100    200.3    168.4  13.6  
 456.200    300.4    168.4  12.8  
 456.300    233.6    169.1  12.8  
 456.400    200.3    171.2  13.6  
 456.500    166.9    170.8  13.1  
 456.600    183.6    171.9  14.4  
 456.700    150.2    172.7  13.6  
 456.800    267.0    172.7  14.4  
 456.900    183.6    173.4  14.4  
 457.000    133.5    171.2  15.2  
 457.100    183.6    170.5  15.2  
 457.200    300.4    169.8  15.2  
 457.300    200.3    170.5  15.2  
 457.400    133.5    170.5  15.2  
 457.500    300.4    169.8  14.4  
 457.600    200.3    170.5  14.4  
 457.700    200.3    173.4  13.6  
 457.800    200.3    175.5  13.6  
 457.900    183.6    175.5  12.8  
 458.000    150.2    176.9  12.8  
 458.100    233.6    176.9  12.0  
 458.200    200.3    180.5  12.0  
 458.300    200.3    183.3  12.0  
 458.400    166.9    185.5  12.0  
 458.500    166.9    186.2  12.0  
 458.600    267.0    186.2  12.0  
 458.700     83.4    185.5  12.0  
 458.800    183.6    184.7  11.2  
 458.900    150.2    181.9  11.2  
 459.000    267.0    177.6  11.2  
 459.100    155.8    172.7  11.2  
 459.200    100.1    169.1  11.2  
 459.300    283.7    167.7  10.4  
 459.400    183.6    168.4  12.0  
 459.500    333.8    168.4  11.2  
 459.600    183.6    168.4  12.0  
 459.700    166.9    168.4  12.0  
 459.800    100.1    169.1  13.6  
 459.900    255.9    169.8  13.6  
 460.000    216.9    170.3  14.1  
