~Version Information
 VERS.                2.0:  CWLS LOG ASCII STANDARD -VERSION 2.0
 WRAP.                 NO:  ONE LINE PER DEPTH STEP
~WELL INFORMATION BLOCK
#MNEM.UNIT       DATA		            DESCRIPTION OF MNEMONIC
#---------    -------------            ------------------------
 STRT.FT  2.100                          :START DEPTH
 STOP.FT  468.300                        :STOP DEPTH
 STEP.FT  0.100                          :STEP    UP_HOLE  
 NULL.    -999.25                        :NULL VALUE
 COMP.    NORTHFIELD CREAMERY            :COMPANY
 WELL.    217760                                                       :WELL
 FLD .    NORTHFIELD  71-B               :FIELD\LOCATION
 LOC .    36    112   20                 :LOCATION
 CNTY.    RICE                           :COUNTY
 STAT.    DDACAA                         :STATE
 CTRY.    USA                            :COUNTRY
 SRVC.    TRUCK                          :SERVICE COMPANY
 DATE.    11/08/91                       :LOG DATE
 API .                                       :API NUMBER
 LIC .                                   :LICENSE NUMBER
~Curve Information Block
#MNEM.UNIT      API CODE     Curve Description
#---------    -------------  ------------------------
 DEPT     .FT        00 001 00 00          :  1  DEPTH   
 GAMMA    .API-GR    00 310 00 00          :  2  GAMMA RAY           
 RES      .OHM       00 000 00 00          :  3  SINGLE POINT RES    
 SP       .MV        00 010 00 00          :  4  SPON POTENTIAL      
~Parameter Information Block
#MNEM.UNIT   Information     Description
#---------- ---------------  ------------------------
 FILE.      PROCESSED          :File Type
 FIID.      9060A              :File Type Identifier
 VERS.      V 6.0              :System Version
 SER .      1                  :System Serial Number
 TRUK.      1.000000           :Truck Calibration Number
 TOOL.         202             :Tool Serial Number
 TIME.      1310               :Time    HrHrMinMin
 LAT .                         :Latitude
 LON .                         :Longitude
 LMF .                         :Log Measured From
 DMF .                         :Driller Measured From
 PD  .      -5                 :Permanent Data
 PDEV.FT                       :Elevation Permanent Data
 EKB .FT                       :Elevation Kelly Bushing
 ELEV.FT                       :Elevation DF
 EGL .FT    912  5             :Elevation Ground Level
 DRDP.FT    647                :Driller's Depth
 CASD.FT                       :Casing Diameter
 CASB.FT                       :Casing Bottom
 CASX.      STEEL              :Casing Type
 CAST.IN    8                  :Casing Thickness
 TNOC.                         :Time Circulation Stopped
 LOGU.      C-1                :Logging Unit
 RECB.      RUNKEL             :Recorded By
 OSR1.                         :Other Services
 OSR2.                         :Other Services
 OSR3.                         :Other Services
 BS  .IN                       :Bit Size
 MST .F                        :Mean Surface Temperature
 TGRD.F                        :Temperature Gradiant
 MAGN.                         :Magnetic Declination
 MDEN.                         :Density Matrix
 MATR.                         :Neutron Matrix
 DTMT.                         :Delta T Matrix
 DTFL.                         :Delta T Fluid
 MUDS.                         :Mud Sample Source
 MRS .                         :Mud Resistivity
 MTP .                         :Mud Temperature
 MFRS.                         :Resistivity Mud Filtrate
 MFTP.                         :Temperature Mud Filtrate
 MCRS.                         :Resistivity Mud Cake
 MCTP.                         :Temperature Mud Cake
 FTYP.      WATER              :Fluid Type
 FD  .LB/G                     :Mud Weight
 DFV .S                        :Fluid Viscosity
 FPH .                         :Fuild PH
 ELCO.                         :Electron Cutoff
 CASL.IN                       :Casing Logger
 LOTD.FT                       :Logger TD
 ARTM.                         :Arrival Time
 DPTM.                         :Departure Time
 RIGN.                         :Rig Number
~Other Information
#MNEM.UNIT  Information      Description
#---------- ---------------  ------------------------
                                                                                                                                                                                C
                                                                                                                                                                 C
                                                                                                                                             C
                                                                                                                           C
                                                                                                       C
            0.000000000
         0.000000000
# -------------------------- 
~A DEPTH  GAMMA    RES      SP    
# ...
 414.300     50.1    218.9  13.6  
 414.400     33.4    216.0  13.6  
 414.500     50.1    212.5  12.8  
 414.600     66.8    208.9  12.0  
 414.700    100.1    205.4  12.0  
 414.800     83.4    202.5  10.4  
 414.900    116.8    199.0  10.4  
 415.000    166.9    194.0   9.6  
 415.100    183.6    189.7   9.6  
 415.200    150.2    185.5   8.8  
 415.300  -999.25    181.2   8.8  
 415.400     50.1    177.6   8.0  
 415.500    150.2    175.5   7.2  
 415.600    100.1    172.7   8.0  
 415.700    150.2    171.2   8.0  
 415.800    150.2    169.8   8.8  
 415.900    133.5    168.4   8.8  
 416.000    216.9    168.4   8.0  
 416.100     66.8    167.0   9.6  
 416.200    189.1    165.5   8.8  
 416.300    183.6    166.3   8.8  
 416.400    166.9    164.8   9.6  
 416.500    166.9    164.8   9.6  
 416.600    216.9    164.1  10.4  
 416.700    250.3    163.4   9.6  
 416.800    166.9    164.1   9.6  
 416.900    200.3    163.4   9.6  
 417.000    116.8    164.1   8.8  
 417.100    100.1    164.6   8.8  
 417.200    250.3    164.8   9.6  
 417.300     50.1    164.8   8.8  
 417.400     83.4    165.5   8.8  
 417.500    133.5    165.5   8.8  
 417.600    150.2    166.3   8.8  
 417.700    133.5    165.5  10.4  
 417.800    133.5    167.0   9.6  
 417.900    155.8    167.0   9.6  
 418.000    200.3    167.7  11.2  
 418.100    200.3    169.1  11.2  
 418.200    116.8    169.8  12.0  
 418.300    150.2    171.2  11.2  
 418.400    250.3    172.7  12.0  
 418.500    100.1    174.1  11.2  
 418.600    133.5    174.8  12.0  
 418.700    183.6    176.9  13.6  
 418.800    200.3    176.9  12.0  
 418.900    183.6    177.6  12.8  
 419.000    183.6    177.6  12.0  
 419.100     83.4    178.3  12.8  
 419.200    150.2    177.6  12.8  
 419.300    133.5    177.6  12.8  
 419.400    116.8    176.9  12.0  
 419.500    200.3    177.6  12.8  
 419.600    150.2    176.9  12.0  
 419.700    100.1    176.9  12.8  
 419.800     83.4    178.3  11.2  
 419.900     66.8    179.8  12.0  
 420.000    150.2    180.5  11.2  
 420.100    116.8    181.9  12.0  
 420.200    116.8    183.3  11.2  
 420.300    166.9    181.9  12.0  
 420.400    116.8    181.9  12.0  
 420.500    150.2    179.8  11.2  
 420.600    116.8    178.3  12.0  
 420.700     66.8    176.2  11.2  
 420.800    150.2    174.1  10.4  
 420.900    116.8    173.4  11.2  
 421.000     83.4    170.5  10.4  
 421.100     83.4    169.1  11.2  
 421.200    250.3    167.7  11.2  
 421.300    150.2    165.5  11.2  
 421.400    116.8    166.3  10.4  
 421.500    200.3    165.5  11.2  
 421.600    200.3    166.3  10.4  
 421.700    133.5    167.0  10.4  
 421.800    100.1    166.3  10.4  
 421.900    116.8    166.3  11.2  
 422.000    216.9    165.5  10.4  
 422.100    100.1    164.8  12.0  
 422.200    133.5    164.1  11.2  
 422.300    166.9    164.1  12.0  
 422.400    133.5    164.1  12.0  
 422.500    116.8    164.1  13.6  
 422.600    250.3    163.6  12.0  
 422.700    100.1    163.4  12.8  
 422.800    189.1    163.4  12.0  
 422.900     83.4    163.4  11.2  
 423.000    133.5    162.7  11.2  
 423.100    116.8    162.0  11.2  
 423.200     83.4    163.4  10.4  
 423.300    233.6    163.4  11.2  
 423.400    222.5    164.1  11.2  
 423.500    216.9    163.4  10.4  
 423.600    150.2    164.1  10.4  
 423.700    116.8    163.2  10.9  
 423.800    150.2    163.4  11.2  
 423.900    267.0    162.7  12.0  
 424.000    133.5    164.1  12.0  
 424.100    233.6    164.8  11.2  
 424.200    250.3    164.1  12.0  
 424.300    183.6    165.1  11.5  
 424.400    100.1    164.8  12.0  
 424.500    183.6    165.5  12.0  
 424.600    166.9    165.5  12.8  
 424.700    150.2    164.8  12.8  
 424.800    166.9    165.5  12.8  
 424.900    116.8    165.5  12.8  
 425.000    133.5    165.5  12.8  
 425.100    200.3    166.3  12.8  
 425.200    250.3    167.0  13.6  
 425.300    216.9    167.7  12.8  
 425.400    183.6    168.4  13.6  
 425.500    133.5    168.4  13.6  
 425.600    183.6    168.4  13.6  
 425.700    116.8    168.4  14.4  
 425.800    150.2    169.8  15.2  
 425.900    300.4    169.8  15.2  
 426.000    166.9    170.5  16.0  
 426.100    166.9    170.5  16.0  
 426.200    150.2    170.5  15.2  
 426.300    250.3    171.2  15.2  
 426.400    166.9    170.5  15.2  
 426.500    200.3    170.5  15.2  
 426.600    183.6    170.5  15.2  
 426.700    150.2    169.1  14.4  
 426.800    183.6    169.1  15.2  
 426.900    116.8    168.4  14.4  
 427.000    216.9    167.0  15.2  
 427.100    200.3    167.7  15.2  
 427.200     89.0    167.0  14.4  
 427.300    233.6    165.5  14.4  
 427.400    200.3    166.3  13.6  
 427.500    200.3    165.5  12.8  
 427.600    433.9    164.8  13.6  
 427.700    133.5    164.8  12.0  
 427.800    144.6    164.8  12.8  
 427.900    183.6    164.8  12.8  
 428.000    166.9    165.5  12.0  
 428.100    133.5    165.1  13.1  
 428.200    183.6    164.8  13.6  
 428.300    116.8    165.5  15.2  
 428.400    200.3    165.5  14.4  
 428.500    216.9    167.0  15.2  
 428.600    133.5    165.5  13.6  
 428.700    216.9    167.0  14.1  
 428.800    166.9    167.7  13.6  
 428.900    216.9    169.1  12.8  
 429.000    133.5    169.8  14.4  
 429.100    250.3    172.7  15.2  
 429.200    100.1    174.8  16.0  
 429.300    100.1    179.1  16.0  
 429.400    150.2    182.6  17.6  
 429.500    166.9    186.9  16.8  
 429.600    133.5    190.4  16.8  
 429.700     66.8    194.7  16.0  
 429.800    200.3    197.5  15.2  
 429.900    166.9    199.7  15.2  
 430.000    116.8    201.1  15.2  
 430.100    183.6    201.1  15.2  
 430.200    133.5    202.5  15.2  
 430.300     66.8    201.1  16.0  
 430.400     33.4    201.8  16.0  
 430.500     66.8    201.1  16.0  
 430.600     66.8    200.4  16.8  
 430.700    150.2    200.4  16.0  
 430.800     33.4    199.0  16.0  
 430.900     83.4    199.0  16.0  
 431.000    216.9    198.2  14.4  
 431.100     83.4    196.8  15.2  
 431.200    150.2    195.4  13.6  
 431.300     66.8    194.0  13.6  
 431.400    150.2    193.3  14.4  
 431.500     83.4    191.1  13.6  
 431.600    200.3    189.7  14.4  
 431.700    166.9    189.7  13.6  
 431.800    116.8    188.3  14.4  
 431.900    166.9    187.6  14.4  
 432.000    216.9    186.9  13.6  
 432.100    133.5    184.7  13.6  
 432.200     66.8    184.7  12.8  
 432.300    200.3    184.0  12.8  
 432.400    183.6    182.6  11.2  
 432.500    183.6    182.6  10.4  
 432.600    267.0    181.2  10.4  
 432.700    216.9    181.9   9.6  
 432.800    133.5    180.5   9.6  
 432.900    216.9    180.5  10.4  
 433.000     66.8    179.8   9.6  
 433.100    216.9    178.3  10.4  
 433.200    166.9    178.3  10.4  
 433.300    166.9    177.6  11.2  
 433.400    150.2    176.9  12.0  
 433.500     33.4    176.9  12.8  
 433.600    216.9    175.5  14.4  
 433.700    200.3    174.8  13.6  
 433.800    166.9    174.8  13.6  
 433.900    183.6    174.1  14.4  
 434.000    133.5    174.1  13.6  
 434.100    250.3    174.1  13.6  
 434.200    267.0    174.1  13.6  
 434.300    166.9    173.4  13.6  
 434.400    183.6    173.4  13.6  
 434.500    283.7    172.7  12.8  
 434.600    100.1    172.7  12.8  
 434.700    200.3    172.7  12.0  
 434.800    150.2    171.9  12.8  
 434.900    133.5    171.2  12.0  
 435.000    216.9    171.2  12.8  
 435.100     33.4    171.2  12.0  
 435.200    183.6    170.5  12.8  
 435.300    183.6    171.2  12.8  
 435.400    133.5    169.8  12.0  
 435.500    133.5    171.2  12.0  
 435.600    166.9    170.3  12.5  
 435.700    283.7    169.8  12.8  
 435.800    100.1    169.8  12.8  
 435.900    233.6    170.5  12.0  
 436.000    116.8    170.5  12.0  
 436.100    100.1    170.5  11.2  
 436.200    267.0    169.8  11.2  
 436.300    233.6    169.8  12.0  
 436.400    116.8    168.4  12.0  
 436.500    183.6    168.4  12.0  
 436.600    133.5    165.5  12.8  
 436.700    233.6    164.8  13.6  
 436.800    216.9    163.4  13.6  
 436.900    150.2    161.3  13.6  
 437.000    333.8    161.3  13.6  
 437.100     83.4    159.9  13.6  
