~Version Information
 VERS.                2.0:  CWLS LOG ASCII STANDARD -VERSION 2.0
 WRAP.                 NO:  ONE LINE PER DEPTH STEP
~WELL INFORMATION BLOCK
#MNEM.UNIT       DATA		            DESCRIPTION OF MNEMONIC
#---------    -------------            ------------------------
 STRT.FT  2.100                          :START DEPTH
 STOP.FT  468.300                        :STOP DEPTH
 STEP.FT  0.100                          :STEP    UP_HOLE  
 NULL.    -999.25                        :NULL VALUE
 COMP.    NORTHFIELD CREAMERY            :COMPANY
 WELL.    217760                                                       :WELL
 FLD .    NORTHFIELD  71-B               :FIELD\LOCATION
 LOC .    36    112   20                 :LOCATION
 CNTY.    RICE                           :COUNTY
 STAT.    DDACAA                         :STATE
 CTRY.    USA                            :COUNTRY
 SRVC.    TRUCK                          :SERVICE COMPANY
 DATE.    11/08/91                       :LOG DATE
 API .                                       :API NUMBER
 LIC .                                   :LICENSE NUMBER
~Curve Information Block
#MNEM.UNIT      API CODE     Curve Description
#---------    -------------  ------------------------
 DEPT     .FT        00 001 00 00          :  1  DEPTH   
 GAMMA    .API-GR    00 310 00 00          :  2  GAMMA RAY           
 RES      .OHM       00 000 00 00          :  3  SINGLE POINT RES    
 SP       .MV        00 010 00 00          :  4  SPON POTENTIAL      
~Parameter Information Block
#MNEM.UNIT   Information     Description
#---------- ---------------  ------------------------
 FILE.      PROCESSED          :File Type
 FIID.      9060A              :File Type Identifier
 VERS.      V 6.0              :System Version
 SER .      1                  :System Serial Number
 TRUK.      1.000000           :Truck Calibration Number
 TOOL.         202             :Tool Serial Number
 TIME.      1310               :Time    HrHrMinMin
 LAT .                         :Latitude
 LON .                         :Longitude
 LMF .                         :Log Measured From
 DMF .                         :Driller Measured From
 PD  .      -5                 :Permanent Data
 PDEV.FT                       :Elevation Permanent Data
 EKB .FT                       :Elevation Kelly Bushing
 ELEV.FT                       :Elevation DF
 EGL .FT    912  5             :Elevation Ground Level
 DRDP.FT    647                :Driller's Depth
 CASD.FT                       :Casing Diameter
 CASB.FT                       :Casing Bottom
 CASX.      STEEL              :Casing Type
 CAST.IN    8                  :Casing Thickness
 TNOC.                         :Time Circulation Stopped
 LOGU.      C-1                :Logging Unit
 RECB.      RUNKEL             :Recorded By
 OSR1.                         :Other Services
 OSR2.                         :Other Services
 OSR3.                         :Other Services
 BS  .IN                       :Bit Size
 MST .F                        :Mean Surface Temperature
 TGRD.F                        :Temperature Gradiant
 MAGN.                         :Magnetic Declination
 MDEN.                         :Density Matrix
 MATR.                         :Neutron Matrix
 DTMT.                         :Delta T Matrix
 DTFL.                         :Delta T Fluid
 MUDS.                         :Mud Sample Source
 MRS .                         :Mud Resistivity
 MTP .                         :Mud Temperature
 MFRS.                         :Resistivity Mud Filtrate
 MFTP.                         :Temperature Mud Filtrate
 MCRS.                         :Resistivity Mud Cake
 MCTP.                         :Temperature Mud Cake
 FTYP.      WATER              :Fluid Type
 FD  .LB/G                     :Mud Weight
 DFV .S                        :Fluid Viscosity
 FPH .                         :Fuild PH
 ELCO.                         :Electron Cutoff
 CASL.IN                       :Casing Logger
 LOTD.FT                       :Logger TD
 ARTM.                         :Arrival Time
 DPTM.                         :Departure Time
 RIGN.                         :Rig Number
~Other Information
#MNEM.UNIT  Information      Description
#---------- ---------------  ------------------------
                                                                                                                                                                                C
                                                                                                                                                                 C
                                                                                                                                             C
                                                                                                                           C
                                                                                                       C
            0.000000000
         0.000000000
# -------------------------- 
~A DEPTH  GAMMA    RES      SP    
# ...
  93.700     33.4    306.6  92.8  
  93.800     16.7    308.0  93.6  
  93.900     16.7    303.7  92.8  
  94.000     16.7    299.4  93.6  
  94.100     33.4    292.1  93.6  
  94.200     16.7    284.9  93.6  
  94.300     33.4    279.2  93.6  
  94.400     33.4    277.7  92.8  
  94.500  -999.25    277.7  92.8  
  94.600  -999.25    277.7  92.8  
  94.700     33.4    279.2  92.8  
  94.800     16.7    279.2  92.8  
  94.900  -999.25    277.7  92.0  
  95.000     22.3    276.3  92.0  
  95.100  -999.25    270.5  90.4  
  95.200     16.7    261.8  90.4  
  95.300     16.7    254.6  89.6  
  95.400     16.7    251.7  88.8  
  95.500     16.7    248.7  88.8  
  95.600  -999.25    248.0  89.6  
  95.700     33.4    247.3  89.6  
  95.800  -999.25    248.0  90.4  
  95.900     16.7    246.6  90.4  
  96.000     33.4    246.6  88.8  
  96.100     33.4    245.9  89.6  
  96.200     50.1    245.2  88.0  
  96.300     66.8    246.6  88.8  
  96.400     33.4    247.3  88.8  
  96.500     33.4    250.3  88.8  
  96.600  -999.25    253.2  89.6  
  96.700     66.8    257.5  88.8  
  96.800     33.4    257.5  88.0  
  96.900     16.7    257.5  88.0  
  97.000     33.4    264.7  87.2  
  97.100    166.9    267.6  87.2  
  97.200     50.1    261.8  87.2  
  97.300     33.4    256.1  87.2  
  97.400    100.1    253.2  86.4  
  97.500     50.1    251.7  87.2  
  97.600     50.1    254.6  85.6  
  97.700     50.1    263.3  84.8  
  97.800  -999.25    271.9  83.2  
  97.900     33.4    283.5  84.0  
  98.000     83.4    292.1  83.2  
  98.100     50.1    296.5  82.4  
  98.200     50.1    303.7  83.2  
  98.300     33.4    308.0  83.2  
  98.400     16.7    310.9  81.6  
  98.500  -999.25    312.4  82.4  
  98.600     16.7    315.2  81.6  
  98.700     66.8    316.7  81.6  
  98.800     33.4    315.2  82.4  
  98.900     16.7    319.6  82.4  
  99.000     33.4    321.0  82.4  
  99.100  -999.25    326.8  82.4  
  99.200     33.4    329.7  82.4  
  99.300     16.7    334.0  80.8  
  99.400     16.7    338.3  80.8  
  99.500     33.4    341.2  79.2  
  99.600     50.1    348.4  77.6  
  99.700  -999.25    348.4  77.6  
  99.800     44.5    347.0  76.8  
  99.900     33.4    344.1  76.8  
 100.000  -999.25    338.3  76.0  
 100.100  -999.25    332.6  76.8  
 100.200  -999.25    329.7  76.8  
 100.300     16.7    329.7  76.8  
 100.400     16.7    331.1  76.8  
 100.500  -999.25    334.0  76.0  
 100.600  -999.25    332.6  76.0  
 100.700     16.7    338.3  73.9  
 100.800  -999.25    341.2  72.8  
 100.900  -999.25    347.0  72.8  
 101.000  -999.25    351.3  72.8  
 101.100     16.7    355.7  73.6  
 101.200     33.4    364.3  73.6  
 101.300     16.7    364.3  74.4  
 101.400  -999.25    364.3  74.4  
 101.500     16.7    361.4  74.4  
 101.600     16.7    360.0  72.8  
 101.700     33.4    355.7  71.2  
 101.800  -999.25    352.8  68.8  
 101.900     33.4    349.9  68.0  
 102.000  -999.25    344.1  67.2  
 102.100     33.4    338.3  66.4  
 102.200  -999.25    336.9  67.2  
 102.300     16.7    336.9  67.2  
 102.400  -999.25    344.1  68.0  
 102.500     16.7    345.6  68.0  
 102.600  -999.25    348.4  69.6  
 102.700  -999.25    347.0  69.6  
 102.800     33.4    344.1  69.6  
 102.900     16.7    344.1  69.6  
 103.000     33.4    338.3  69.6  
 103.100     50.1    341.2  68.0  
 103.200     16.7    347.0  68.8  
 103.300  -999.25    339.8  68.0  
 103.400  -999.25    334.0  68.8  
 103.500  -999.25    328.2  69.6  
 103.600     16.7    323.9  68.0  
 103.700  -999.25    318.1  68.8  
 103.800  -999.25    310.9  68.0  
 103.900     33.4    306.6  69.6  
 104.000  -999.25    303.7  68.0  
 104.100     50.1    296.5  67.2  
 104.200     16.7    292.1  67.2  
 104.300  -999.25    287.8  66.4  
 104.400  -999.25    283.5  66.4  
 104.500     16.7    279.2  66.4  
 104.600  -999.25    261.8  67.2  
 104.700     16.7    251.7  68.0  
 104.800     16.7    246.6  68.0  
 104.900  -999.25    243.7  70.4  
 105.000     16.7    239.5  70.4  
 105.100     16.7    235.2  72.0  
 105.200     16.7    233.1  72.0  
 105.300  -999.25    230.9  71.2  
 105.400     66.8    228.8  72.8  
 105.500  -999.25    226.0  72.8  
 105.600     16.7    226.0  74.4  
 105.700  -999.25    228.1  73.6  
 105.800     16.7    229.5  74.4  
 105.900     50.1    231.7  74.4  
 106.000     33.4    232.4  74.4  
 106.100     33.4    230.9  75.2  
 106.200     33.4    230.9  74.4  
 106.300     11.1    229.5  74.4  
 106.400     16.7    229.5  74.4  
 106.500     33.4    228.8  74.4  
 106.600  -999.25    228.1  72.8  
 106.700     33.4    226.0  73.6  
 106.800     33.4    225.3  73.6  
 106.900     44.5    223.8  74.4  
 107.000    100.1    223.8  74.4  
 107.100     33.4    223.8  72.8  
 107.200     50.1    223.8  74.9  
 107.300  -999.25    228.1  74.4  
 107.400     66.8    234.5  75.2  
 107.500     50.1    236.6  74.4  
 107.600     16.7    238.8  75.2  
 107.700     66.8    240.9  74.4  
 107.800     50.1    244.7  74.9  
 107.900     33.4    248.0  74.4  
 108.000     33.4    249.4  74.4  
 108.100     66.8    254.6  75.2  
 108.200     16.7    263.3  74.4  
 108.300     50.1    266.2  74.4  
 108.400  -999.25    269.1  74.4  
 108.500     50.1    267.6  74.4  
 108.600     50.1    263.3  74.4  
 108.700     16.7    260.4  74.4  
 108.800     33.4    257.5  72.8  
 108.900  -999.25    257.5  72.8  
 109.000     16.7    256.1  72.8  
 109.100  -999.25    258.9  71.2  
 109.200     16.7    263.3  71.2  
 109.300     66.8    271.9  69.6  
 109.400     16.7    273.4  70.4  
 109.500     16.7    282.0  71.2  
 109.600     16.7    280.6  69.6  
 109.700     16.7    279.2  69.6  
 109.800  -999.25    274.8  68.0  
 109.900  -999.25    273.4  70.4  
 110.000     16.7    269.1  71.2  
 110.100     33.4    264.7  72.8  
 110.200  -999.25    257.5  72.8  
 110.300     33.4    251.7  73.6  
 110.400  -999.25    251.7  72.8  
 110.500     33.4    249.4  72.8  
 110.600    133.5    246.6  73.6  
 110.700     50.1    243.7  72.8  
 110.800  -999.25    240.9  73.6  
 110.900  -999.25    238.1  73.6  
 111.000     33.4    238.1  72.8  
 111.100     66.8    236.6  72.8  
 111.200     33.4    235.9  72.8  
 111.300     66.8    235.9  71.2  
 111.400     16.7    236.6  71.2  
 111.500     33.4    236.6  71.2  
 111.600     66.8    238.8  71.2  
 111.700     16.7    241.6  71.2  
 111.800     33.4    243.7  72.8  
 111.900     66.8    247.5  71.7  
 112.000     66.8    249.4  72.8  
 112.100     33.4    253.2  72.0  
 112.200     66.8    251.7  73.6  
 112.300     33.4    250.3  75.2  
 112.400     50.1    248.0  76.0  
 112.500     66.8    247.3  78.4  
 112.600     16.7    244.5  80.0  
 112.700    100.1    242.3  81.6  
 112.800     50.1    241.6  81.6  
 112.900     66.8    243.7  82.4  
 113.000     83.4    246.6  81.6  
 113.100     83.4    254.6  82.4  
 113.200     66.8    266.2  82.4  
 113.300     33.4    279.2  82.4  
 113.400     50.1    283.5  84.0  
 113.500     66.8    293.6  83.2  
 113.600     16.7    305.1  84.8  
 113.700     66.8    315.2  84.0  
 113.800    100.1    321.0  84.0  
 113.900     33.4    329.7  84.8  
 114.000  -999.25    334.0  85.6  
 114.100  -999.25    339.8  84.8  
 114.200  -999.25    344.1  85.6  
 114.300  -999.25    342.7  85.6  
 114.400     16.7    347.0  85.6  
 114.500     83.4    351.3  84.8  
 114.600     16.7    352.8  84.8  
 114.700     33.4    352.8  85.6  
 114.800  -999.25    354.2  85.6  
 114.900     50.1    352.8  87.2  
 115.000    116.8    352.8  86.4  
 115.100     50.1    352.8  87.2  
 115.200    133.5    352.8  87.2  
 115.300  -999.25    351.3  87.2  
 115.400     33.4    351.3  87.2  
 115.500     50.1    354.2  86.4  
 115.600    100.1    357.1  86.4  
 115.700     33.4    361.4  87.2  
 115.800     16.7    364.3  88.0  
 115.900     33.4    371.5  88.0  
 116.000     66.8    374.4  87.2  
 116.100     33.4    378.8  87.2  
 116.200     16.7    381.6  86.4  
 116.300     50.1    386.0  85.6  
 116.400     16.7    391.7  85.6  
 116.500     33.4    396.1  85.6  
