~Version Information
 VERS.                2.0:  CWLS LOG ASCII STANDARD -VERSION 2.0
 WRAP.                 NO:  ONE LINE PER DEPTH STEP
~WELL INFORMATION BLOCK
#MNEM.UNIT       DATA		            DESCRIPTION OF MNEMONIC
#---------    -------------            ------------------------
 STRT.FT  2.100                          :START DEPTH
 STOP.FT  468.300                        :STOP DEPTH
 STEP.FT  0.100                          :STEP    UP_HOLE  
 NULL.    -999.25                        :NULL VALUE
 COMP.    NORTHFIELD CREAMERY            :COMPANY
 WELL.    217760                                                       :WELL
 FLD .    NORTHFIELD  71-B               :FIELD\LOCATION
 LOC .    36    112   20                 :LOCATION
 CNTY.    RICE                           :COUNTY
 STAT.    DDACAA                         :STATE
 CTRY.    USA                            :COUNTRY
 SRVC.    TRUCK                          :SERVICE COMPANY
 DATE.    11/08/91                       :LOG DATE
 API .                                       :API NUMBER
 LIC .                                   :LICENSE NUMBER
~Curve Information Block
#MNEM.UNIT      API CODE     Curve Description
#---------    -------------  ------------------------
 DEPT     .FT        00 001 00 00          :  1  DEPTH   
 GAMMA    .API-GR    00 310 00 00          :  2  GAMMA RAY           
 RES      .OHM       00 000 00 00          :  3  SINGLE POINT RES    
 SP       .MV        00 010 00 00          :  4  SPON POTENTIAL      
~Parameter Information Block
#MNEM.UNIT   Information     Description
#---------- ---------------  ------------------------
 FILE.      PROCESSED          :File Type
 FIID.      9060A              :File Type Identifier
 VERS.      V 6.0              :System Version
 SER .      1                  :System Serial Number
 TRUK.      1.000000           :Truck Calibration Number
 TOOL.         202             :Tool Serial Number
 TIME.      1310               :Time    HrHrMinMin
 LAT .                         :Latitude
 LON .                         :Longitude
 LMF .                         :Log Measured From
 DMF .                         :Driller Measured From
 PD  .      -5                 :Permanent Data
 PDEV.FT                       :Elevation Permanent Data
 EKB .FT                       :Elevation Kelly Bushing
 ELEV.FT                       :Elevation DF
 EGL .FT    912  5             :Elevation Ground Level
 DRDP.FT    647                :Driller's Depth
 CASD.FT                       :Casing Diameter
 CASB.FT                       :Casing Bottom
 CASX.      STEEL              :Casing Type
 CAST.IN    8                  :Casing Thickness
 TNOC.                         :Time Circulation Stopped
 LOGU.      C-1                :Logging Unit
 RECB.      RUNKEL             :Recorded By
 OSR1.                         :Other Services
 OSR2.                         :Other Services
 OSR3.                         :Other Services
 BS  .IN                       :Bit Size
 MST .F                        :Mean Surface Temperature
 TGRD.F                        :Temperature Gradiant
 MAGN.                         :Magnetic Declination
 MDEN.                         :Density Matrix
 MATR.                         :Neutron Matrix
 DTMT.                         :Delta T Matrix
 DTFL.                         :Delta T Fluid
 MUDS.                         :Mud Sample Source
 MRS .                         :Mud Resistivity
 MTP .                         :Mud Temperature
 MFRS.                         :Resistivity Mud Filtrate
 MFTP.                         :Temperature Mud Filtrate
 MCRS.                         :Resistivity Mud Cake
 MCTP.                         :Temperature Mud Cake
 FTYP.      WATER              :Fluid Type
 FD  .LB/G                     :Mud Weight
 DFV .S                        :Fluid Viscosity
 FPH .                         :Fuild PH
 ELCO.                         :Electron Cutoff
 CASL.IN                       :Casing Logger
 LOTD.FT                       :Logger TD
 ARTM.                         :Arrival Time
 DPTM.                         :Departure Time
 RIGN.                         :Rig Number
~Other Information
#MNEM.UNIT  Information      Description
#---------- ---------------  ------------------------
                                                                                                                                                                                C
                                                                                                                                                                 C
                                                                                                                                             C
                                                                                                                           C
                                                                                                       C
            0.000000000
         0.000000000
# -------------------------- 
~A DEPTH  GAMMA    RES      SP    
# ...
 185.300     33.4    419.2  48.8  
 185.400  -999.25    417.7  48.0  
 185.500  -999.25    414.8  48.0  
 185.600     33.4    416.3  47.2  
 185.700     66.8    413.4  47.2  
 185.800     33.4    413.4  48.3  
 185.900     66.8    412.0  47.2  
 186.000     33.4    410.5  48.0  
 186.100     33.4    409.1  47.2  
 186.200     66.8    409.1  47.2  
 186.300     16.7    410.5  47.2  
 186.400     50.1    407.6  47.2  
 186.500     33.4    409.1  47.2  
 186.600     66.8    407.6  46.4  
 186.700     33.4    407.6  47.2  
 186.800     33.4    407.6  45.6  
 186.900     50.1    407.6  45.6  
 187.000     16.7    407.6  46.4  
 187.100     16.7    407.6  44.8  
 187.200     16.7    407.6  45.6  
 187.300     66.8    407.6  44.8  
 187.400     16.7    407.6  45.6  
 187.500     33.4    407.6  44.8  
 187.600     50.1    409.1  44.0  
 187.700     33.4    409.1  44.8  
 187.800     83.4    407.6  44.8  
 187.900  -999.25    409.1  44.0  
 188.000     33.4    407.6  44.0  
 188.100     66.8    406.2  44.0  
 188.200     66.8    407.6  44.0  
 188.300     33.4    406.2  43.2  
 188.400     16.7    407.6  44.0  
 188.500  -999.25    406.2  43.2  
 188.600     50.1    407.6  44.0  
 188.700     33.4    409.1  44.0  
 188.800     16.7    409.1  44.0  
 188.900     16.7    410.5  44.0  
 189.000     83.4    412.0  44.0  
 189.100  -999.25    414.8  44.0  
 189.200     33.4    416.3  44.0  
 189.300  -999.25    419.2  44.0  
 189.400     16.7    419.2  44.0  
 189.500     16.7    420.6  44.8  
 189.600     16.7    419.2  45.6  
 189.700     16.7    423.5  44.0  
 189.800     33.4    424.9  44.8  
 189.900     16.7    426.4  44.0  
 190.000     16.7    427.8  44.0  
 190.100     66.8    427.8  44.0  
 190.200     33.4    430.7  42.4  
 190.300     33.4    427.8  44.0  
 190.400     50.1    427.8  44.0  
 190.500     33.4    429.3  44.0  
 190.600     16.7    426.4  44.8  
 190.700     33.4    424.9  43.2  
 190.800     11.1    424.9  43.2  
 190.900     33.4    423.5  42.4  
 191.000  -999.25    424.9  42.4  
 191.100     50.1    423.5  41.6  
 191.200     83.4    424.9  42.4  
 191.300     66.8    423.5  41.6  
 191.400     66.8    424.9  44.0  
 191.500    100.1    424.9  46.4  
 191.600     33.4    422.1  48.8  
 191.700     50.1    424.0  50.9  
 191.800     16.7    422.1  52.0  
 191.900     33.4    423.5  49.6  
 192.000  -999.25    422.1  48.0  
 192.100     16.7    422.1  47.2  
 192.200     66.8    422.1  48.8  
 192.300     33.4    422.1  49.6  
 192.400     50.1    420.6  46.4  
 192.500     33.4    419.2  40.8  
 192.600     16.7    416.3  39.2  
 192.700  -999.25    416.3  38.4  
 192.800     16.7    414.8  37.6  
 192.900     16.7    413.4  39.2  
 193.000     16.7    413.4  37.6  
 193.100     66.8    414.8  37.6  
 193.200     33.4    413.4  37.6  
 193.300     66.8    413.4  38.4  
 193.400  -999.25    412.0  39.2  
 193.500     50.1    413.4  39.2  
 193.600  -999.25    413.4  40.8  
 193.700     16.7    412.0  40.0  
 193.800     16.7    412.0  39.2  
 193.900     33.4    413.4  38.4  
 194.000     66.8    414.8  38.4  
 194.100     66.8    414.8  38.4  
 194.200  -999.25    414.8  38.4  
 194.300    133.5    416.3  37.6  
 194.400     83.4    416.3  37.6  
 194.500     33.4    413.4  37.6  
 194.600     50.1    414.8  38.4  
 194.700    133.5    413.4  38.4  
 194.800  -999.25    412.0  39.2  
 194.900  -999.25    410.5  39.2  
 195.000     16.7    412.0  39.2  
 195.100     16.7    413.4  39.2  
 195.200     16.7    413.4  36.8  
 195.300  -999.25    414.8  35.2  
 195.400     22.3    414.8  35.2  
 195.500     16.7    413.4  34.4  
 195.600     44.5    413.4  36.0  
 195.700     44.5    410.5  34.4  
 195.800     16.7    409.1  35.2  
 195.900     33.4    406.2  34.4  
 196.000     16.7    403.3  34.4  
 196.100     33.4    404.7  34.4  
 196.200     33.4    404.7  32.8  
 196.300    100.1    404.7  33.9  
 196.400     83.4    403.3  32.8  
 196.500     33.4    401.8  33.3  
 196.600     50.1    401.8  33.3  
 196.700     33.4    401.8  32.8  
 196.800    100.1    399.0  32.8  
 196.900     44.5    399.0  32.8  
 197.000     66.8    399.0  32.0  
 197.100     33.4    396.1  32.8  
 197.200     33.4    396.1  31.2  
 197.300    100.1    391.7  32.0  
 197.400     33.4    390.3  31.2  
 197.500     89.0    390.3  30.4  
 197.600     50.1    390.3  31.2  
 197.700    150.2    387.4  31.2  
 197.800     33.4    388.4  30.7  
 197.900     83.4    387.4  30.4  
 198.000    189.1    387.4  30.4  
 198.100    189.1    387.4  30.4  
 198.200     83.4    387.4  31.2  
 198.300     66.8    387.4  29.6  
 198.400     50.1    386.5  30.1  
 198.500     50.1    388.9  30.4  
 198.600     50.1    386.0  30.4  
 198.700     33.4    387.4  29.6  
 198.800    116.8    387.4  30.4  
 198.900    116.8    388.4  30.1  
 199.000     16.7    388.4  30.1  
 199.100    100.1    391.7  30.4  
 199.200     66.8    391.7  30.4  
 199.300    100.1    390.3  30.4  
 199.400     33.4    390.3  29.6  
 199.500     66.8    388.9  30.4  
 199.600    116.8    390.3  29.6  
 199.700     50.1    387.4  28.8  
 199.800     33.4    388.9  29.6  
 199.900  -999.25    388.9  28.8  
 200.000     16.7    386.0  28.8  
 200.100     33.4    386.0  28.8  
 200.200     66.8    380.2  28.8  
 200.300     50.1    378.8  29.6  
 200.400     50.1    374.4  28.8  
 200.500     83.4    373.0  28.8  
 200.600     33.4    371.5  28.0  
 200.700     50.1    367.2  28.8  
 200.800     50.1    365.8  28.0  
 200.900     50.1    364.3  28.0  
 201.000     33.4    362.9  28.0  
 201.100  -999.25    361.4  28.0  
 201.200     16.7    362.9  28.0  
 201.300     33.4    361.4  27.2  
 201.400     83.4    358.5  27.2  
 201.500     50.1    358.5  26.4  
 201.600     50.1    357.1  27.2  
 201.700    116.8    354.2  26.4  
 201.800     16.7    355.7  27.2  
 201.900     33.4    355.7  25.6  
 202.000     50.1    354.2  26.4  
 202.100     66.8    352.8  25.6  
 202.200    116.8    352.8  26.4  
 202.300     50.1    351.3  25.6  
 202.400    116.8    347.0  25.6  
 202.500    100.1    342.7  25.6  
 202.600     50.1    338.3  25.6  
 202.700    116.8    331.1  24.8  
 202.800     33.4    323.9  26.4  
 202.900     66.8    319.6  24.0  
 203.000    150.2    310.9  24.8  
 203.100    200.3    306.6  24.0  
 203.200     77.9    309.5  24.0  
 203.300     66.8    315.2  23.2  
 203.400     83.4    323.9  24.8  
 203.500     66.8    329.7  24.0  
 203.600    133.5    334.0  24.0  
 203.700     16.7    339.8  24.0  
 203.800     66.8    342.7  24.0  
 203.900     50.1    347.0  24.0  
 204.000     33.4    349.9  23.2  
 204.100    100.1    353.7  24.3  
 204.200     50.1    355.7  24.8  
 204.300     50.1    354.2  24.0  
 204.400     50.1    355.7  24.8  
 204.500     50.1    354.2  24.0  
 204.600    100.1    357.1  24.0  
 204.700    100.1    357.1  24.8  
 204.800  -999.25    361.4  24.0  
 204.900     66.8    361.4  24.8  
 205.000     50.1    365.8  24.8  
 205.100     50.1    373.0  24.0  
 205.200     66.8    374.4  24.8  
 205.300     16.7    380.2  24.8  
 205.400     16.7    380.2  24.8  
 205.500     16.7    378.8  24.8  
 205.600     16.7    380.7  24.8  
 205.700     33.4    378.8  24.8  
 205.800     33.4    378.8  24.8  
 205.900     50.1    377.3  24.8  
 206.000     66.8    374.4  25.6  
 206.100    100.1    373.0  26.4  
 206.200     83.4    373.0  26.4  
 206.300     66.8    373.0  25.6  
 206.400     50.1    373.0  26.4  
 206.500     33.4    371.5  26.4  
 206.600     83.4    370.1  27.2  
 206.700     33.4    367.2  26.4  
 206.800     66.8    365.8  27.2  
 206.900     50.1    367.2  26.4  
 207.000     66.8    364.3  26.4  
 207.100     50.1    365.8  26.4  
 207.200    116.8    365.8  25.6  
 207.300     33.4    367.2  25.6  
 207.400     83.4    364.3  24.8  
 207.500    100.1    364.3  24.8  
 207.600  -999.25    364.3  24.8  
 207.700     16.7    360.0  24.8  
 207.800    150.2    358.5  24.0  
 207.900     66.8    355.7  24.0  
 208.000     50.1    352.8  24.0  
 208.100     83.4    349.9  24.0  
