~Version Information
 VERS.                2.0:  CWLS LOG ASCII STANDARD -VERSION 2.0
 WRAP.                 NO:  ONE LINE PER DEPTH STEP
~WELL INFORMATION BLOCK
#MNEM.UNIT       DATA		            DESCRIPTION OF MNEMONIC
#---------    -------------            ------------------------
 STRT.FT  2.100                          :START DEPTH
 STOP.FT  468.300                        :STOP DEPTH
 STEP.FT  0.100                          :STEP    UP_HOLE  
 NULL.    -999.25                        :NULL VALUE
 COMP.    NORTHFIELD CREAMERY            :COMPANY
 WELL.    217760                                                       :WELL
 FLD .    NORTHFIELD  71-B               :FIELD\LOCATION
 LOC .    36    112   20                 :LOCATION
 CNTY.    RICE                           :COUNTY
 STAT.    DDACAA                         :STATE
 CTRY.    USA                            :COUNTRY
 SRVC.    TRUCK                          :SERVICE COMPANY
 DATE.    11/08/91                       :LOG DATE
 API .                                       :API NUMBER
 LIC .                                   :LICENSE NUMBER
~Curve Information Block
#MNEM.UNIT      API CODE     Curve Description
#---------    -------------  ------------------------
 DEPT     .FT        00 001 00 00          :  1  DEPTH   
 GAMMA    .API-GR    00 310 00 00          :  2  GAMMA RAY           
 RES      .OHM       00 000 00 00          :  3  SINGLE POINT RES    
 SP       .MV        00 010 00 00          :  4  SPON POTENTIAL      
~Parameter Information Block
#MNEM.UNIT   Information     Description
#---------- ---------------  ------------------------
 FILE.      PROCESSED          :File Type
 FIID.      9060A              :File Type Identifier
 VERS.      V 6.0              :System Version
 SER .      1                  :System Serial Number
 TRUK.      1.000000           :Truck Calibration Number
 TOOL.         202             :Tool Serial Number
 TIME.      1310               :Time    HrHrMinMin
 LAT .                         :Latitude
 LON .                         :Longitude
 LMF .                         :Log Measured From
 DMF .                         :Driller Measured From
 PD  .      -5                 :Permanent Data
 PDEV.FT                       :Elevation Permanent Data
 EKB .FT                       :Elevation Kelly Bushing
 ELEV.FT                       :Elevation DF
 EGL .FT    912  5             :Elevation Ground Level
 DRDP.FT    647                :Driller's Depth
 CASD.FT                       :Casing Diameter
 CASB.FT                       :Casing Bottom
 CASX.      STEEL              :Casing Type
 CAST.IN    8                  :Casing Thickness
 TNOC.                         :Time Circulation Stopped
 LOGU.      C-1                :Logging Unit
 RECB.      RUNKEL             :Recorded By
 OSR1.                         :Other Services
 OSR2.                         :Other Services
 OSR3.                         :Other Services
 BS  .IN                       :Bit Size
 MST .F                        :Mean Surface Temperature
 TGRD.F                        :Temperature Gradiant
 MAGN.                         :Magnetic Declination
 MDEN.                         :Density Matrix
 MATR.                         :Neutron Matrix
 DTMT.                         :Delta T Matrix
 DTFL.                         :Delta T Fluid
 MUDS.                         :Mud Sample Source
 MRS .                         :Mud Resistivity
 MTP .                         :Mud Temperature
 MFRS.                         :Resistivity Mud Filtrate
 MFTP.                         :Temperature Mud Filtrate
 MCRS.                         :Resistivity Mud Cake
 MCTP.                         :Temperature Mud Cake
 FTYP.      WATER              :Fluid Type
 FD  .LB/G                     :Mud Weight
 DFV .S                        :Fluid Viscosity
 FPH .                         :Fuild PH
 ELCO.                         :Electron Cutoff
 CASL.IN                       :Casing Logger
 LOTD.FT                       :Logger TD
 ARTM.                         :Arrival Time
 DPTM.                         :Departure Time
 RIGN.                         :Rig Number
~Other Information
#MNEM.UNIT  Information      Description
#---------- ---------------  ------------------------
                                                                                                                                                                                C
                                                                                                                                                                 C
                                                                                                                                             C
                                                                                                                           C
                                                                                                       C
            0.000000000
         0.000000000
# -------------------------- 
~A DEPTH  GAMMA    RES      SP    
# ...
 368.500    133.5    206.1  24.8  
 368.600     89.0    205.4  24.8  
 368.700    100.1    205.4  24.8  
 368.800     66.8    203.9  24.0  
 368.900    133.5    203.9  24.8  
 369.000     50.1    204.6  24.0  
 369.100    267.0    206.1  23.2  
 369.200     77.9    206.8  24.0  
 369.300     66.8    208.2  22.4  
 369.400    166.9    208.2  23.2  
 369.500    100.1    207.3  22.1  
 369.600     33.4    205.4  21.6  
 369.700     66.8    203.2  22.4  
 369.800     83.4    202.5  23.2  
 369.900    133.5    200.4  21.6  
 370.000    116.8    201.1  21.6  
 370.100     50.1    202.0  22.1  
 370.200     50.1    203.2  22.4  
 370.300     83.4    204.6  23.2  
 370.400    133.5    206.1  23.2  
 370.500    183.6    207.5  23.2  
 370.600     83.4    207.5  24.0  
 370.700    183.6    205.4  24.0  
 370.800    116.8    203.2  24.0  
 370.900     83.4    201.1  24.0  
 371.000     66.8    199.7  23.2  
 371.100     50.1    199.0  23.2  
 371.200    116.8    197.5  22.4  
 371.300    183.6    196.8  23.2  
 371.400    100.1    196.1  23.2  
 371.500    133.5    197.5  22.4  
 371.600    116.8    199.7  24.0  
 371.700    133.5    203.9  23.2  
 371.800    133.5    208.9  23.2  
 371.900    150.2    209.6  22.4  
 372.000    183.6    209.6  22.4  
 372.100    100.1    208.9  21.6  
 372.200     66.8    208.2  22.4  
 372.300    116.8    205.4  23.2  
 372.400    100.1    203.2  23.2  
 372.500     50.1    203.2  23.2  
 372.600     83.4    203.9  24.0  
 372.700    150.2    203.9  24.8  
 372.800    116.8    206.1  24.8  
 372.900     50.1    206.1  24.8  
 373.000    150.2    206.1  24.0  
 373.100    166.9    205.4  23.2  
 373.200    200.3    207.5  23.2  
 373.300     66.8    209.6  22.4  
 373.400    166.9    213.2  22.4  
 373.500     50.1    215.3  21.6  
 373.600    116.8    213.9  22.4  
 373.700     83.4    213.2  23.2  
 373.800     83.4    211.8  22.4  
 373.900     83.4    211.0  22.4  
 374.000    100.1    208.9  22.4  
 374.100     77.9    208.9  23.2  
 374.200     66.8    208.2  23.2  
 374.300     66.8    208.2  22.4  
 374.400     83.4    206.8  22.4  
 374.500     66.8    205.4  22.4  
 374.600     50.1    203.9  21.6  
 374.700     83.4    205.4  21.6  
 374.800  -999.25    205.4  20.8  
 374.900    100.1    206.8  21.6  
 375.000     66.8    206.8  20.5  
 375.100     33.4    206.8  20.0  
 375.200    100.1    206.1  20.0  
 375.300    100.1    207.5  20.0  
 375.400    116.8    208.2  19.2  
 375.500     50.1    206.1  19.2  
 375.600    133.5    203.9  20.8  
 375.700     83.4    203.9  20.0  
 375.800    116.8    203.2  20.8  
 375.900     83.4    203.2  20.0  
 376.000    116.8    203.9  21.6  
 376.100     83.4    204.4  21.1  
 376.200    100.1    205.4  21.6  
 376.300    133.5    203.9  21.6  
 376.400     66.8    200.4  20.8  
 376.500     50.1    198.2  21.6  
 376.600     50.1    197.5  21.6  
 376.700     83.4    197.5  20.8  
 376.800     50.1    199.0  21.6  
 376.900     66.8    201.1  21.6  
 377.000    100.1    200.4  20.8  
 377.100     50.1    198.2  21.6  
 377.200    150.2    196.8  21.6  
 377.300     66.8    195.4  20.8  
 377.400    100.1    195.4  21.6  
 377.500     83.4    196.1  21.6  
 377.600     16.7    198.2  21.6  
 377.700    166.9    202.5  23.2  
 377.800    133.5    205.4  22.4  
 377.900     83.4    207.5  23.2  
 378.000     66.8    211.8  24.0  
 378.100    150.2    218.9  23.2  
 378.200    133.5    221.7  23.2  
 378.300    100.1    221.0  23.2  
 378.400     16.7    220.3  23.2  
 378.500    116.8    219.6  21.6  
 378.600    116.8    218.2  21.6  
 378.700     83.4    218.2  21.6  
 378.800    200.3    214.6  20.8  
 378.900     66.8    212.5  20.8  
 379.000     89.0    212.5  21.6  
 379.100  -999.25    213.2  21.6  
 379.200     50.1    214.6  21.6  
 379.300    100.1    216.7  20.8  
 379.400     16.7    216.7  21.6  
 379.500    100.1    217.4  20.8  
 379.600    100.1    218.9  20.8  
 379.700     66.8    218.9  20.0  
 379.800     83.4    216.7  21.6  
 379.900    116.8    216.3  20.0  
 380.000    133.5    218.2  21.6  
 380.100     66.8    216.7  20.0  
 380.200     50.1    216.7  20.8  
 380.300    100.1    214.6  20.8  
 380.400    100.1    213.2  21.6  
 380.500    166.9    213.9  20.0  
 380.600    100.1    216.0  20.0  
 380.700    100.1    216.7  19.2  
 380.800     66.8    215.3  18.4  
 380.900    133.5    213.9  18.4  
 381.000    133.5    212.5  19.5  
 381.100    116.8    213.2  19.2  
 381.200     66.8    212.5  18.4  
 381.300    100.1    212.5  19.2  
 381.400    133.5    211.0  19.2  
 381.500    133.5    211.0  19.5  
 381.600     33.4    211.0  19.5  
 381.700    100.1    210.3  18.4  
 381.800    116.8    208.2  19.2  
 381.900     83.4    205.4  18.4  
 382.000    133.5    202.5  19.2  
 382.100    100.1    201.8  20.0  
 382.200    183.6    199.0  20.8  
 382.300    133.5    196.1  20.0  
 382.400    100.1    194.7  20.0  
 382.500    133.5    196.8  20.8  
 382.600    100.1    201.8  20.0  
 382.700    116.8    203.2  20.0  
 382.800     83.4    203.9  20.0  
 382.900     50.1    203.9  18.4  
 383.000    133.5    202.5  19.2  
 383.100    150.2    198.2  19.2  
 383.200    133.5    192.6  18.4  
 383.300    133.5    189.7  19.2  
 383.400    133.5    189.7  18.4  
 383.500     33.4    192.6  18.4  
 383.600    100.1    194.0  17.6  
 383.700    100.1    194.7  17.6  
 383.800     16.7    197.5  17.6  
 383.900     50.1    200.4  18.4  
 384.000    133.5    205.4  17.6  
 384.100     50.1    209.6  17.6  
 384.200    116.8    212.5  18.4  
 384.300     66.8    214.6  18.4  
 384.400    133.5    213.9  16.8  
 384.500     77.9    215.3  18.4  
 384.600    133.5    211.8  17.6  
 384.700    100.1    207.5  18.4  
 384.800    133.5    205.4  17.6  
 384.900    116.8    203.9  17.6  
 385.000     33.4    203.9  15.2  
 385.100     33.4    201.8  14.4  
 385.200    116.8    199.7  14.4  
 385.300     33.4    199.7  15.2  
 385.400     83.4    201.6  15.7  
 385.500     66.8    204.6  16.8  
 385.600    122.4    207.5  17.6  
 385.700     66.8    210.3  17.6  
 385.800    183.6    213.9  17.6  
 385.900     66.8    217.4  16.8  
 386.000     66.8    221.0  16.8  
 386.100    100.1    224.5  16.8  
 386.200     33.4    228.8  16.8  
 386.300    100.1    231.7  16.8  
 386.400    116.8    232.4  15.2  
 386.500    133.5    234.3  16.8  
 386.600     66.8    234.5  16.8  
 386.700     50.1    235.9  17.6  
 386.800     83.4    235.2  18.4  
 386.900     33.4    235.9  19.2  
 387.000     66.8    238.1  18.4  
 387.100     50.1    238.1  19.2  
 387.200    100.1    239.5  17.6  
 387.300     83.4    240.9  19.2  
 387.400     66.8    242.3  18.4  
 387.500    100.1    242.3  18.4  
 387.600     83.4    240.2  18.4  
 387.700     83.4    238.8  17.6  
 387.800     83.4    237.3  18.4  
 387.900     83.4    235.9  18.4  
 388.000    233.6    233.8  17.6  
 388.100     33.4    233.8  19.2  
 388.200     50.1    234.5  18.4  
 388.300    100.1    235.9  19.2  
 388.400    116.8    236.6  19.2  
 388.500     50.1    236.6  18.4  
 388.600    116.8    233.8  17.6  
 388.700    100.1    228.8  17.6  
 388.800    166.9    225.3  17.6  
 388.900    216.9    223.8  18.4  
 389.000     50.1    222.4  18.4  
 389.100    133.5    221.0  18.4  
 389.200    100.1    221.7  17.6  
 389.300    166.9    221.7  16.8  
 389.400     89.0    218.9  16.8  
 389.500  -999.25    213.2  17.6  
 389.600     66.8    209.6  16.8  
 389.700    116.8    206.1  16.8  
 389.800     50.1    206.8  16.8  
 389.900     66.8    210.3  16.8  
 390.000  -999.25    216.0  16.8  
 390.100     66.8    221.7  16.8  
 390.200    100.1    226.7  16.8  
 390.300     66.8    231.4  16.3  
 390.400  -999.25    233.8  16.8  
 390.500     55.6    230.9  16.0  
 390.600     83.4    225.3  14.4  
 390.700     66.8    216.7  15.2  
 390.800     50.1    213.2  14.4  
 390.900     66.8    212.5  13.6  
 391.000     77.9    213.9  14.4  
 391.100     77.9    215.3  14.4  
 391.200    116.8    215.3  13.6  
 391.300    133.5    213.9  13.6  
