~Version Information
 VERS.                2.0:  CWLS LOG ASCII STANDARD -VERSION 2.0
 WRAP.                 NO:  ONE LINE PER DEPTH STEP
~WELL INFORMATION BLOCK
#MNEM.UNIT       DATA		            DESCRIPTION OF MNEMONIC
#---------    -------------            ------------------------
 STRT.FT  2.100                          :START DEPTH
 STOP.FT  468.300                        :STOP DEPTH
 STEP.FT  0.100                          :STEP    UP_HOLE  
 NULL.    -999.25                        :NULL VALUE
 COMP.    NORTHFIELD CREAMERY            :COMPANY
 WELL.    217760                                                       :WELL
 FLD .    NORTHFIELD  71-B               :FIELD\LOCATION
 LOC .    36    112   20                 :LOCATION
 CNTY.    RICE                           :COUNTY
 STAT.    DDACAA                         :STATE
 CTRY.    USA                            :COUNTRY
 SRVC.    TRUCK                          :SERVICE COMPANY
 DATE.    11/08/91                       :LOG DATE
 API .                                       :API NUMBER
 LIC .                                   :LICENSE NUMBER
~Curve Information Block
#MNEM.UNIT      API CODE     Curve Description
#---------    -------------  ------------------------
 DEPT     .FT        00 001 00 00          :  1  DEPTH   
 GAMMA    .API-GR    00 310 00 00          :  2  GAMMA RAY           
 RES      .OHM       00 000 00 00          :  3  SINGLE POINT RES    
 SP       .MV        00 010 00 00          :  4  SPON POTENTIAL      
~Parameter Information Block
#MNEM.UNIT   Information     Description
#---------- ---------------  ------------------------
 FILE.      PROCESSED          :File Type
 FIID.      9060A              :File Type Identifier
 VERS.      V 6.0              :System Version
 SER .      1                  :System Serial Number
 TRUK.      1.000000           :Truck Calibration Number
 TOOL.         202             :Tool Serial Number
 TIME.      1310               :Time    HrHrMinMin
 LAT .                         :Latitude
 LON .                         :Longitude
 LMF .                         :Log Measured From
 DMF .                         :Driller Measured From
 PD  .      -5                 :Permanent Data
 PDEV.FT                       :Elevation Permanent Data
 EKB .FT                       :Elevation Kelly Bushing
 ELEV.FT                       :Elevation DF
 EGL .FT    912  5             :Elevation Ground Level
 DRDP.FT    647                :Driller's Depth
 CASD.FT                       :Casing Diameter
 CASB.FT                       :Casing Bottom
 CASX.      STEEL              :Casing Type
 CAST.IN    8                  :Casing Thickness
 TNOC.                         :Time Circulation Stopped
 LOGU.      C-1                :Logging Unit
 RECB.      RUNKEL             :Recorded By
 OSR1.                         :Other Services
 OSR2.                         :Other Services
 OSR3.                         :Other Services
 BS  .IN                       :Bit Size
 MST .F                        :Mean Surface Temperature
 TGRD.F                        :Temperature Gradiant
 MAGN.                         :Magnetic Declination
 MDEN.                         :Density Matrix
 MATR.                         :Neutron Matrix
 DTMT.                         :Delta T Matrix
 DTFL.                         :Delta T Fluid
 MUDS.                         :Mud Sample Source
 MRS .                         :Mud Resistivity
 MTP .                         :Mud Temperature
 MFRS.                         :Resistivity Mud Filtrate
 MFTP.                         :Temperature Mud Filtrate
 MCRS.                         :Resistivity Mud Cake
 MCTP.                         :Temperature Mud Cake
 FTYP.      WATER              :Fluid Type
 FD  .LB/G                     :Mud Weight
 DFV .S                        :Fluid Viscosity
 FPH .                         :Fuild PH
 ELCO.                         :Electron Cutoff
 CASL.IN                       :Casing Logger
 LOTD.FT                       :Logger TD
 ARTM.                         :Arrival Time
 DPTM.                         :Departure Time
 RIGN.                         :Rig Number
~Other Information
#MNEM.UNIT  Information      Description
#---------- ---------------  ------------------------
                                                                                                                                                                                C
                                                                                                                                                                 C
                                                                                                                                             C
                                                                                                                           C
                                                                                                       C
            0.000000000
         0.000000000
# -------------------------- 
~A DEPTH  GAMMA    RES      SP    
# ...
 254.000     33.4    175.5  21.6  
 254.100     16.7    174.8  22.4  
 254.200  -999.25    175.5  22.4  
 254.300  -999.25    176.9  23.2  
 254.400  -999.25    175.5  21.6  
 254.500  -999.25    176.0  23.2  
 254.600     33.4    175.5  24.0  
 254.700  -999.25    174.8  23.2  
 254.800  -999.25    174.8  23.2  
 254.900     66.8    174.1  23.2  
 255.000  -999.25    174.8  23.2  
 255.100  -999.25    171.2  23.2  
 255.200     16.7    167.7  23.2  
 255.300  -999.25    163.4  24.0  
 255.400  -999.25    160.6  24.0  
 255.500     16.7    158.4  24.0  
 255.600     33.4    157.7  24.8  
 255.700  -999.25    158.4  24.8  
 255.800  -999.25    159.1  24.8  
 255.900     16.7    161.3  24.0  
 256.000     16.7    165.5  24.8  
 256.100  -999.25    171.9  24.8  
 256.200  -999.25    176.9  25.6  
 256.300     16.7    179.8  24.8  
 256.400  -999.25    183.3  25.6  
 256.500  -999.25    185.5  24.8  
 256.600     16.7    185.5  26.4  
 256.700  -999.25    188.8  25.3  
 256.800     16.7    190.4  24.8  
 256.900     16.7    191.8  25.6  
 257.000     16.7    192.6  24.8  
 257.100  -999.25    191.8  24.8  
 257.200     16.7    192.6  24.8  
 257.300  -999.25    193.3  25.6  
 257.400  -999.25    191.8  24.8  
 257.500  -999.25    193.3  24.8  
 257.600  -999.25    192.6  26.4  
 257.700  -999.25    193.3  25.6  
 257.800  -999.25    192.6  26.4  
 257.900     16.7    193.3  26.4  
 258.000     33.4    193.3  26.4  
 258.100  -999.25    194.0  25.6  
 258.200  -999.25    194.0  25.6  
 258.300     33.4    195.4  26.4  
 258.400  -999.25    194.0  24.8  
 258.500  -999.25    194.0  25.6  
 258.600  -999.25    194.7  25.6  
 258.700  -999.25    194.0  25.6  
 258.800  -999.25    194.0  27.2  
 258.900  -999.25    192.6  28.0  
 259.000  -999.25    189.7  28.0  
 259.100  -999.25    184.0  29.6  
 259.200     16.7    180.5  30.4  
 259.300  -999.25    176.9  30.4  
 259.400  -999.25    170.5  29.6  
 259.500  -999.25    165.5  29.6  
 259.600  -999.25    161.3  28.0  
 259.700     16.7    159.9  27.2  
 259.800  -999.25    162.7  28.0  
 259.900  -999.25    169.8  26.4  
 260.000  -999.25    178.3  26.4  
 260.100     33.4    187.6  27.2  
 260.200     16.7    196.1  27.2  
 260.300  -999.25    202.5  27.2  
 260.400  -999.25    205.4  28.0  
 260.500  -999.25    208.2  28.0  
 260.600  -999.25    206.1  28.8  
 260.700  -999.25    199.7  28.0  
 260.800  -999.25    197.5  28.8  
 260.900  -999.25    194.0  28.0  
 261.000     16.7    192.6  28.0  
 261.100     16.7    194.0  28.0  
 261.200  -999.25    197.5  28.0  
 261.300  -999.25    203.2  28.0  
 261.400  -999.25    209.6  28.0  
 261.500     16.7    211.8  28.0  
 261.600     16.7    212.5  28.0  
 261.700  -999.25    212.5  28.8  
 261.800  -999.25    211.8  30.4  
 261.900  -999.25    211.8  32.8  
 262.000     16.7    212.5  33.6  
 262.100     33.4    213.9  33.6  
 262.200  -999.25    213.9  31.2  
 262.300  -999.25    215.3  29.6  
 262.400  -999.25    214.6  28.0  
 262.500  -999.25    214.6  28.0  
 262.600  -999.25    216.7  28.0  
 262.700  -999.25    216.7  28.8  
 262.800  -999.25    217.4  28.8  
 262.900  -999.25    218.9  28.8  
 263.000     16.7    218.2  29.6  
 263.100  -999.25    218.9  29.6  
 263.200     33.4    218.9  29.6  
 263.300  -999.25    217.4  28.8  
 263.400     33.4    216.0  28.8  
 263.500     50.1    214.6  28.8  
 263.600  -999.25    212.5  29.6  
 263.700     16.7    211.0  28.0  
 263.800     16.7    209.6  28.8  
 263.900  -999.25    208.2  28.0  
 264.000  -999.25    207.5  26.4  
 264.100  -999.25    206.1  27.2  
 264.200  -999.25    203.9  26.4  
 264.300     16.7    202.5  26.4  
 264.400  -999.25    201.8  26.4  
 264.500  -999.25    200.4  26.4  
 264.600     16.7    199.0  25.6  
 264.700     16.7    197.5  25.6  
 264.800  -999.25    196.8  24.8  
 264.900  -999.25    196.8  24.8  
 265.000  -999.25    194.7  24.8  
 265.100     16.7    195.4  24.8  
 265.200     16.7    194.0  24.0  
 265.300     33.4    194.0  24.8  
 265.400  -999.25    192.6  24.0  
 265.500     16.7    193.3  24.0  
 265.600  -999.25    191.8  23.2  
 265.700  -999.25    192.6  24.0  
 265.800  -999.25    191.8  24.0  
 265.900  -999.25    191.1  24.8  
 266.000     33.4    191.8  24.8  
 266.100     16.7    191.8  24.8  
 266.200  -999.25    191.8  26.4  
 266.300     16.7    192.6  26.4  
 266.400     16.7    193.3  26.4  
 266.500     33.4    194.0  27.2  
 266.600     16.7    194.7  26.4  
 266.700     33.4    194.7  27.2  
 266.800     16.7    194.0  28.0  
 266.900  -999.25    191.8  26.4  
 267.000  -999.25    192.6  27.2  
 267.100  -999.25    195.4  28.0  
 267.200     16.7    198.2  26.4  
 267.300  -999.25    203.9  27.2  
 267.400  -999.25    210.3  26.4  
 267.500  -999.25    213.9  27.2  
 267.600  -999.25    215.3  26.4  
 267.700  -999.25    214.6  27.2  
 267.800     11.1    212.5  26.4  
 267.900  -999.25    213.9  26.4  
 268.000     16.7    211.8  27.2  
 268.100  -999.25    208.2  26.4  
 268.200     16.7    203.2  26.4  
 268.300  -999.25    199.0  26.4  
 268.400     11.1    196.8  26.4  
 268.500  -999.25    195.4  26.4  
 268.600     16.7    194.0  26.4  
 268.700     16.7    193.0  27.5  
 268.800     33.4    192.6  28.0  
 268.900     11.1    191.8  28.0  
 269.000     11.1    192.6  28.0  
 269.100  -999.25    190.4  27.2  
 269.200     66.8    188.3  28.0  
 269.300     16.7    188.8  25.3  
 269.400     33.4    186.9  25.6  
 269.500  -999.25    184.7  24.8  
 269.600  -999.25    182.6  24.0  
 269.700     16.7    178.3  24.8  
 269.800     33.4    173.1  24.3  
 269.900     16.7    173.1  24.3  
 270.000     16.7    164.1  24.8  
 270.100     33.4    154.2  24.8  
 270.200     33.4    147.1  25.6  
 270.300     33.4    142.8  25.6  
 270.400     50.1    142.8  25.6  
 270.500     33.4    147.1  26.4  
 270.600     16.7    156.3  26.4  
 270.700     33.4    168.4  26.4  
 270.800     50.1    176.2  25.6  
 270.900     33.4    181.9  25.6  
 271.000    100.1    184.0  26.4  
 271.100     16.7    186.2  24.8  
 271.200    116.8    189.0  24.8  
 271.300    116.8    189.0  24.8  
 271.400     16.7    189.0  24.8  
 271.500     83.4    189.7  24.8  
 271.600     33.4    189.0  25.6  
 271.700     50.1    187.6  24.8  
 271.800     50.1    186.9  24.8  
 271.900     66.8    186.2  24.8  
 272.000    100.1    184.7  24.0  
 272.100     33.4    182.6  24.0  
 272.200    133.5    181.9  23.2  
 272.300     66.8    183.3  24.0  
 272.400    116.8    184.0  23.2  
 272.500     83.4    184.0  24.8  
 272.600     33.4    184.0  24.8  
 272.700    116.8    182.6  24.8  
 272.800     33.4    180.5  25.6  
 272.900     66.8    180.5  25.6  
 273.000    150.2    181.2  25.6  
 273.100    116.8    181.2  26.4  
 273.200     50.1    183.3  26.4  
 273.300    183.6    184.0  26.4  
 273.400    100.1    182.6  25.6  
 273.500     22.3    183.3  25.6  
 273.600     66.8    182.6  25.6  
 273.700     16.7    182.6  24.8  
 273.800     66.8    182.6  24.8  
 273.900    116.8    181.9  24.8  
 274.000     33.4    182.6  24.0  
 274.100    100.1    182.6  24.0  
 274.200     83.4    184.0  23.2  
 274.300    133.5    182.6  23.2  
 274.400    116.8    184.0  23.2  
 274.500     66.8    184.0  23.2  
 274.600    100.1    184.0  22.4  
 274.700     89.0    183.3  23.2  
 274.800    100.1    184.0  23.2  
 274.900    133.5    184.0  24.8  
 275.000     33.4    185.0  23.7  
 275.100     83.4    186.9  24.0  
 275.200     66.8    186.9  24.8  
 275.300    100.1    187.6  24.8  
 275.400     83.4    187.6  24.8  
 275.500    133.5    188.3  24.8  
 275.600     50.1    188.3  24.8  
 275.700     50.1    188.3  24.0  
 275.800     83.4    188.3  24.8  
 275.900    116.8    186.9  23.2  
 276.000     50.1    187.6  23.2  
 276.100     66.8    186.9  23.2  
 276.200    100.1    187.8  24.3  
 276.300     83.4    187.6  24.8  
 276.400    116.8    186.9  26.4  
 276.500     66.8    187.6  25.6  
 276.600    150.2    186.9  24.8  
 276.700    116.8    186.2  22.4  
 276.800     66.8    186.2  23.2  
