~Version Information
 VERS.                2.0:  CWLS LOG ASCII STANDARD -VERSION 2.0
 WRAP.                 NO:  ONE LINE PER DEPTH STEP
~WELL INFORMATION BLOCK
#MNEM.UNIT       DATA		            DESCRIPTION OF MNEMONIC
#---------    -------------            ------------------------
 STRT.FT  2.100                          :START DEPTH
 STOP.FT  468.300                        :STOP DEPTH
 STEP.FT  0.100                          :STEP    UP_HOLE  
 NULL.    -999.25                        :NULL VALUE
 COMP.    NORTHFIELD CREAMERY            :COMPANY
 WELL.    217760                                                       :WELL
 FLD .    NORTHFIELD  71-B               :FIELD\LOCATION
 LOC .    36    112   20                 :LOCATION
 CNTY.    RICE                           :COUNTY
 STAT.    DDACAA                         :STATE
 CTRY.    USA                            :COUNTRY
 SRVC.    TRUCK                          :SERVICE COMPANY
 DATE.    11/08/91                       :LOG DATE
 API .                                       :API NUMBER
 LIC .                                   :LICENSE NUMBER
~Curve Information Block
#MNEM.UNIT      API CODE     Curve Description
#---------    -------------  ------------------------
 DEPT     .FT        00 001 00 00          :  1  DEPTH   
 GAMMA    .API-GR    00 310 00 00          :  2  GAMMA RAY           
 RES      .OHM       00 000 00 00          :  3  SINGLE POINT RES    
 SP       .MV        00 010 00 00          :  4  SPON POTENTIAL      
~Parameter Information Block
#MNEM.UNIT   Information     Description
#---------- ---------------  ------------------------
 FILE.      PROCESSED          :File Type
 FIID.      9060A              :File Type Identifier
 VERS.      V 6.0              :System Version
 SER .      1                  :System Serial Number
 TRUK.      1.000000           :Truck Calibration Number
 TOOL.         202             :Tool Serial Number
 TIME.      1310               :Time    HrHrMinMin
 LAT .                         :Latitude
 LON .                         :Longitude
 LMF .                         :Log Measured From
 DMF .                         :Driller Measured From
 PD  .      -5                 :Permanent Data
 PDEV.FT                       :Elevation Permanent Data
 EKB .FT                       :Elevation Kelly Bushing
 ELEV.FT                       :Elevation DF
 EGL .FT    912  5             :Elevation Ground Level
 DRDP.FT    647                :Driller's Depth
 CASD.FT                       :Casing Diameter
 CASB.FT                       :Casing Bottom
 CASX.      STEEL              :Casing Type
 CAST.IN    8                  :Casing Thickness
 TNOC.                         :Time Circulation Stopped
 LOGU.      C-1                :Logging Unit
 RECB.      RUNKEL             :Recorded By
 OSR1.                         :Other Services
 OSR2.                         :Other Services
 OSR3.                         :Other Services
 BS  .IN                       :Bit Size
 MST .F                        :Mean Surface Temperature
 TGRD.F                        :Temperature Gradiant
 MAGN.                         :Magnetic Declination
 MDEN.                         :Density Matrix
 MATR.                         :Neutron Matrix
 DTMT.                         :Delta T Matrix
 DTFL.                         :Delta T Fluid
 MUDS.                         :Mud Sample Source
 MRS .                         :Mud Resistivity
 MTP .                         :Mud Temperature
 MFRS.                         :Resistivity Mud Filtrate
 MFTP.                         :Temperature Mud Filtrate
 MCRS.                         :Resistivity Mud Cake
 MCTP.                         :Temperature Mud Cake
 FTYP.      WATER              :Fluid Type
 FD  .LB/G                     :Mud Weight
 DFV .S                        :Fluid Viscosity
 FPH .                         :Fuild PH
 ELCO.                         :Electron Cutoff
 CASL.IN                       :Casing Logger
 LOTD.FT                       :Logger TD
 ARTM.                         :Arrival Time
 DPTM.                         :Departure Time
 RIGN.                         :Rig Number
~Other Information
#MNEM.UNIT  Information      Description
#---------- ---------------  ------------------------
                                                                                                                                                                                C
                                                                                                                                                                 C
                                                                                                                                             C
                                                                                                                           C
                                                                                                       C
            0.000000000
         0.000000000
# -------------------------- 
~A DEPTH  GAMMA    RES      SP    
# ...
 345.600    100.1    211.5  21.6  
 345.700    150.2    209.6  21.6  
 345.800     50.1    207.5  20.8  
 345.900     33.4    201.8  21.6  
 346.000    100.1    199.7  20.8  
 346.100     50.1    196.8  20.8  
 346.200    200.3    193.3  20.8  
 346.300    183.6    186.9  20.8  
 346.400    166.9    181.2  20.8  
 346.500    183.6    174.1  20.0  
 346.600     83.4    167.0  20.8  
 346.700    133.5    158.4  20.8  
 346.800    150.2    149.9  20.0  
 346.900    216.9    144.9  19.2  
 347.000    250.3    144.9  20.0  
 347.100    166.9    147.8  19.2  
 347.200    133.5    147.8  18.4  
 347.300    300.4    148.5  19.2  
 347.400    216.9    148.5  19.2  
 347.500    100.1    149.9  18.4  
 347.600    283.7    152.7  19.2  
 347.700    133.5    152.7  18.4  
 347.800    189.1    157.7  18.4  
 347.900    133.5    159.9  18.4  
 348.000    200.3    161.3  18.4  
 348.100    100.1    162.2  18.4  
 348.200    166.9    161.3  18.4  
 348.300    183.6    162.7  17.6  
 348.400    100.1    164.1  18.4  
 348.500    150.2    167.0  16.8  
 348.600    166.9    168.4  16.8  
 348.700    133.5    170.8  17.3  
 348.800     66.8    175.5  16.8  
 348.900    166.9    178.3  17.6  
 349.000    166.9    184.0  16.8  
 349.100    100.1    191.1  16.8  
 349.200     83.4    199.7  17.6  
 349.300    150.2    208.2  18.4  
 349.400     83.4    214.6  19.2  
 349.500    100.1    219.6  20.0  
 349.600     66.8    223.1  20.0  
 349.700    100.1    229.5  20.8  
 349.800    166.9    232.4  21.6  
 349.900     83.4    234.5  20.0  
 350.000    100.1    238.8  19.2  
 350.100    116.8    238.8  19.2  
 350.200    100.1    238.8  19.2  
 350.300     33.4    238.1  18.4  
 350.400    166.9    236.6  19.2  
 350.500     16.7    236.6  20.0  
 350.600     66.8    236.6  20.0  
 350.700    183.6    236.6  19.2  
 350.800    133.5    235.9  20.0  
 350.900    100.1    235.9  19.2  
 351.000     66.8    235.2  19.2  
 351.100    100.1    233.8  20.0  
 351.200    116.8    235.2  18.4  
 351.300     50.1    235.2  18.4  
 351.400     83.4    236.6  18.4  
 351.500    116.8    235.9  18.4  
 351.600     83.4    235.9  17.6  
 351.700    133.5    236.6  18.4  
 351.800    133.5    236.6  18.4  
 351.900    133.5    236.6  19.2  
 352.000    150.2    236.6  18.4  
 352.100     83.4    235.2  19.2  
 352.200     16.7    234.5  18.4  
 352.300    116.8    233.8  18.4  
 352.400     50.1    234.5  18.4  
 352.500     83.4    233.8  19.2  
 352.600    133.5    230.9  20.0  
 352.700     44.5    231.7  18.4  
 352.800     66.8    230.2  18.4  
 352.900     66.8    228.1  19.2  
 353.000     33.4    226.7  18.4  
 353.100    200.3    225.3  18.4  
 353.200     66.8    223.1  17.6  
 353.300     66.8    221.0  18.4  
 353.400    100.1    219.6  17.6  
 353.500    133.5    218.2  18.4  
 353.600    166.9    213.4  17.3  
 353.700     33.4    208.2  17.6  
 353.800     50.1    203.9  16.8  
 353.900    150.2    192.6  17.6  
 354.000    166.9    186.9  16.8  
 354.100    150.2    181.2  16.8  
 354.200    200.3    176.0  16.8  
 354.300     33.4    169.8  16.0  
 354.400     83.4    163.4  16.8  
 354.500    233.6    156.3  16.8  
 354.600    267.0    152.7  18.4  
 354.700    150.2    154.2  17.6  
 354.800    133.5    155.6  18.4  
 354.900    166.9    154.2  18.4  
 355.000    150.2    151.3  18.4  
 355.100    183.6    151.3  17.6  
 355.200    200.3    153.5  17.6  
 355.300    150.2    155.6  17.6  
 355.400    133.5    155.6  16.8  
 355.500    166.9    155.6  17.6  
 355.600    183.6    155.6  17.6  
 355.700    216.9    155.6  17.6  
 355.800    166.9    154.2  18.4  
 355.900    200.3    152.7  18.4  
 356.000    100.1    152.0  19.2  
 356.100     66.8    154.2  19.2  
 356.200    200.3    157.0  20.0  
 356.300    216.9    158.4  20.8  
 356.400    133.5    164.1  20.8  
 356.500    100.1    173.4  20.8  
 356.600     83.4    181.2  22.4  
 356.700    133.5    189.7  21.6  
 356.800    150.2    192.6  22.4  
 356.900    116.8    195.4  21.6  
 357.000    150.2    199.0  21.6  
 357.100     83.4    198.2  22.4  
 357.200     66.8    199.0  22.4  
 357.300     33.4    203.2  22.4  
 357.400    100.1    208.2  22.4  
 357.500    100.1    213.2  22.4  
 357.600     83.4    218.2  23.2  
 357.700    100.1    220.3  23.2  
 357.800     66.8    223.8  23.2  
 357.900    116.8    224.5  23.2  
 358.000     83.4    226.7  23.2  
 358.100     66.8    226.7  23.2  
 358.200     89.0    229.5  23.2  
 358.300     83.4    229.5  23.2  
 358.400     66.8    228.8  23.2  
 358.500    116.8    229.5  22.4  
 358.600    100.1    227.4  22.4  
 358.700     66.8    229.5  22.4  
 358.800    166.9    228.8  23.2  
 358.900    133.5    226.7  23.2  
 359.000     83.4    226.7  24.8  
 359.100     66.8    226.7  23.2  
 359.200    100.1    228.1  24.0  
 359.300    200.3    228.8  23.2  
 359.400     83.4    228.8  24.0  
 359.500     66.8    229.5  24.8  
 359.600     83.4    229.5  24.8  
 359.700    150.2    230.9  23.2  
 359.800    166.9    230.2  24.8  
 359.900     66.8    230.2  24.8  
 360.000    116.8    230.9  24.0  
 360.100    100.1    230.9  24.8  
 360.200    100.1    228.8  25.6  
 360.300     66.8    229.5  25.6  
 360.400    150.2    228.1  26.4  
 360.500    150.2    228.8  26.4  
 360.600    166.9    228.8  26.4  
 360.700    100.1    228.1  26.4  
 360.800    183.6    229.5  26.4  
 360.900    100.1    228.1  25.6  
 361.000    150.2    227.4  25.6  
 361.100    116.8    227.4  24.8  
 361.200    150.2    226.7  24.8  
 361.300     66.8    226.7  25.6  
 361.400    200.3    226.7  25.6  
 361.500     66.8    226.7  26.4  
 361.600    133.5    223.8  27.2  
 361.700    166.9    222.4  26.4  
 361.800    100.1    214.6  27.2  
 361.900    133.5    214.6  26.4  
 362.000    133.5    213.2  26.4  
 362.100    133.5    202.5  26.4  
 362.200    100.1    193.3  26.4  
 362.300    133.5    183.3  24.8  
 362.400    116.8    176.2  25.6  
 362.500    133.5    171.2  24.0  
 362.600    100.1    169.8  24.8  
 362.700     66.8    162.7  25.6  
 362.800    183.6    154.2  26.4  
 362.900     33.4    147.1  28.0  
 363.000     33.4    138.5  28.8  
 363.100     50.1    130.7  29.6  
 363.200     66.8    124.3  31.2  
 363.300     33.4    120.0  31.2  
 363.400    166.9    120.0  31.2  
 363.500     33.4    124.3  31.2  
 363.600     66.8    119.3  32.0  
 363.700     22.3    115.1  32.0  
 363.800     16.7    120.8  32.8  
 363.900     66.8    117.2  32.8  
 364.000     66.8    118.6  32.0  
 364.100     50.1    122.2  33.6  
 364.200     66.8    116.5  32.8  
 364.300     66.8    116.5  32.0  
 364.400     33.4    116.5  32.0  
 364.500     66.8    117.2  31.2  
 364.600     66.8    111.0  30.1  
 364.700     22.3    107.3  28.8  
 364.800     22.3    120.0  28.0  
 364.900     83.4    137.1  28.8  
 365.000     50.1    156.3  28.0  
 365.100    150.2    168.4  28.8  
 365.200    100.1    174.1  28.8  
 365.300    100.1    177.6  28.0  
 365.400     50.1    180.5  28.0  
 365.500    116.8    182.6  27.2  
 365.600     83.4    184.5  27.5  
 365.700    116.8    184.5  27.5  
 365.800    133.5    186.2  26.4  
 365.900     77.9    186.9  24.8  
 366.000    100.1    187.6  24.8  
 366.100    100.1    188.3  24.8  
 366.200    100.1    188.3  23.2  
 366.300    150.2    188.3  24.8  
 366.400     66.8    186.9  26.4  
 366.500    116.8    186.9  27.2  
 366.600     66.8    186.2  27.2  
 366.700     33.4    188.3  28.0  
 366.800    166.9    188.3  27.5  
 366.900    150.2    188.3  26.4  
 367.000     83.4    188.3  27.2  
 367.100     66.8    189.0  28.0  
 367.200    100.1    190.4  27.2  
 367.300     50.1    190.4  28.0  
 367.400     66.8    191.1  27.2  
 367.500     66.8    191.1  28.0  
 367.600    100.1    193.3  26.4  
 367.700    150.2    193.3  26.4  
 367.800    100.1    194.7  25.6  
 367.900    116.8    194.7  24.8  
 368.000    133.5    196.1  25.6  
 368.100    166.9    197.5  24.8  
 368.200    100.1    200.4  24.8  
 368.300    133.5    202.5  24.8  
 368.400    183.6    203.2  24.0  
