~Version Information
 VERS.                2.0:  CWLS LOG ASCII STANDARD -VERSION 2.0
 WRAP.                 NO:  ONE LINE PER DEPTH STEP
~WELL INFORMATION BLOCK
#MNEM.UNIT       DATA		            DESCRIPTION OF MNEMONIC
#---------    -------------            ------------------------
 STRT.FT  2.100                          :START DEPTH
 STOP.FT  468.300                        :STOP DEPTH
 STEP.FT  0.100                          :STEP    UP_HOLE  
 NULL.    -999.25                        :NULL VALUE
 COMP.    NORTHFIELD CREAMERY            :COMPANY
 WELL.    217760                                                       :WELL
 FLD .    NORTHFIELD  71-B               :FIELD\LOCATION
 LOC .    36    112   20                 :LOCATION
 CNTY.    RICE                           :COUNTY
 STAT.    DDACAA                         :STATE
 CTRY.    USA                            :COUNTRY
 SRVC.    TRUCK                          :SERVICE COMPANY
 DATE.    11/08/91                       :LOG DATE
 API .                                       :API NUMBER
 LIC .                                   :LICENSE NUMBER
~Curve Information Block
#MNEM.UNIT      API CODE     Curve Description
#---------    -------------  ------------------------
 DEPT     .FT        00 001 00 00          :  1  DEPTH   
 GAMMA    .API-GR    00 310 00 00          :  2  GAMMA RAY           
 RES      .OHM       00 000 00 00          :  3  SINGLE POINT RES    
 SP       .MV        00 010 00 00          :  4  SPON POTENTIAL      
~Parameter Information Block
#MNEM.UNIT   Information     Description
#---------- ---------------  ------------------------
 FILE.      PROCESSED          :File Type
 FIID.      9060A              :File Type Identifier
 VERS.      V 6.0              :System Version
 SER .      1                  :System Serial Number
 TRUK.      1.000000           :Truck Calibration Number
 TOOL.         202             :Tool Serial Number
 TIME.      1310               :Time    HrHrMinMin
 LAT .                         :Latitude
 LON .                         :Longitude
 LMF .                         :Log Measured From
 DMF .                         :Driller Measured From
 PD  .      -5                 :Permanent Data
 PDEV.FT                       :Elevation Permanent Data
 EKB .FT                       :Elevation Kelly Bushing
 ELEV.FT                       :Elevation DF
 EGL .FT    912  5             :Elevation Ground Level
 DRDP.FT    647                :Driller's Depth
 CASD.FT                       :Casing Diameter
 CASB.FT                       :Casing Bottom
 CASX.      STEEL              :Casing Type
 CAST.IN    8                  :Casing Thickness
 TNOC.                         :Time Circulation Stopped
 LOGU.      C-1                :Logging Unit
 RECB.      RUNKEL             :Recorded By
 OSR1.                         :Other Services
 OSR2.                         :Other Services
 OSR3.                         :Other Services
 BS  .IN                       :Bit Size
 MST .F                        :Mean Surface Temperature
 TGRD.F                        :Temperature Gradiant
 MAGN.                         :Magnetic Declination
 MDEN.                         :Density Matrix
 MATR.                         :Neutron Matrix
 DTMT.                         :Delta T Matrix
 DTFL.                         :Delta T Fluid
 MUDS.                         :Mud Sample Source
 MRS .                         :Mud Resistivity
 MTP .                         :Mud Temperature
 MFRS.                         :Resistivity Mud Filtrate
 MFTP.                         :Temperature Mud Filtrate
 MCRS.                         :Resistivity Mud Cake
 MCTP.                         :Temperature Mud Cake
 FTYP.      WATER              :Fluid Type
 FD  .LB/G                     :Mud Weight
 DFV .S                        :Fluid Viscosity
 FPH .                         :Fuild PH
 ELCO.                         :Electron Cutoff
 CASL.IN                       :Casing Logger
 LOTD.FT                       :Logger TD
 ARTM.                         :Arrival Time
 DPTM.                         :Departure Time
 RIGN.                         :Rig Number
~Other Information
#MNEM.UNIT  Information      Description
#---------- ---------------  ------------------------
                                                                                                                                                                                C
                                                                                                                                                                 C
                                                                                                                                             C
                                                                                                                           C
                                                                                                       C
            0.000000000
         0.000000000
# -------------------------- 
~A DEPTH  GAMMA    RES      SP    
# ...
 208.200     33.4    349.9  23.2  
 208.300     66.8    347.0  24.0  
 208.400     50.1    344.1  24.0  
 208.500    150.2    342.7  23.2  
 208.600    133.5    339.8  22.4  
 208.700    100.1    336.9  22.4  
 208.800     50.1    335.5  21.6  
 208.900     50.1    334.0  21.6  
 209.000    116.8    331.1  21.6  
 209.100     83.4    329.7  20.8  
 209.200     66.8    329.7  20.0  
 209.300     33.4    328.2  20.8  
 209.400     83.4    326.8  20.8  
 209.500  -999.25    326.8  21.6  
 209.600     66.8    325.3  21.6  
 209.700     50.1    326.8  21.6  
 209.800     66.8    326.8  21.6  
 209.900    166.9    331.1  22.4  
 210.000    133.5    331.1  22.4  
 210.100     50.1    329.7  23.2  
 210.200     33.4    328.2  22.4  
 210.300     50.1    325.3  21.6  
 210.400     66.8    321.0  20.0  
 210.500     83.4    318.1  20.0  
 210.600    133.5    312.4  19.2  
 210.700    100.1    310.9  18.4  
 210.800    116.8    306.6  18.4  
 210.900    100.1    306.6  17.6  
 211.000    116.8    305.1  17.6  
 211.100     33.4    299.4  18.4  
 211.200    100.1    295.0  17.6  
 211.300    133.5    293.6  17.6  
 211.400    116.8    293.6  18.4  
 211.500     50.1    297.9  18.4  
 211.600    116.8    299.4  20.0  
 211.700     83.4    302.3  21.6  
 211.800    116.8    305.1  23.2  
 211.900     33.4    303.7  22.4  
 212.000    100.1    306.6  24.0  
 212.100    100.1    303.7  23.2  
 212.200     83.4    300.8  23.2  
 212.300    100.1    297.9  24.0  
 212.400     33.4    293.6  23.2  
 212.500    150.2    289.3  22.4  
 212.600    100.1    284.9  22.4  
 212.700    150.2    290.7  23.2  
 212.800     83.4    297.9  23.2  
 212.900    100.1    306.6  23.2  
 213.000     83.4    315.2  24.0  
 213.100    116.8    319.6  23.2  
 213.200     83.4    325.3  24.0  
 213.300    100.1    331.1  23.2  
 213.400     66.8    332.6  24.0  
 213.500     33.4    338.3  23.2  
 213.600     83.4    338.3  24.0  
 213.700     83.4    341.2  24.0  
 213.800     16.7    342.7  24.0  
 213.900     50.1    344.1  24.0  
 214.000     66.8    344.1  24.0  
 214.100  -999.25    345.6  23.2  
 214.200     83.4    344.1  24.8  
 214.300     50.1    347.0  23.2  
 214.400    116.8    348.4  24.0  
 214.500    100.1    348.4  24.0  
 214.600     66.8    348.4  23.2  
 214.700     66.8    349.9  24.0  
 214.800    133.5    348.4  24.0  
 214.900     16.7    347.0  24.8  
 215.000     83.4    347.0  24.8  
 215.100     83.4    348.4  24.8  
 215.200     66.8    347.0  25.6  
 215.300    100.1    347.0  26.4  
 215.400    100.1    349.9  26.4  
 215.500    100.1    348.4  25.6  
 215.600    100.1    348.4  25.6  
 215.700     83.4    349.9  24.8  
 215.800     50.1    349.9  24.8  
 215.900    100.1    349.9  24.8  
 216.000    166.9    351.3  24.8  
 216.100     33.4    351.3  24.0  
 216.200     33.4    352.8  24.8  
 216.300     83.4    349.9  24.8  
 216.400    100.1    351.3  24.8  
 216.500    100.1    349.9  24.8  
 216.600     83.4    347.0  24.8  
 216.700    200.3    345.6  24.0  
 216.800     83.4    344.1  24.0  
 216.900     50.1    344.1  24.8  
 217.000     50.1    345.6  24.0  
 217.100     83.4    344.1  24.0  
 217.200     50.1    345.6  24.0  
 217.300     66.8    347.0  24.8  
 217.400     33.4    347.0  24.8  
 217.500     50.1    349.9  24.8  
 217.600     50.1    349.9  24.8  
 217.700    166.9    351.3  24.8  
 217.800    116.8    352.8  25.6  
 217.900    133.5    354.2  25.6  
 218.000    183.6    355.7  25.6  
 218.100    116.8    358.5  24.8  
 218.200    116.8    358.5  26.4  
 218.300    116.8    360.0  24.8  
 218.400    150.2    360.0  25.6  
 218.500     66.8    362.9  25.6  
 218.600     66.8    362.9  24.8  
 218.700     83.4    364.3  25.6  
 218.800     33.4    361.4  26.4  
 218.900     66.8    364.3  26.4  
 219.000     50.1    365.8  26.4  
 219.100  -999.25    365.8  25.6  
 219.200     33.4    365.8  26.4  
 219.300    166.9    367.2  26.4  
 219.400     16.7    367.2  26.4  
 219.500     33.4    368.2  26.4  
 219.600  -999.25    368.6  26.4  
 219.700     50.1    373.0  26.4  
 219.800     50.1    370.1  25.6  
 219.900     50.1    371.5  24.8  
 220.000     66.8    370.1  26.4  
 220.100     33.4    371.1  24.8  
 220.200     50.1    370.1  24.8  
 220.300     50.1    370.1  25.6  
 220.400     33.4    368.6  24.8  
 220.500     83.4    367.2  24.8  
 220.600     33.4    362.9  24.8  
 220.700     33.4    362.9  25.6  
 220.800     50.1    362.9  24.8  
 220.900     33.4    364.3  26.4  
 221.000    133.5    361.4  24.8  
 221.100     83.4    355.7  24.8  
 221.200     33.4    355.7  24.0  
 221.300     33.4    354.2  24.0  
 221.400     66.8    347.0  23.2  
 221.500     83.4    344.1  23.2  
 221.600    150.2    345.6  24.0  
 221.700    116.8    339.8  23.2  
 221.800    216.9    334.0  23.2  
 221.900    200.3    331.1  23.2  
 222.000     83.4    329.7  22.4  
 222.100     66.8    334.0  22.4  
 222.200     50.1    338.3  21.6  
 222.300    166.9    339.8  21.6  
 222.400    116.8    345.6  21.6  
 222.500  -999.25    351.3  21.6  
 222.600     33.4    354.2  21.6  
 222.700     33.4    360.0  21.6  
 222.800     66.8    361.4  21.6  
 222.900     50.1    365.8  21.6  
 223.000     83.4    365.8  20.8  
 223.100     33.4    365.8  21.6  
 223.200     55.6    367.2  20.0  
 223.300     50.1    367.2  20.8  
 223.400  -999.25    367.2  20.0  
 223.500     50.1    368.6  20.0  
 223.600  -999.25    370.1  19.2  
 223.700    100.1    370.1  19.2  
 223.800     44.5    370.1  18.4  
 223.900     33.4    368.6  18.4  
 224.000    100.1    367.2  20.0  
 224.100     16.7    366.2  18.4  
 224.200     50.1    361.4  18.4  
 224.300  -999.25    361.4  18.4  
 224.400     55.6    358.5  17.6  
 224.500    100.1    354.2  16.8  
 224.600     16.7    352.8  16.8  
 224.700    100.1    346.0  16.3  
 224.800  -999.25    338.3  16.0  
 224.900     66.8    335.5  15.2  
 225.000    111.3    331.1  15.2  
 225.100    116.8    319.6  14.4  
 225.200  -999.25    315.2  13.6  
 225.300     66.8    315.2  14.1  
 225.400    100.1    308.0  13.6  
 225.500     44.5    299.4  12.8  
 225.600    100.1    284.9  12.8  
 225.700     83.4    271.9  13.6  
 225.800     16.7    266.2  12.0  
 225.900     16.7    260.4  10.4  
 226.000  -999.25    257.5   8.0  
 226.100  -999.25    248.7   7.2  
 226.200     16.7    242.3   7.2  
 226.300  -999.25    238.1   7.2  
 226.400     16.7    232.8   7.2  
 226.500  -999.25    226.7   7.2  
 226.600     16.7    222.4   7.2  
 226.700  -999.25    216.7   8.0  
 226.800  -999.25    213.2   8.0  
 226.900  -999.25    209.6   8.8  
 227.000  -999.25    208.2   9.6  
 227.100     16.7    206.1   9.6  
 227.200     16.7    204.6  11.2  
 227.300  -999.25    204.6  11.2  
 227.400  -999.25    205.4  11.2  
 227.500  -999.25    205.4  11.2  
 227.600  -999.25    206.8  11.2  
 227.700  -999.25    206.8  10.4  
 227.800     16.7    208.2  10.4  
 227.900  -999.25    209.6  11.2  
 228.000  -999.25    210.3  10.4  
 228.100  -999.25    211.8  11.2  
 228.200  -999.25    214.6  10.4  
 228.300  -999.25    215.3  10.4  
 228.400     16.7    217.4  10.4  
 228.500  -999.25    218.9  11.2  
 228.600  -999.25    221.0  10.4  
 228.700     16.7    222.4  10.4  
 228.800     50.1    224.5  10.4  
 228.900  -999.25    226.7  11.2  
 229.000     16.7    226.7  10.4  
 229.100  -999.25    228.8  10.4  
 229.200     16.7    230.2  10.4  
 229.300  -999.25    233.1  10.4  
 229.400  -999.25    235.2  10.4  
 229.500     16.7    233.8  10.4  
 229.600  -999.25    233.1  10.4  
 229.700  -999.25    233.1  10.4  
 229.800  -999.25    230.9   9.6  
 229.900     50.1    228.8   9.6  
 230.000     33.4    227.4  10.4  
 230.100     33.4    223.1   8.8  
 230.200     33.4    218.9   9.6  
 230.300     16.7    218.2   8.8  
 230.400     33.4    216.0   9.6  
 230.500  -999.25    215.3  10.4  
 230.600  -999.25    215.3  10.4  
 230.700     16.7    215.3  11.2  
 230.800     16.7    214.6  11.2  
 230.900     16.7    213.9  12.0  
 231.000     16.7    213.4  12.0  
