~Version Information
 VERS.                2.0:  CWLS LOG ASCII STANDARD -VERSION 2.0
 WRAP.                 NO:  ONE LINE PER DEPTH STEP
~WELL INFORMATION BLOCK
#MNEM.UNIT       DATA		            DESCRIPTION OF MNEMONIC
#---------    -------------            ------------------------
 STRT.FT  2.100                          :START DEPTH
 STOP.FT  468.300                        :STOP DEPTH
 STEP.FT  0.100                          :STEP    UP_HOLE  
 NULL.    -999.25                        :NULL VALUE
 COMP.    NORTHFIELD CREAMERY            :COMPANY
 WELL.    217760                                                       :WELL
 FLD .    NORTHFIELD  71-B               :FIELD\LOCATION
 LOC .    36    112   20                 :LOCATION
 CNTY.    RICE                           :COUNTY
 STAT.    DDACAA                         :STATE
 CTRY.    USA                            :COUNTRY
 SRVC.    TRUCK                          :SERVICE COMPANY
 DATE.    11/08/91                       :LOG DATE
 API .                                       :API NUMBER
 LIC .                                   :LICENSE NUMBER
~Curve Information Block
#MNEM.UNIT      API CODE     Curve Description
#---------    -------------  ------------------------
 DEPT     .FT        00 001 00 00          :  1  DEPTH   
 GAMMA    .API-GR    00 310 00 00          :  2  GAMMA RAY           
 RES      .OHM       00 000 00 00          :  3  SINGLE POINT RES    
 SP       .MV        00 010 00 00          :  4  SPON POTENTIAL      
~Parameter Information Block
#MNEM.UNIT   Information     Description
#---------- ---------------  ------------------------
 FILE.      PROCESSED          :File Type
 FIID.      9060A              :File Type Identifier
 VERS.      V 6.0              :System Version
 SER .      1                  :System Serial Number
 TRUK.      1.000000           :Truck Calibration Number
 TOOL.         202             :Tool Serial Number
 TIME.      1310               :Time    HrHrMinMin
 LAT .                         :Latitude
 LON .                         :Longitude
 LMF .                         :Log Measured From
 DMF .                         :Driller Measured From
 PD  .      -5                 :Permanent Data
 PDEV.FT                       :Elevation Permanent Data
 EKB .FT                       :Elevation Kelly Bushing
 ELEV.FT                       :Elevation DF
 EGL .FT    912  5             :Elevation Ground Level
 DRDP.FT    647                :Driller's Depth
 CASD.FT                       :Casing Diameter
 CASB.FT                       :Casing Bottom
 CASX.      STEEL              :Casing Type
 CAST.IN    8                  :Casing Thickness
 TNOC.                         :Time Circulation Stopped
 LOGU.      C-1                :Logging Unit
 RECB.      RUNKEL             :Recorded By
 OSR1.                         :Other Services
 OSR2.                         :Other Services
 OSR3.                         :Other Services
 BS  .IN                       :Bit Size
 MST .F                        :Mean Surface Temperature
 TGRD.F                        :Temperature Gradiant
 MAGN.                         :Magnetic Declination
 MDEN.                         :Density Matrix
 MATR.                         :Neutron Matrix
 DTMT.                         :Delta T Matrix
 DTFL.                         :Delta T Fluid
 MUDS.                         :Mud Sample Source
 MRS .                         :Mud Resistivity
 MTP .                         :Mud Temperature
 MFRS.                         :Resistivity Mud Filtrate
 MFTP.                         :Temperature Mud Filtrate
 MCRS.                         :Resistivity Mud Cake
 MCTP.                         :Temperature Mud Cake
 FTYP.      WATER              :Fluid Type
 FD  .LB/G                     :Mud Weight
 DFV .S                        :Fluid Viscosity
 FPH .                         :Fuild PH
 ELCO.                         :Electron Cutoff
 CASL.IN                       :Casing Logger
 LOTD.FT                       :Logger TD
 ARTM.                         :Arrival Time
 DPTM.                         :Departure Time
 RIGN.                         :Rig Number
~Other Information
#MNEM.UNIT  Information      Description
#---------- ---------------  ------------------------
                                                                                                                                                                                C
                                                                                                                                                                 C
                                                                                                                                             C
                                                                                                                           C
                                                                                                       C
            0.000000000
         0.000000000
# -------------------------- 
~A DEPTH  GAMMA    RES      SP    
# ...
  70.800     16.7    310.9  80.8  
  70.900  -999.25    303.7  79.2  
  71.000     50.1    302.3  79.2  
  71.100     50.1    303.7  79.2  
  71.200     33.4    303.7  77.6  
  71.300     11.1    305.1  77.6  
  71.400  -999.25    308.0  76.8  
  71.500     33.4    306.6  76.8  
  71.600  -999.25    306.6  76.0  
  71.700  -999.25    303.7  75.2  
  71.800     33.4    303.7  75.2  
  71.900     55.6    299.4  73.6  
  72.000     50.1    295.0  73.6  
  72.100     50.1    292.1  74.4  
  72.200     16.7    287.3  72.8  
  72.300     33.4    276.3  72.8  
  72.400     16.7    266.2  72.8  
  72.500     66.8    254.6  74.4  
  72.600     33.4    250.3  72.0  
  72.700     33.4    249.4  72.8  
  72.800     16.7    249.0  72.3  
  72.900     50.1    251.7  72.0  
  73.000     66.8    256.1  72.0  
  73.100     33.4    260.4  72.8  
  73.200    100.1    260.4  72.8  
  73.300     50.1    260.4  73.6  
  73.400    100.1    260.4  73.6  
  73.500     33.4    260.4  73.6  
  73.600  -999.25    264.7  74.4  
  73.700     16.7    269.1  73.6  
  73.800     16.7    270.5  73.6  
  73.900     50.1    271.9  74.4  
  74.000     83.4    276.3  74.4  
  74.100     16.7    277.7  74.4  
  74.200     33.4    282.0  74.4  
  74.300  -999.25    286.4  76.0  
  74.400     16.7    292.1  74.4  
  74.500     33.4    297.9  75.2  
  74.600     33.4    299.4  74.4  
  74.700     16.7    303.7  74.4  
  74.800     16.7    310.9  73.6  
  74.900     66.8    315.2  73.6  
  75.000     16.7    315.2  74.4  
  75.100  -999.25    318.1  74.4  
  75.200     16.7    318.1  76.0  
  75.300  -999.25    313.8  76.0  
  75.400     16.7    308.0  76.0  
  75.500  -999.25    308.0  76.0  
  75.600     33.4    303.7  76.0  
  75.700     50.1    303.7  76.0  
  75.800     16.7    302.3  76.0  
  75.900     50.1    303.7  76.0  
  76.000     33.4    306.6  75.2  
  76.100     11.1    308.0  76.0  
  76.200     16.7    308.0  75.2  
  76.300     66.8    312.4  75.2  
  76.400     50.1    312.4  75.2  
  76.500     50.1    313.8  75.2  
  76.600     66.8    313.8  74.4  
  76.700  -999.25    315.2  74.4  
  76.800     50.1    315.2  74.4  
  76.900     33.4    315.2  74.4  
  77.000     33.4    318.1  74.4  
  77.100     16.7    313.8  74.4  
  77.200     16.7    309.5  74.4  
  77.300     16.7    310.9  75.2  
  77.400  -999.25    303.7  76.0  
  77.500  -999.25    300.8  74.4  
  77.600     16.7    298.9  74.9  
  77.700  -999.25    297.9  75.2  
  77.800     33.4    300.8  74.4  
  77.900     16.7    297.9  74.4  
  78.000     16.7    292.1  75.2  
  78.100     16.7    289.3  75.2  
  78.200     33.4    289.3  75.2  
  78.300     22.3    289.3  75.2  
  78.400     33.4    289.3  75.2  
  78.500     16.7    290.7  74.4  
  78.600     33.4    293.6  75.2  
  78.700     16.7    295.0  73.6  
  78.800     16.7    299.4  74.4  
  78.900     33.4    296.5  73.6  
  79.000     66.8    295.0  74.4  
  79.100  -999.25    289.3  74.4  
  79.200     50.1    288.3  74.9  
  79.300     16.7    286.4  75.2  
  79.400  -999.25    287.8  75.2  
  79.500  -999.25    287.8  74.4  
  79.600     16.7    287.8  75.2  
  79.700  -999.25    286.4  75.2  
  79.800     16.7    284.9  76.0  
  79.900  -999.25    279.2  76.0  
  80.000  -999.25    270.5  76.8  
  80.100     33.4    258.9  76.8  
  80.200     50.1    248.0  76.8  
  80.300     16.7    241.6  76.8  
  80.400     33.4    235.9  76.0  
  80.500     66.8    230.2  76.8  
  80.600     16.7    225.3  76.8  
  80.700     33.4    219.6  76.8  
  80.800  -999.25    213.9  77.6  
  80.900     22.3    208.2  76.8  
  81.000  -999.25    201.8  77.6  
  81.100  -999.25    196.8  78.4  
  81.200     33.4    191.8  79.2  
  81.300     16.7    188.3  78.4  
  81.400     33.4    185.5  79.2  
  81.500  -999.25    184.0  79.2  
  81.600     16.7    181.9  79.2  
  81.700  -999.25    179.8  79.2  
  81.800  -999.25    177.4  79.2  
  81.900  -999.25    173.4  80.8  
  82.000  -999.25    172.7  82.4  
  82.100     33.4    171.9  82.4  
  82.200  -999.25    170.5  83.2  
  82.300     16.7    171.2  84.0  
  82.400     16.7    170.3  84.0  
  82.500  -999.25    171.2  83.2  
  82.600     16.7    171.2  82.4  
  82.700     16.7    172.7  83.2  
  82.800     33.4    172.7  81.6  
  82.900     16.7    174.1  82.4  
  83.000  -999.25    175.5  82.4  
  83.100  -999.25    176.9  82.4  
  83.200     33.4    179.1  84.0  
  83.300     16.7    181.2  84.8  
  83.400  -999.25    183.3  84.8  
  83.500     16.7    187.6  84.8  
  83.600     33.4    189.0  83.2  
  83.700     33.4    191.1  84.0  
  83.800     33.4    194.0  83.2  
  83.900     16.7    196.8  84.0  
  84.000  -999.25    200.6  83.5  
  84.100  -999.25    207.5  83.2  
  84.200     16.7    213.9  84.0  
  84.300     16.7    218.9  83.2  
  84.400  -999.25    225.3  82.4  
  84.500     33.4    227.4  82.4  
  84.600  -999.25    227.4  83.2  
  84.700     16.7    225.3  84.0  
  84.800     33.4    220.3  84.8  
  84.900  -999.25    213.9  85.6  
  85.000  -999.25    208.9  85.6  
  85.100     16.7    204.6  84.8  
  85.200     16.7    203.2  84.8  
  85.300     16.7    202.5  84.0  
  85.400  -999.25    201.8  84.0  
  85.500     16.7    201.1  83.2  
  85.600  -999.25    198.2  84.8  
  85.700     22.3    196.8  84.8  
  85.800  -999.25    194.7  86.4  
  85.900     66.8    195.4  87.2  
  86.000     33.4    195.4  86.4  
  86.100     16.7    194.7  86.4  
  86.200  -999.25    194.0  84.8  
  86.300     66.8    194.0  84.8  
  86.400     50.1    193.3  84.0  
  86.500     33.4    194.0  84.0  
  86.600     33.4    193.5  84.0  
  86.700     50.1    192.6  85.6  
  86.800     16.7    192.6  85.6  
  86.900     33.4    192.6  87.2  
  87.000     33.4    192.6  87.2  
  87.100  -999.25    194.0  87.2  
  87.200     16.7    193.0  87.2  
  87.300     33.4    194.7  87.2  
  87.400     11.1    194.0  87.2  
  87.500  -999.25    195.4  87.2  
  87.600     16.7    196.1  88.0  
  87.700     83.4    197.5  88.0  
  87.800     66.8    198.2  88.0  
  87.900     50.1    199.0  88.0  
  88.000  -999.25    201.1  88.8  
  88.100     16.7    202.5  88.8  
  88.200     66.8    203.9  88.8  
  88.300     33.4    205.4  89.9  
  88.400     66.8    207.5  89.6  
  88.500     22.3    209.6  89.6  
  88.600     16.7    212.5  87.2  
  88.700     83.4    214.6  87.2  
  88.800     16.7    216.7  86.4  
  88.900  -999.25    218.9  88.0  
  89.000     33.4    220.3  88.8  
  89.100     33.4    222.4  89.6  
  89.200  -999.25    223.8  89.6  
  89.300     16.7    225.3  90.4  
  89.400  -999.25    227.6  90.9  
  89.500  -999.25    230.9  92.0  
  89.600     11.1    234.5  92.8  
  89.700     33.4    237.3  93.6  
  89.800     16.7    240.2  95.2  
  89.900     16.7    242.3  95.2  
  90.000  -999.25    243.0  96.8  
  90.100     66.8    245.2  96.8  
  90.200     33.4    247.3  96.0  
  90.300     50.1    250.3  96.0  
  90.400     16.7    257.5  96.8  
  90.500     16.7    265.2  96.8  
  90.600     66.8    277.7  97.6  
  90.700     11.1    284.9  99.2  
  90.800     33.4    292.1  99.2  
  90.900     66.8    287.8  100.0 
  91.000    100.1    277.7  100.8 
  91.100     16.7    269.1  100.0 
  91.200  -999.25    263.3  99.2  
  91.300     44.5    264.7  100.0 
  91.400     16.7    264.7  99.2  
  91.500     16.7    266.2  98.4  
  91.600     16.7    265.2  98.4  
  91.700  -999.25    270.5  98.4  
  91.800  -999.25    271.9  98.4  
  91.900     66.8    277.7  99.2  
  92.000     33.4    280.6  99.2  
  92.100  -999.25    283.5  98.4  
  92.200     33.4    288.3  98.9  
  92.300     33.4    292.1  99.2  
  92.400     22.3    280.6  99.2  
  92.500     50.1    271.9  98.4  
  92.600     33.4    271.9  99.2  
  92.700  -999.25    271.9  98.4  
  92.800     16.7    271.9  98.4  
  92.900  -999.25    274.8  97.6  
  93.000     16.7    277.7  97.6  
  93.100     66.8    283.5  96.8  
  93.200    100.1    283.5  95.2  
  93.300     16.7    290.2  94.7  
  93.400     33.4    295.0  92.8  
  93.500  -999.25    296.5  92.8  
  93.600     16.7    305.1  92.8  
