~Version Information
 VERS.                2.0:  CWLS LOG ASCII STANDARD -VERSION 2.0
 WRAP.                 NO:  ONE LINE PER DEPTH STEP
~WELL INFORMATION BLOCK
#MNEM.UNIT       DATA		            DESCRIPTION OF MNEMONIC
#---------    -------------            ------------------------
 STRT.FT  2.100                          :START DEPTH
 STOP.FT  468.300                        :STOP DEPTH
 STEP.FT  0.100                          :STEP    UP_HOLE  
 NULL.    -999.25                        :NULL VALUE
 COMP.    NORTHFIELD CREAMERY            :COMPANY
 WELL.    217760                                                       :WELL
 FLD .    NORTHFIELD  71-B               :FIELD\LOCATION
 LOC .    36    112   20                 :LOCATION
 CNTY.    RICE                           :COUNTY
 STAT.    DDACAA                         :STATE
 CTRY.    USA                            :COUNTRY
 SRVC.    TRUCK                          :SERVICE COMPANY
 DATE.    11/08/91                       :LOG DATE
 API .                                       :API NUMBER
 LIC .                                   :LICENSE NUMBER
~Curve Information Block
#MNEM.UNIT      API CODE     Curve Description
#---------    -------------  ------------------------
 DEPT     .FT        00 001 00 00          :  1  DEPTH   
 GAMMA    .API-GR    00 310 00 00          :  2  GAMMA RAY           
 RES      .OHM       00 000 00 00          :  3  SINGLE POINT RES    
 SP       .MV        00 010 00 00          :  4  SPON POTENTIAL      
~Parameter Information Block
#MNEM.UNIT   Information     Description
#---------- ---------------  ------------------------
 FILE.      PROCESSED          :File Type
 FIID.      9060A              :File Type Identifier
 VERS.      V 6.0              :System Version
 SER .      1                  :System Serial Number
 TRUK.      1.000000           :Truck Calibration Number
 TOOL.         202             :Tool Serial Number
 TIME.      1310               :Time    HrHrMinMin
 LAT .                         :Latitude
 LON .                         :Longitude
 LMF .                         :Log Measured From
 DMF .                         :Driller Measured From
 PD  .      -5                 :Permanent Data
 PDEV.FT                       :Elevation Permanent Data
 EKB .FT                       :Elevation Kelly Bushing
 ELEV.FT                       :Elevation DF
 EGL .FT    912  5             :Elevation Ground Level
 DRDP.FT    647                :Driller's Depth
 CASD.FT                       :Casing Diameter
 CASB.FT                       :Casing Bottom
 CASX.      STEEL              :Casing Type
 CAST.IN    8                  :Casing Thickness
 TNOC.                         :Time Circulation Stopped
 LOGU.      C-1                :Logging Unit
 RECB.      RUNKEL             :Recorded By
 OSR1.                         :Other Services
 OSR2.                         :Other Services
 OSR3.                         :Other Services
 BS  .IN                       :Bit Size
 MST .F                        :Mean Surface Temperature
 TGRD.F                        :Temperature Gradiant
 MAGN.                         :Magnetic Declination
 MDEN.                         :Density Matrix
 MATR.                         :Neutron Matrix
 DTMT.                         :Delta T Matrix
 DTFL.                         :Delta T Fluid
 MUDS.                         :Mud Sample Source
 MRS .                         :Mud Resistivity
 MTP .                         :Mud Temperature
 MFRS.                         :Resistivity Mud Filtrate
 MFTP.                         :Temperature Mud Filtrate
 MCRS.                         :Resistivity Mud Cake
 MCTP.                         :Temperature Mud Cake
 FTYP.      WATER              :Fluid Type
 FD  .LB/G                     :Mud Weight
 DFV .S                        :Fluid Viscosity
 FPH .                         :Fuild PH
 ELCO.                         :Electron Cutoff
 CASL.IN                       :Casing Logger
 LOTD.FT                       :Logger TD
 ARTM.                         :Arrival Time
 DPTM.                         :Departure Time
 RIGN.                         :Rig Number
~Other Information
#MNEM.UNIT  Information      Description
#---------- ---------------  ------------------------
                                                                                                                                                                                C
                                                                                                                                                                 C
                                                                                                                                             C
                                                                                                                           C
                                                                                                       C
            0.000000000
         0.000000000
# -------------------------- 
~A DEPTH  GAMMA    RES      SP    
# ...
 299.800     16.7    176.2  22.4  
 299.900     16.7    176.9  21.6  
 300.000     16.7    176.4  21.6  
 300.100  -999.25    176.9  21.6  
 300.200  -999.25    176.9  22.4  
 300.300  -999.25    176.9  22.4  
 300.400  -999.25    176.9  23.2  
 300.500  -999.25    177.6  21.6  
 300.600  -999.25    177.6  22.4  
 300.700  -999.25    177.6  23.2  
 300.800     33.4    176.9  22.4  
 300.900     33.4    177.6  22.4  
 301.000     16.7    176.9  21.6  
 301.100  -999.25    176.9  21.6  
 301.200  -999.25    176.9  20.0  
 301.300     16.7    176.2  20.8  
 301.400     50.1    176.2  20.8  
 301.500     33.4    176.2  21.6  
 301.600  -999.25    176.9  21.6  
 301.700  -999.25    176.9  23.2  
 301.800  -999.25    176.2  22.4  
 301.900     16.7    176.2  22.4  
 302.000  -999.25    174.8  22.4  
 302.100  -999.25    174.1  23.2  
 302.200  -999.25    173.4  23.2  
 302.300  -999.25    173.4  24.0  
 302.400  -999.25    172.7  23.2  
 302.500  -999.25    173.4  24.8  
 302.600     33.4    173.4  24.8  
 302.700     16.7    174.1  24.0  
 302.800  -999.25    174.8  25.6  
 302.900  -999.25    176.2  24.8  
 303.000     16.7    176.9  24.0  
 303.100     16.7    176.9  24.8  
 303.200  -999.25    178.3  23.2  
 303.300  -999.25    178.3  24.8  
 303.400     16.7    179.8  24.0  
 303.500     16.7    179.1  24.8  
 303.600  -999.25    179.8  24.8  
 303.700  -999.25    180.5  24.8  
 303.800  -999.25    181.2  24.8  
 303.900  -999.25    180.5  25.6  
 304.000  -999.25    181.2  26.4  
 304.100     50.1    181.2  25.6  
 304.200  -999.25    181.2  25.6  
 304.300  -999.25    180.5  26.4  
 304.400     33.4    180.5  25.6  
 304.500  -999.25    179.8  26.4  
 304.600     11.1    179.1  25.6  
 304.700     16.7    178.3  26.4  
 304.800     16.7    178.3  26.4  
 304.900  -999.25    177.9  25.9  
 305.000  -999.25    177.6  26.4  
 305.100  -999.25    177.6  24.8  
 305.200     22.3    176.9  26.4  
 305.300  -999.25    177.6  24.8  
 305.400     16.7    178.3  24.8  
 305.500  -999.25    178.3  23.7  
 305.600  -999.25    178.3  24.0  
 305.700     16.7    179.1  24.8  
 305.800  -999.25    178.3  24.8  
 305.900     16.7    179.1  24.8  
 306.000     16.7    178.3  26.4  
 306.100  -999.25    178.8  24.8  
 306.200  -999.25    178.3  24.0  
 306.300  -999.25    177.6  24.0  
 306.400     16.7    176.9  23.2  
 306.500  -999.25    175.5  23.2  
 306.600  -999.25    175.5  23.2  
 306.700  -999.25    175.5  23.2  
 306.800     16.7    174.8  23.2  
 306.900  -999.25    174.8  23.2  
 307.000  -999.25    174.1  23.2  
 307.100     33.4    174.1  23.2  
 307.200  -999.25    174.1  22.4  
 307.300  -999.25    174.8  22.4  
 307.400  -999.25    175.5  23.2  
 307.500     16.7    174.8  23.2  
 307.600  -999.25    174.8  23.2  
 307.700     16.7    176.2  23.2  
 307.800  -999.25    175.5  24.0  
 307.900     16.7    175.5  24.8  
 308.000  -999.25    176.2  24.0  
 308.100  -999.25    176.2  24.8  
 308.200  -999.25    175.5  24.8  
 308.300  -999.25    175.5  24.8  
 308.400  -999.25    174.8  24.8  
 308.500  -999.25    174.1  24.8  
 308.600     16.7    172.7  24.0  
 308.700  -999.25    172.7  24.8  
 308.800     33.4    172.7  24.8  
 308.900  -999.25    171.2  23.2  
 309.000  -999.25    170.5  24.0  
 309.100     16.7    169.8  23.2  
 309.200     16.7    168.4  23.2  
 309.300     33.4    167.7  23.2  
 309.400     33.4    167.0  23.2  
 309.500  -999.25    167.0  24.0  
 309.600  -999.25    166.3  23.2  
 309.700     11.1    167.0  23.2  
 309.800     16.7    167.7  21.6  
 309.900  -999.25    167.0  23.2  
 310.000     16.7    167.7  21.6  
 310.100     16.7    168.4  20.8  
 310.200  -999.25    169.1  21.6  
 310.300     22.3    169.8  21.6  
 310.400  -999.25    169.8  22.4  
 310.500  -999.25    171.2  21.6  
 310.600     16.7    170.8  23.2  
 310.700     16.7    171.9  24.0  
 310.800     33.4    171.2  23.2  
 310.900     22.3    171.2  23.2  
 311.000     16.7    171.9  23.2  
 311.100  -999.25    171.2  23.2  
 311.200     33.4    171.2  22.7  
 311.300  -999.25    170.5  22.4  
 311.400     33.4    169.8  23.2  
 311.500     33.4    169.1  21.6  
 311.600     16.7    169.1  22.4  
 311.700     33.4    168.4  20.0  
 311.800  -999.25    167.0  22.1  
 311.900     33.4    167.0  22.4  
 312.000     33.4    165.5  24.8  
 312.100     11.1    165.5  24.0  
 312.200  -999.25    165.5  24.8  
 312.300  -999.25    165.5  23.2  
 312.400     83.4    164.6  24.3  
 312.500  -999.25    164.1  24.0  
 312.600  -999.25    164.1  23.2  
 312.700     33.4    163.4  24.0  
 312.800     33.4    162.7  23.2  
 312.900  -999.25    162.7  21.6  
 313.000  -999.25    162.7  23.2  
 313.100     16.7    162.0  22.4  
 313.200     33.4    162.0  23.2  
 313.300  -999.25    162.0  22.4  
 313.400  -999.25    161.3  22.4  
 313.500  -999.25    161.3  23.2  
 313.600  -999.25    161.3  21.6  
 313.700  -999.25    159.9  23.2  
 313.800  -999.25    157.7  23.2  
 313.900  -999.25    156.3  24.0  
 314.000     33.4    154.9  23.2  
 314.100  -999.25    152.7  22.4  
 314.200  -999.25    150.6  21.6  
 314.300  -999.25    148.5  20.8  
 314.400  -999.25    147.8  20.8  
 314.500  -999.25    147.1  21.6  
 314.600     16.7    145.6  20.8  
 314.700  -999.25    145.6  21.6  
 314.800     44.5    145.6  22.4  
 314.900  -999.25    146.4  21.6  
 315.000     33.4    146.4  22.4  
 315.100  -999.25    147.8  22.4  
 315.200     16.7    147.1  21.6  
 315.300     33.4    147.1  23.2  
 315.400     11.1    145.6  22.4  
 315.500     50.1    143.5  22.4  
 315.600     16.7    141.4  21.6  
 315.700     16.7    139.0  22.1  
 315.800     16.7    137.1  21.6  
 315.900     16.7    135.7  20.0  
 316.000     16.7    137.1  21.6  
 316.100  -999.25    137.8  21.6  
 316.200     16.7    138.5  21.6  
 316.300  -999.25    138.5  21.6  
 316.400  -999.25    137.8  22.4  
 316.500  -999.25    137.1  23.2  
 316.600  -999.25    135.7  22.4  
 316.700     33.4    135.7  23.2  
 316.800     50.1    135.7  22.4  
 316.900     33.4    137.8  22.4  
 317.000     33.4    138.5  23.2  
 317.100     11.1    142.1  22.4  
 317.200     33.4    144.2  22.4  
 317.300     16.7    146.4  22.4  
 317.400    100.1    147.8  22.4  
 317.500     16.7    149.2  22.4  
 317.600     16.7    149.9  24.0  
 317.700     33.4    150.6  23.2  
 317.800     16.7    151.3  23.2  
 317.900     16.7    152.7  21.6  
 318.000     33.4    152.3  22.1  
 318.100  -999.25    153.5  21.6  
 318.200  -999.25    154.9  22.4  
 318.300     33.4    155.6  22.4  
 318.400     50.1    157.0  22.4  
 318.500    133.5    158.4  23.2  
 318.600     50.1    159.1  22.4  
 318.700     33.4    160.6  22.4  
 318.800     16.7    162.0  22.4  
 318.900    116.8    163.4  23.2  
 319.000     50.1    162.7  22.4  
 319.100     16.7    161.3  23.2  
 319.200  -999.25    161.3  23.2  
 319.300     33.4    159.9  24.0  
 319.400     50.1    158.4  23.2  
 319.500     50.1    157.7  23.2  
 319.600  -999.25    155.6  24.0  
 319.700     66.8    154.9  23.2  
 319.800     33.4    153.5  23.2  
 319.900     33.4    152.7  23.2  
 320.000     50.1    152.0  23.2  
 320.100     33.4    151.3  22.4  
 320.200     33.4    152.0  22.4  
 320.300     66.8    151.3  21.6  
 320.400     66.8    151.3  21.6  
 320.500    100.1    151.3  21.6  
 320.600     50.1    151.3  21.6  
 320.700     50.1    151.3  22.4  
 320.800     16.7    152.0  22.4  
 320.900  -999.25    151.3  22.4  
 321.000    150.2    152.0  22.4  
 321.100     33.4    149.9  21.6  
 321.200  -999.25    149.4  22.7  
 321.300     33.4    148.5  21.6  
 321.400     50.1    147.1  22.4  
 321.500     66.8    147.1  22.4  
 321.600     50.1    147.1  21.6  
 321.700     50.1    146.4  22.4  
 321.800     33.4    147.1  21.6  
 321.900     66.8    147.8  22.4  
 322.000     77.9    147.8  21.6  
 322.100     16.7    149.2  20.8  
 322.200     50.1    149.2  20.0  
 322.300     33.4    150.6  19.2  
 322.400     33.4    151.3  19.2  
 322.500     33.4    152.0  18.4  
 322.600     44.5    153.5  18.4  
