~Version Information
 VERS.                2.0:  CWLS LOG ASCII STANDARD -VERSION 2.0
 WRAP.                 NO:  ONE LINE PER DEPTH STEP
~WELL INFORMATION BLOCK
#MNEM.UNIT       DATA		            DESCRIPTION OF MNEMONIC
#---------    -------------            ------------------------
 STRT.FT  2.100                          :START DEPTH
 STOP.FT  468.300                        :STOP DEPTH
 STEP.FT  0.100                          :STEP    UP_HOLE  
 NULL.    -999.25                        :NULL VALUE
 COMP.    NORTHFIELD CREAMERY            :COMPANY
 WELL.    217760                                                       :WELL
 FLD .    NORTHFIELD  71-B               :FIELD\LOCATION
 LOC .    36    112   20                 :LOCATION
 CNTY.    RICE                           :COUNTY
 STAT.    DDACAA                         :STATE
 CTRY.    USA                            :COUNTRY
 SRVC.    TRUCK                          :SERVICE COMPANY
 DATE.    11/08/91                       :LOG DATE
 API .                                       :API NUMBER
 LIC .                                   :LICENSE NUMBER
~Curve Information Block
#MNEM.UNIT      API CODE     Curve Description
#---------    -------------  ------------------------
 DEPT     .FT        00 001 00 00          :  1  DEPTH   
 GAMMA    .API-GR    00 310 00 00          :  2  GAMMA RAY           
 RES      .OHM       00 000 00 00          :  3  SINGLE POINT RES    
 SP       .MV        00 010 00 00          :  4  SPON POTENTIAL      
~Parameter Information Block
#MNEM.UNIT   Information     Description
#---------- ---------------  ------------------------
 FILE.      PROCESSED          :File Type
 FIID.      9060A              :File Type Identifier
 VERS.      V 6.0              :System Version
 SER .      1                  :System Serial Number
 TRUK.      1.000000           :Truck Calibration Number
 TOOL.         202             :Tool Serial Number
 TIME.      1310               :Time    HrHrMinMin
 LAT .                         :Latitude
 LON .                         :Longitude
 LMF .                         :Log Measured From
 DMF .                         :Driller Measured From
 PD  .      -5                 :Permanent Data
 PDEV.FT                       :Elevation Permanent Data
 EKB .FT                       :Elevation Kelly Bushing
 ELEV.FT                       :Elevation DF
 EGL .FT    912  5             :Elevation Ground Level
 DRDP.FT    647                :Driller's Depth
 CASD.FT                       :Casing Diameter
 CASB.FT                       :Casing Bottom
 CASX.      STEEL              :Casing Type
 CAST.IN    8                  :Casing Thickness
 TNOC.                         :Time Circulation Stopped
 LOGU.      C-1                :Logging Unit
 RECB.      RUNKEL             :Recorded By
 OSR1.                         :Other Services
 OSR2.                         :Other Services
 OSR3.                         :Other Services
 BS  .IN                       :Bit Size
 MST .F                        :Mean Surface Temperature
 TGRD.F                        :Temperature Gradiant
 MAGN.                         :Magnetic Declination
 MDEN.                         :Density Matrix
 MATR.                         :Neutron Matrix
 DTMT.                         :Delta T Matrix
 DTFL.                         :Delta T Fluid
 MUDS.                         :Mud Sample Source
 MRS .                         :Mud Resistivity
 MTP .                         :Mud Temperature
 MFRS.                         :Resistivity Mud Filtrate
 MFTP.                         :Temperature Mud Filtrate
 MCRS.                         :Resistivity Mud Cake
 MCTP.                         :Temperature Mud Cake
 FTYP.      WATER              :Fluid Type
 FD  .LB/G                     :Mud Weight
 DFV .S                        :Fluid Viscosity
 FPH .                         :Fuild PH
 ELCO.                         :Electron Cutoff
 CASL.IN                       :Casing Logger
 LOTD.FT                       :Logger TD
 ARTM.                         :Arrival Time
 DPTM.                         :Departure Time
 RIGN.                         :Rig Number
~Other Information
#MNEM.UNIT  Information      Description
#---------- ---------------  ------------------------
                                                                                                                                                                                C
                                                                                                                                                                 C
                                                                                                                                             C
                                                                                                                           C
                                                                                                       C
            0.000000000
         0.000000000
# -------------------------- 
~A DEPTH  GAMMA    RES      SP    
   2.100  -999.25  -999.25  -999.25
   2.200     25.0  -999.25  -999.25
   2.300     16.7  -999.25  -999.25
   2.400     33.4  -999.25  -999.25
   2.500     25.0  -999.25  -999.25
   2.600     25.0  -999.25  -999.25
   2.700  -999.25  -999.25  -999.25
   2.800     25.0  -999.25  -999.25
   2.900     44.5  -999.25  -999.25
   3.000     33.4  -999.25  -999.25
   3.100     11.1     59.5  408.4 
   3.200     50.1     66.0  408.4 
   3.300     22.3     45.6  402.4 
   3.400     33.4     64.0  398.4 
   3.500     50.1     70.6  398.4 
   3.600     44.5     68.6  397.6 
   3.700     44.5     59.7  393.2 
   3.800     50.1     65.5  387.5 
   3.900     22.3     73.0  386.0 
   4.000     89.0     76.7  385.9 
   4.100     50.1     72.2  384.8 
   4.200     33.4     74.9  385.9 
   4.300     66.8     73.8  386.9 
   4.400     16.7     72.4  388.8 
   4.500     44.5     71.5  390.7 
   4.600     50.1     74.1  392.8 
   4.700     33.4     72.4  393.6 
   4.800     25.0     79.0  394.9 
   4.900     41.7     74.9  394.4 
   5.000     44.5     81.4  393.6 
   5.100     33.4     84.5  397.1 
   5.200     22.3     99.6  407.2 
   5.300     25.0     81.6  412.0 
   5.400     11.1     73.3  411.5 
   5.500     11.1     79.0  409.6 
   5.600     25.0     72.4  408.0 
   5.700     66.8     93.3  413.2 
   5.800     33.4     74.9  419.2 
   5.900     44.5     73.8  418.4 
   6.000     22.3     75.5  416.8 
   6.100     44.5     74.3  414.1 
   6.200     22.3     77.1  412.0 
   6.300     33.4     78.2  411.5 
   6.400     16.7     80.1  412.5 
   6.500     50.1     77.3  411.6 
   6.600     11.1     79.5  410.9 
   6.700     33.4     81.1  411.5 
   6.800     33.4     80.8  412.0 
   6.900     50.1     80.3  410.4 
   7.000     33.4     78.2  408.3 
   7.100     33.4     81.4  408.3 
   7.200  -999.25     81.1  406.7 
   7.300     11.1     83.7  406.4 
   7.400     44.5     78.6  404.8 
   7.500     11.1     81.4  401.9 
   7.600  -999.25     81.4  401.3 
   7.700     16.7     82.7  402.4 
   7.800     16.7     80.2  401.6 
   7.900     66.8     83.7  402.9 
   8.000     22.3     79.0  401.6 
   8.100     55.6     78.2  400.0 
   8.200     33.4     79.3  398.1 
   8.300     44.5     80.3  396.0 
   8.400     22.3     81.1  393.9 
   8.500  -999.25     81.1  391.7 
   8.600      8.3     80.8  389.2 
   8.700     33.4     78.4  386.0 
   8.800     66.8     75.5  384.0 
   8.900     33.4     79.5  383.7 
   9.000     55.6     79.3  383.7 
   9.100     22.3     79.0  384.8 
   9.200  -999.25     80.8  388.0 
   9.300     55.6     82.7  391.7 
   9.400     44.5     80.6  395.2 
   9.500     11.1     78.6  397.6 
   9.600     16.7     77.8  399.2 
   9.700     33.4     77.5  400.8 
   9.800  -999.25     79.8  402.9 
   9.900  -999.25     80.1  404.0 
  10.000     22.3     80.3  405.1 
  10.100     16.7     80.3  405.6 
  10.200     11.1     80.1  406.1 
  10.300  -999.25     79.8  406.7 
  10.400     16.7     78.2  406.1 
  10.500  -999.25     78.2  404.8 
  10.600  -999.25     76.9  402.9 
  10.700     66.8     76.2  400.3 
  10.800     33.4     79.3  398.1 
  10.900     11.1     78.0  395.5 
  11.000     50.1     79.4  392.8 
  11.100     16.7     79.0  390.1 
  11.200     22.3     79.0  386.9 
  11.300     50.1     79.0  385.6 
  11.400     33.4     79.4  385.6 
  11.500     16.7     79.3  384.8 
  11.600     11.1     78.2  384.8 
  11.700  -999.25     78.2  384.0 
  11.800  -999.25     78.8  384.8 
  11.900     33.4     77.5  384.8 
  12.000     16.7     78.6  384.8 
  12.100     16.7     78.8  386.4 
  12.200     11.1     79.0  387.2 
  12.300     33.4     78.6  388.8 
  12.400     16.7     78.2  389.6 
  12.500     66.8     76.9  390.7 
  12.600     11.1     77.1  389.6 
  12.700     33.4     77.1  389.6 
  12.800     16.7     76.7  388.0 
  12.900     11.1     77.1  386.4 
  13.000     33.4     77.1  384.0 
  13.100     16.7     78.0  381.6 
  13.200  -999.25     77.5  378.4 
  13.300     50.1     76.3  377.6 
  13.400  -999.25     76.7  376.0 
  13.500  -999.25     75.9  374.1 
  13.600     33.4     76.3  373.6 
  13.700  -999.25     76.7  374.4 
  13.800     33.4     76.2  375.2 
  13.900  -999.25     77.8  377.6 
  14.000     33.4     76.7  380.0 
  14.100  -999.25     77.7  383.2 
  14.200  -999.25     77.5  385.6 
  14.300     33.4     77.5  388.0 
  14.400  -999.25     77.5  390.7 
  14.500  -999.25     76.7  392.8 
  14.600     33.4     76.3  393.6 
  14.700     22.3     76.3  394.4 
  14.800     16.7     76.4  395.5 
  14.900  -999.25     76.3  395.2 
  15.000  -999.25     75.9  395.2 
  15.100     25.0     76.3  394.4 
  15.200     16.7     76.4  393.3 
  15.300  -999.25     75.9  392.8 
  15.400     11.1     75.9  392.8 
  15.500  -999.25     75.9  393.9 
  15.600     16.7     74.6  396.5 
  15.700     11.1     75.5  399.2 
  15.800     16.7     74.7  402.4 
  15.900  -999.25     75.1  402.4 
  16.000     33.4     74.9  404.0 
  16.100     50.1     75.1  402.4 
  16.200     66.8     75.1  399.2 
  16.300     16.7     74.9  392.3 
  16.400     44.5     74.7  384.8 
  16.500     16.7     73.9  379.2 
  16.600  -999.25     74.1  374.1 
  16.700    100.1     75.5  372.8 
  16.800     33.4     74.7  376.0 
  16.900     16.7     75.1  381.6 
  17.000    133.5     74.7  388.0 
  17.100      8.3     76.3  394.4 
  17.200     16.7     75.9  399.2 
  17.300     50.1     75.9  401.3 
  17.400     50.1     75.1  402.4 
  17.500     33.4     75.5  400.0 
  17.600  -999.25     75.5  398.4 
  17.700  -999.25     75.9  395.2 
  17.800  -999.25     75.1  393.6 
  17.900     16.7     75.9  392.8 
  18.000     83.4     75.3  389.6 
  18.100     16.7     74.7  388.0 
  18.200     33.4     75.1  386.4 
  18.300     16.7     74.7  386.4 
  18.400     50.1     74.3  386.4 
  18.500  -999.25     73.6  386.9 
  18.600     16.7     73.6  388.0 
  18.700  -999.25     73.2  389.6 
  18.800     33.4     73.2  390.4 
  18.900     16.7     73.6  392.8 
  19.000     16.7     73.9  395.2 
  19.100     50.1     73.6  397.6 
  19.200     16.7     73.6  399.2 
  19.300     50.1     73.6  401.6 
  19.400     16.7     72.4  403.2 
  19.500     33.4     72.8  402.4 
  19.600     66.8     73.2  401.6 
  19.700     22.3     73.6  400.0 
  19.800  -999.25     73.9  396.8 
  19.900  -999.25     73.6  392.8 
  20.000  -999.25     73.9  388.8 
  20.100     33.4     73.2  384.0 
  20.200     16.7     72.8  378.4 
  20.300  -999.25     72.0  372.0 
  20.400     33.4     71.6  366.4 
  20.500     16.7     72.8  362.4 
  20.600  -999.25     72.8  357.6 
  20.700  -999.25     72.8  352.0 
  20.800  -999.25     72.8  348.8 
  20.900  -999.25     72.8  347.2 
  21.000     16.7     72.8  346.4 
  21.100     16.7     72.4  346.4 
  21.200     16.7     72.8  349.6 
  21.300     16.7     71.6  352.8 
  21.400     50.1     71.6  360.0 
  21.500     50.1     70.8  366.4 
  21.600     16.7     72.0  372.0 
  21.700     16.7     71.0  375.7 
  21.800     33.4     71.2  377.6 
  21.900     16.7     70.4  374.4 
  22.000     33.4     69.7  368.0 
  22.100     16.7     68.9  360.8 
  22.200     33.4     68.1  352.0 
  22.300     33.4     68.1  345.6 
  22.400     22.3     69.3  341.6 
  22.500     33.4     70.4  342.4 
  22.600  -999.25     70.4  345.6 
  22.700     16.7     70.4  352.8 
  22.800  -999.25     70.4  360.8 
  22.900  -999.25     70.0  370.4 
  23.000     33.4     70.4  378.4 
  23.100  -999.25     71.2  388.0 
  23.200     33.4     71.2  392.8 
  23.300  -999.25     72.0  400.8 
  23.400  -999.25     72.4  408.8 
  23.500     33.4     72.8  414.4 
  23.600     16.7     72.0  419.2 
  23.700     16.7     72.8  422.4 
  23.800  -999.25     73.2  425.6 
  23.900     16.7     73.2  428.0 
  24.000  -999.25     73.2  429.6 
  24.100  -999.25     73.2  431.2 
  24.200  -999.25     73.6  432.8 
  24.300     33.4     73.2  432.8 
  24.400     16.7     72.0  432.8 
  24.500     33.4     72.0  432.8 
  24.600     16.7     72.0  432.8 
  24.700     50.1     71.6  431.2 
  24.800  -999.25     71.2  429.6 
  24.900  -999.25     70.4  426.4 
