~Version Information
 VERS.                2.0:  CWLS LOG ASCII STANDARD -VERSION 2.0
 WRAP.                 NO:  ONE LINE PER DEPTH STEP
~WELL INFORMATION BLOCK
#MNEM.UNIT       DATA		            DESCRIPTION OF MNEMONIC
#---------    -------------            ------------------------
 STRT.FT  6.050                          :START DEPTH
 STOP.FT  535.390                        :STOP DEPTH
 STEP.FT  0.020                          :STEP    UP_HOLE  
 NULL.    -999.25                        :NULL VALUE
 COMP.    CARLTON VL4282                 :COMPANY
 WELL.    278586                                                       :WELL
 FLD .    NORTHFIELD 71-B                :FIELD\LOCATION
 LOC .    31    112   19                 :LOCATION
 CNTY.    RICE                           :COUNTY
 STAT.                                   :STATE
 CTRY.    USA                            :COUNTRY
 SRVC.    TRUCK                          :SERVICE COMPANY
 DATE.    06/28/2018                     :LOG DATE
 API .                                       :API NUMBER
 LIC .                                   :LICENSE NUMBER
~Curve Information Block
#MNEM.UNIT      API CODE     Curve Description
#---------    -------------  ------------------------
 DEPT     .FT        00 001 00 00          :  1  DEPTH   
 GAMMA    .API-GR    00 310 00 00          :  2  GAMMA RAY           
 RES      .OHM       00 000 00 00          :  3  SINGLE POINT RES    
 SP       .MV        00 010 00 00          :  4  SPON POTENTIAL      
~Parameter Information Block
#MNEM.UNIT   Information     Description
#---------- ---------------  ------------------------
 FILE.      PROCESSED          :File Type
 FIID.      9060A              :File Type Identifier
 VERS.      3.60Q              :System Version
 SER .      1                  :System Serial Number
 TRUK.      0.0                :Truck Calibration Number
 TOOL.         202             :Tool Serial Number
 TIME.      1056               :Time    HrHrMinMin
 LAT .                         :Latitude
 LON .                         :Longitude
 LMF .      GL                 :Log Measured From
 DMF .                         :Driller Measured From
 PD  .                         :Permanent Data
 PDEV.FT                       :Elevation Permanent Data
 EKB .FT                       :Elevation Kelly Bushing
 ELEV.FT                       :Elevation DF
 EGL .FT     942 L1            :Elevation Ground Level
 DRDP.FT     53                :Driller's Depth
 CASD.FT    6                  :Casing Diameter
 CASB.FT                       :Casing Bottom
 CASX.                         :Casing Type
 CAST.IN    0                  :Casing Thickness
 TNOC.                         :Time Circulation Stopped
 LOGU.                         :Logging Unit
 RECB.      MAYER              :Recorded By
 OSR1.                         :Other Services
 OSR2.                         :Other Services
 OSR3.                         :Other Services
 BS  .IN           4           :Bit Size
 MST .F                        :Mean Surface Temperature
 TGRD.F     0                  :Temperature Gradiant
 MAGN.      0                  :Magnetic Declination
 MDEN.      2.84               :Density Matrix
 MATR.      DOLOMITE           :Neutron Matrix
 DTMT.      44                 :Delta T Matrix
 DTFL.                         :Delta T Fluid
 MUDS.      0                  :Mud Sample Source
 MRS .      0                  :Mud Resistivity
 MTP .      0                  :Mud Temperature
 MFRS.                         :Resistivity Mud Filtrate
 MFTP.                         :Temperature Mud Filtrate
 MCRS.      0                  :Resistivity Mud Cake
 MCTP.                         :Temperature Mud Cake
 FTYP.      0                  :Fluid Type
 FD  .LB/G     0               :Mud Weight
 DFV .S                        :Fluid Viscosity
 FPH .                         :Fuild PH
 ELCO.      2500               :Electron Cutoff
 CASL.IN    6                  :Casing Logger
 LOTD.FT                       :Logger TD
 ARTM.                         :Arrival Time
 DPTM.                         :Departure Time
 RIGN.                         :Rig Number
~Other Information
#MNEM.UNIT  Information      Description
#---------- ---------------  ------------------------
# -------------------------- 
~A DEPTH  GAMMA    RES      SP    
# ...
 496.090    132.7    100.0  533.3 
 496.110    132.7    101.3  533.3 
 496.130    132.7    101.3  533.3 
 496.150    132.7    100.0  533.3 
 496.170    132.7    100.0  533.3 
 496.190    132.7    100.0  533.3 
 496.210    132.7    100.0  535.1 
 496.230      1.0    100.0  535.1 
 496.250      1.0    100.0  535.1 
 496.270      1.0    100.0  536.9 
 496.290     99.7    100.0  536.9 
 496.310     99.7    100.0  536.9 
 496.330     33.9    100.0  536.9 
 496.350     33.9    100.0  536.9 
 496.370     33.9     99.3  536.9 
 496.390     66.8     99.3  536.9 
 496.410     66.8     97.9  538.6 
 496.430     66.8     97.9  538.6 
 496.450     33.9     97.9  538.6 
 496.470     33.9     97.9  540.4 
 496.490     66.8     97.9  540.4 
 496.510     66.8     97.9  540.4 
 496.530     66.8     95.8  542.2 
 496.550     66.8     95.8  542.2 
 496.570     66.8     95.1  542.2 
 496.590     66.8     95.1  542.2 
 496.610     66.8     95.1  542.2 
 496.630     66.8     93.7  544.0 
 496.650     66.8     93.7  544.0 
 496.670     66.8     93.0  544.0 
 496.690     66.8     93.0  544.0 
 496.710     99.7     93.0  544.0 
 496.730     99.7     91.6  545.7 
 496.750     99.7     91.6  545.7 
 496.770     99.7     90.1  544.0 
 496.790     99.7     90.1  544.0 
 496.810     33.9     90.1  544.0 
 496.830     33.9     89.4  545.7 
 496.850     66.8     89.4  545.7 
 496.870     66.8     89.4  545.7 
 496.890     66.8     88.0  544.0 
 496.910     66.8     88.0  544.0 
 496.930     66.8     88.0  544.0 
 496.950     99.7     88.0  544.0 
 496.970     99.7     88.0  544.0 
 496.990     99.7     87.3  542.2 
 497.010    231.4     87.3  542.2 
 497.030    231.4     86.6  542.2 
 497.050    231.4     86.6  542.2 
 497.070    231.4     86.6  542.2 
 497.090    231.4     87.3  540.4 
 497.110     33.9     87.3  540.4 
 497.130     33.9     86.6  540.4 
 497.150     33.9     86.6  540.4 
 497.170     66.8     86.6  540.4 
 497.190     66.8     87.3  538.6 
 497.210    198.5     87.3  538.6 
 497.230    198.5     88.0  538.6 
 497.250    198.5     88.0  538.6 
 497.270    198.5     88.0  538.6 
 497.290    198.5     88.0  538.6 
 497.310     99.7     88.0  538.6 
 497.330     99.7     88.0  538.6 
 497.350     99.7     89.4  538.6 
 497.370    264.3     89.4  538.6 
 497.390    264.3     90.1  536.9 
 497.410    264.3     90.1  536.9 
 497.430     66.8     90.1  536.9 
 497.450     66.8     91.6  538.6 
 497.470     66.8     91.6  538.6 
 497.490     66.8     91.6  536.9 
 497.510     66.8     91.6  536.9 
 497.530     33.9     91.6  536.9 
 497.550     33.9     92.3  536.9 
 497.570    165.6     92.3  536.9 
 497.590    165.6     92.3  536.9 
 497.610    165.6     93.0  538.6 
 497.630    198.5     93.0  538.6 
 497.650    198.5     94.4  536.9 
 497.670    132.7     94.4  536.9 
 497.690    132.7     94.4  536.9 
 497.710    132.7     94.4  536.9 
 497.730    165.6     94.4  536.9 
 497.750    165.6     93.7  536.9 
 497.770    165.6     93.7  536.9 
 497.790    132.7     93.7  536.9 
 497.810    132.7     93.7  536.9 
 497.830    198.5     93.7  536.9 
 497.850    198.5     94.4  535.1 
 497.870    198.5     94.4  535.1 
 497.890    165.6     94.4  535.1 
 497.910    165.6     94.4  535.1 
 497.930     33.9     94.4  535.1 
 497.950     33.9     94.4  535.1 
 497.970     33.9     95.1  535.1 
 497.990    198.5     95.1  535.1 
 498.010    198.5     95.8  535.1 
 498.030    198.5     95.8  535.1 
 498.050     99.7     95.8  535.1 
 498.070     99.7     96.5  536.9 
 498.090     99.7     96.5  536.9 
 498.110     99.7     97.2  535.1 
 498.130     99.7     97.2  535.1 
 498.150    165.6     97.2  535.1 
 498.170    165.6     97.2  536.9 
 498.190     66.8     97.2  536.9 
 498.210     66.8     96.5  538.6 
 498.230     66.8     96.5  538.6 
 498.250     66.8     96.5  538.6 
 498.270     66.8     95.8  536.9 
 498.290    165.6     95.8  536.9 
 498.310    165.6     95.8  536.9 
 498.330    165.6     95.8  538.6 
 498.350    132.7     95.8  538.6 
 498.370    132.7     95.8  536.9 
 498.390    132.7     95.8  536.9 
 498.410      1.0     95.8  536.9 
 498.430      1.0     95.1  540.4 
 498.450    132.7     95.1  540.4 
 498.470    132.7     93.7  538.6 
 498.490    132.7     93.7  538.6 
 498.510     99.7     93.7  538.6 
 498.530     99.7     93.7  538.6 
 498.550    132.7     93.7  538.6 
 498.570    132.7     93.0  536.9 
 498.590    132.7     93.0  536.9 
 498.610    132.7     93.0  536.9 
 498.630    132.7     93.7  538.6 
 498.650     99.7     93.7  538.6 
 498.670     99.7     93.7  538.6 
 498.690     99.7     93.7  538.6 
 498.710     99.7     93.7  538.6 
 498.730     99.7     93.7  536.9 
 498.750    198.5     93.7  536.9 
 498.770    198.5     93.7  536.9 
 498.790    198.5     93.7  536.9 
 498.810     66.8     93.7  536.9 
 498.830     66.8     94.4  536.9 
 498.850     66.8     94.4  536.9 
 498.870     99.7     94.4  536.9 
 498.890     99.7     94.4  536.9 
 498.910    198.5     94.4  536.9 
 498.930    198.5     94.4  536.9 
 498.950    198.5     95.1  536.9 
 498.970    132.7     95.1  536.9 
 498.990    132.7     95.8  535.1 
 499.010     33.9     95.8  535.1 
 499.030     33.9     95.8  535.1 
 499.050     33.9     95.1  535.1 
 499.070     66.8     95.1  535.1 
 499.090     66.8     96.5  533.3 
 499.110     66.8     96.5  533.3 
 499.130     66.8     96.5  533.3 
 499.150     66.8     96.5  535.1 
 499.170     66.8     96.5  535.1 
 499.190     66.8     96.5  533.3 
 499.210     66.8     96.5  533.3 
 499.230     99.7     96.5  533.3 
 499.250     99.7     97.9  533.3 
 499.270    198.5     97.9  533.3 
 499.290    198.5     97.9  533.3 
 499.310    198.5     98.6  533.3 
 499.330     99.7     98.6  533.3 
 499.350     99.7     98.6  533.3 
 499.370    198.5     98.6  533.3 
 499.390    198.5     98.6  533.3 
 499.410    198.5     98.6  533.3 
 499.430    132.7     98.6  533.3 
 499.450    132.7     99.3  533.3 
 499.470    132.7     99.3  533.3 
 499.490    165.6     99.3  533.3 
 499.510    165.6     99.3  533.3 
 499.530    132.7     99.3  533.3 
 499.550    132.7     99.3  533.3 
 499.570    132.7     99.3  533.3 
 499.590     99.7     99.3  533.3 
 499.610     99.7     98.6  533.3 
 499.630    132.7     98.6  533.3 
 499.650    132.7     99.3  533.3 
 499.670    132.7     99.3  533.3 
 499.690    165.6     99.3  533.3 
 499.710    165.6     99.3  533.3 
 499.730    132.7     99.3  533.3 
 499.750    132.7     99.3  533.3 
 499.770    132.7    100.0  533.3 
 499.790      1.0    100.0  533.3 
 499.810      1.0    100.0  531.6 
 499.830     66.8    100.0  531.6 
 499.850     66.8    100.0  531.6 
 499.870     66.8    101.3  533.3 
 499.890     66.8    101.3  533.3 
 499.910     66.8    101.3  533.3 
 499.930     66.8    101.3  533.3 
 499.950     33.9    101.3  533.3 
 499.970     33.9    101.3  533.3 
 499.990    231.4    101.3  533.3 
 500.010    231.4    101.3  533.3 
 500.030    231.4    101.3  535.1 
 500.050     99.7    101.3  535.1 
 500.070     99.7    100.0  533.3 
 500.090    198.5    100.0  533.3 
 500.110    198.5    100.0  533.3 
 500.130    198.5    100.0  535.1 
 500.150    132.7    100.0  535.1 
 500.170    132.7     98.6  535.1 
 500.190    132.7     98.6  535.1 
 500.210     66.8     98.6  535.1 
 500.230     66.8     98.6  535.1 
 500.250    198.5     98.6  535.1 
 500.270    198.5     97.9  536.9 
 500.290    198.5     97.9  536.9 
 500.310    132.7     97.9  536.9 
 500.330    132.7     97.9  536.9 
 500.350     33.9     97.9  536.9 
 500.370     33.9     97.9  536.9 
 500.390     33.9     97.2  538.6 
 500.410    165.6     97.2  538.6 
 500.430    165.6     96.5  538.6 
 500.450    165.6     96.5  538.6 
 500.470     66.8     96.5  538.6 
 500.490     66.8     95.8  540.4 
 500.510    132.7     95.8  540.4 
 500.530    132.7     95.8  540.4 
 500.550    132.7     95.8  540.4 
 500.570     33.9     95.8  540.4 
 500.590     33.9     94.4  540.4 
 500.610     99.7     94.4  540.4 
 500.630     99.7     94.4  540.4 
 500.650     99.7     94.4  540.4 
