~Version Information
 VERS.                2.0:  CWLS LOG ASCII STANDARD -VERSION 2.0
 WRAP.                 NO:  ONE LINE PER DEPTH STEP
~WELL INFORMATION BLOCK
#MNEM.UNIT       DATA		            DESCRIPTION OF MNEMONIC
#---------    -------------            ------------------------
 STRT.FT  6.050                          :START DEPTH
 STOP.FT  535.390                        :STOP DEPTH
 STEP.FT  0.020                          :STEP    UP_HOLE  
 NULL.    -999.25                        :NULL VALUE
 COMP.    CARLTON VL4282                 :COMPANY
 WELL.    278586                                                       :WELL
 FLD .    NORTHFIELD 71-B                :FIELD\LOCATION
 LOC .    31    112   19                 :LOCATION
 CNTY.    RICE                           :COUNTY
 STAT.                                   :STATE
 CTRY.    USA                            :COUNTRY
 SRVC.    TRUCK                          :SERVICE COMPANY
 DATE.    06/28/2018                     :LOG DATE
 API .                                       :API NUMBER
 LIC .                                   :LICENSE NUMBER
~Curve Information Block
#MNEM.UNIT      API CODE     Curve Description
#---------    -------------  ------------------------
 DEPT     .FT        00 001 00 00          :  1  DEPTH   
 GAMMA    .API-GR    00 310 00 00          :  2  GAMMA RAY           
 RES      .OHM       00 000 00 00          :  3  SINGLE POINT RES    
 SP       .MV        00 010 00 00          :  4  SPON POTENTIAL      
~Parameter Information Block
#MNEM.UNIT   Information     Description
#---------- ---------------  ------------------------
 FILE.      PROCESSED          :File Type
 FIID.      9060A              :File Type Identifier
 VERS.      3.60Q              :System Version
 SER .      1                  :System Serial Number
 TRUK.      0.0                :Truck Calibration Number
 TOOL.         202             :Tool Serial Number
 TIME.      1056               :Time    HrHrMinMin
 LAT .                         :Latitude
 LON .                         :Longitude
 LMF .      GL                 :Log Measured From
 DMF .                         :Driller Measured From
 PD  .                         :Permanent Data
 PDEV.FT                       :Elevation Permanent Data
 EKB .FT                       :Elevation Kelly Bushing
 ELEV.FT                       :Elevation DF
 EGL .FT     942 L1            :Elevation Ground Level
 DRDP.FT     53                :Driller's Depth
 CASD.FT    6                  :Casing Diameter
 CASB.FT                       :Casing Bottom
 CASX.                         :Casing Type
 CAST.IN    0                  :Casing Thickness
 TNOC.                         :Time Circulation Stopped
 LOGU.                         :Logging Unit
 RECB.      MAYER              :Recorded By
 OSR1.                         :Other Services
 OSR2.                         :Other Services
 OSR3.                         :Other Services
 BS  .IN           4           :Bit Size
 MST .F                        :Mean Surface Temperature
 TGRD.F     0                  :Temperature Gradiant
 MAGN.      0                  :Magnetic Declination
 MDEN.      2.84               :Density Matrix
 MATR.      DOLOMITE           :Neutron Matrix
 DTMT.      44                 :Delta T Matrix
 DTFL.                         :Delta T Fluid
 MUDS.      0                  :Mud Sample Source
 MRS .      0                  :Mud Resistivity
 MTP .      0                  :Mud Temperature
 MFRS.                         :Resistivity Mud Filtrate
 MFTP.                         :Temperature Mud Filtrate
 MCRS.      0                  :Resistivity Mud Cake
 MCTP.                         :Temperature Mud Cake
 FTYP.      0                  :Fluid Type
 FD  .LB/G     0               :Mud Weight
 DFV .S                        :Fluid Viscosity
 FPH .                         :Fuild PH
 ELCO.      2500               :Electron Cutoff
 CASL.IN    6                  :Casing Logger
 LOTD.FT                       :Logger TD
 ARTM.                         :Arrival Time
 DPTM.                         :Departure Time
 RIGN.                         :Rig Number
~Other Information
#MNEM.UNIT  Information      Description
#---------- ---------------  ------------------------
# -------------------------- 
~A DEPTH  GAMMA    RES      SP    
# ...
 464.030    297.2     85.9  536.9 
 464.050    297.2     86.6  538.6 
 464.070     33.9     86.6  538.6 
 464.090     33.9     87.3  536.9 
 464.110     33.9     87.3  536.9 
 464.130      1.0     87.3  536.9 
 464.150      1.0     88.0  535.1 
 464.170     66.8     88.0  535.1 
 464.190     66.8     87.3  533.3 
 464.210     66.8     87.3  533.3 
 464.230     66.8     87.3  533.3 
 464.250     66.8     88.0  533.3 
 464.270     99.7     88.0  533.3 
 464.290     99.7     89.4  533.3 
 464.310     99.7     89.4  533.3 
 464.330     99.7     89.4  533.3 
 464.350     99.7     90.1  533.3 
 464.370     99.7     90.1  533.3 
 464.390     99.7     90.1  533.3 
 464.410     99.7     90.8  531.6 
 464.430    132.7     90.8  531.6 
 464.450    132.7     92.3  531.6 
 464.470     66.8     92.3  531.6 
 464.490     66.8     92.3  531.6 
 464.510     66.8     92.3  531.6 
 464.530     99.7     92.3  531.6 
 464.550     99.7     93.7  531.6 
 464.570     99.7     93.7  531.6 
 464.590     33.9     93.7  531.6 
 464.610     33.9     93.7  531.6 
 464.630    198.5     93.7  531.6 
 464.650    198.5     93.7  531.6 
 464.670    198.5     94.4  531.6 
 464.690      1.0     94.4  531.6 
 464.710      1.0     94.4  531.6 
 464.730    165.6     94.4  531.6 
 464.750    165.6     94.4  531.6 
 464.770    165.6     95.1  531.6 
 464.790    132.7     95.1  531.6 
 464.810    132.7     94.4  531.6 
 464.830    132.7     94.4  531.6 
 464.850     99.7     94.4  531.6 
 464.870     99.7     95.8  531.6 
 464.890    132.7     95.8  531.6 
 464.910    132.7     95.1  531.6 
 464.930    132.7     95.1  531.6 
 464.950     66.8     95.1  531.6 
 464.970     66.8     96.5  533.3 
 464.990    132.7     96.5  533.3 
 465.010    132.7     96.5  533.3 
 465.030    132.7     96.5  531.6 
 465.050      1.0     96.5  531.6 
 465.070      1.0     96.5  529.8 
 465.090      1.0     96.5  529.8 
 465.110      1.0     96.5  529.8 
 465.130      1.0     96.5  529.8 
 465.150    132.7     96.5  529.8 
 465.170    132.7     97.9  529.8 
 465.190     99.7     97.9  529.8 
 465.210     99.7     97.9  529.8 
 465.230     99.7     97.2  529.8 
 465.250     99.7     97.2  529.8 
 465.270     99.7     97.9  529.8 
 465.290     99.7     97.9  529.8 
 465.310    132.7     97.9  529.8 
 465.330    132.7     97.9  528.0 
 465.350     66.8     97.9  528.0 
 465.370     66.8     97.9  529.8 
 465.390     66.8     97.9  529.8 
 465.410     66.8     97.9  529.8 
 465.430     66.8     97.9  528.0 
 465.450     33.9     97.9  528.0 
 465.470     33.9     97.9  528.0 
 465.490     33.9     97.9  529.8 
 465.510    132.7     97.9  529.8 
 465.530    132.7     97.9  529.8 
 465.550     66.8     97.9  529.8 
 465.570     66.8     97.9  529.8 
 465.590     66.8     98.6  529.8 
 465.610     66.8     98.6  529.8 
 465.630     66.8     98.6  529.8 
 465.650     99.7     98.6  529.8 
 465.670     99.7     98.6  529.8 
 465.690     99.7     98.6  531.6 
 465.710     33.9     98.6  531.6 
 465.730     33.9     98.6  531.6 
 465.750     33.9     97.9  531.6 
 465.770     66.8     97.9  531.6 
 465.790     66.8     98.6  533.3 
 465.810     33.9     98.6  533.3 
 465.830     33.9     98.6  533.3 
 465.850     33.9     97.9  531.6 
 465.870    198.5     97.9  531.6 
 465.890    198.5     97.2  535.1 
 465.910     66.8     97.2  535.1 
 465.930     66.8     97.2  535.1 
 465.950     66.8     97.9  535.1 
 465.970     33.9     97.9  535.1 
 465.990     33.9     96.5  536.9 
 466.010     99.7     96.5  536.9 
 466.030     99.7     96.5  536.9 
 466.050     99.7     96.5  536.9 
 466.070    132.7     96.5  536.9 
 466.090    132.7     96.5  536.9 
 466.110    132.7     96.5  536.9 
 466.130     66.8     96.5  536.9 
 466.150     66.8     95.8  538.6 
 466.170     99.7     95.8  538.6 
 466.190     99.7     95.8  538.6 
 466.210     99.7     94.4  536.9 
 466.230      1.0     94.4  536.9 
 466.250      1.0     95.1  540.4 
 466.270     33.9     95.1  540.4 
 466.290     33.9     95.1  540.4 
 466.310     33.9     94.4  538.6 
 466.330    132.7     94.4  538.6 
 466.350    132.7     95.1  540.4 
 466.370    132.7     95.1  540.4 
 466.390     99.7     95.1  540.4 
 466.410     99.7     94.4  540.4 
 466.430     33.9     94.4  540.4 
 466.450     33.9     93.7  540.4 
 466.470     33.9     93.7  540.4 
 466.490      1.0     93.7  540.4 
 466.510      1.0     93.0  540.4 
 466.530    132.7     93.0  540.4 
 466.550    132.7     93.0  538.6 
 466.570    132.7     93.0  538.6 
 466.590     99.7     93.0  538.6 
 466.610     99.7     92.3  540.4 
 466.630     33.9     92.3  540.4 
 466.650     33.9     92.3  540.4 
 466.670     33.9     92.3  538.6 
 466.690     99.7     92.3  538.6 
 466.710     99.7     91.6  538.6 
 466.730     33.9     91.6  538.6 
 466.750     33.9     91.6  538.6 
 466.770     33.9     90.8  538.6 
 466.790     99.7     90.8  538.6 
 466.810     99.7     90.8  538.6 
 466.830     99.7     90.8  538.6 
 466.850     33.9     90.8  538.6 
 466.870     33.9     90.1  540.4 
 466.890     66.8     90.1  540.4 
 466.910     66.8     89.4  542.2 
 466.930     66.8     89.4  542.2 
 466.950     66.8     89.4  542.2 
 466.970     66.8     90.1  540.4 
 466.990     66.8     90.1  540.4 
 467.010     66.8     90.1  540.4 
 467.030     66.8     89.4  542.2 
 467.050     33.9     89.4  542.2 
 467.070     33.9     89.4  544.0 
 467.090     66.8     89.4  544.0 
 467.110     66.8     89.4  544.0 
 467.130     66.8     90.1  544.0 
 467.150     99.7     90.1  544.0 
 467.170     99.7     88.7  544.0 
 467.190     99.7     88.7  544.0 
 467.210     99.7     88.7  544.0 
 467.230     99.7     87.3  544.0 
 467.250     99.7     87.3  544.0 
 467.270     99.7     87.3  544.0 
 467.290     99.7     88.0  545.7 
 467.310    132.7     88.0  545.7 
 467.330    132.7     88.0  545.7 
 467.350    132.7     88.0  545.7 
 467.370    132.7     88.0  545.7 
 467.390    132.7     87.3  545.7 
 467.410     33.9     87.3  545.7 
 467.430     33.9     87.3  549.3 
 467.450     33.9     87.3  549.3 
 467.470    132.7     87.3  549.3 
 467.490    132.7     86.6  547.5 
 467.510     99.7     86.6  547.5 
 467.530     99.7     85.9  549.3 
 467.550     99.7     85.9  549.3 
 467.570     66.8     85.9  549.3 
 467.590     66.8     85.2  549.3 
 467.610    132.7     85.2  549.3 
 467.630    132.7     84.5  551.0 
 467.650    132.7     84.5  551.0 
 467.670    132.7     84.5  551.0 
 467.690    132.7     83.8  549.3 
 467.710      1.0     83.8  549.3 
 467.730      1.0     83.8  549.3 
 467.750      1.0     83.1  551.0 
 467.770     66.8     83.1  551.0 
 467.790     66.8     81.7  551.0 
 467.810      1.0     81.7  551.0 
 467.830      1.0     81.7  551.0 
 467.850      1.0     80.3  549.3 
 467.870    165.6     80.3  549.3 
 467.890    165.6     80.3  549.3 
 467.910    132.7     80.3  549.3 
 467.930    132.7     80.3  549.3 
 467.950    132.7     81.0  549.3 
 467.970     33.9     81.0  549.3 
 467.990     33.9     81.0  547.5 
 468.010     33.9     81.0  547.5 
 468.030     99.7     81.0  547.5 
 468.050     99.7     81.7  545.7 
 468.070    198.5     81.7  545.7 
 468.090    198.5     81.7  545.7 
 468.110    198.5     82.4  544.0 
 468.130    264.3     82.4  544.0 
 468.150    264.3     83.1  544.0 
 468.170    198.5     83.1  544.0 
 468.190    198.5     83.1  544.0 
 468.210    198.5     85.2  542.2 
 468.230     33.9     85.2  542.2 
 468.250     33.9     85.9  538.6 
 468.270     33.9     85.9  538.6 
 468.290    132.7     85.9  538.6 
 468.310    132.7     88.0  540.4 
 468.330     99.7     88.0  540.4 
 468.350     99.7     88.0  540.4 
 468.370     99.7     88.7  536.9 
 468.390     99.7     88.7  536.9 
 468.410     99.7     90.8  536.9 
 468.430     99.7     90.8  536.9 
 468.450     99.7     90.8  536.9 
 468.470     99.7     93.0  535.1 
 468.490     66.8     93.0  535.1 
 468.510     66.8     95.1  535.1 
 468.530     66.8     95.1  535.1 
 468.550     66.8     95.1  535.1 
 468.570     66.8     97.2  535.1 
 468.590      1.0     97.2  535.1 
