~Version Information
 VERS.                2.0:  CWLS LOG ASCII STANDARD -VERSION 2.0
 WRAP.                 NO:  ONE LINE PER DEPTH STEP
~WELL INFORMATION BLOCK
#MNEM.UNIT       DATA		            DESCRIPTION OF MNEMONIC
#---------    -------------            ------------------------
 STRT.FT  6.050                          :START DEPTH
 STOP.FT  535.390                        :STOP DEPTH
 STEP.FT  0.020                          :STEP    UP_HOLE  
 NULL.    -999.25                        :NULL VALUE
 COMP.    CARLTON VL4282                 :COMPANY
 WELL.    278586                                                       :WELL
 FLD .    NORTHFIELD 71-B                :FIELD\LOCATION
 LOC .    31    112   19                 :LOCATION
 CNTY.    RICE                           :COUNTY
 STAT.                                   :STATE
 CTRY.    USA                            :COUNTRY
 SRVC.    TRUCK                          :SERVICE COMPANY
 DATE.    06/28/2018                     :LOG DATE
 API .                                       :API NUMBER
 LIC .                                   :LICENSE NUMBER
~Curve Information Block
#MNEM.UNIT      API CODE     Curve Description
#---------    -------------  ------------------------
 DEPT     .FT        00 001 00 00          :  1  DEPTH   
 GAMMA    .API-GR    00 310 00 00          :  2  GAMMA RAY           
 RES      .OHM       00 000 00 00          :  3  SINGLE POINT RES    
 SP       .MV        00 010 00 00          :  4  SPON POTENTIAL      
~Parameter Information Block
#MNEM.UNIT   Information     Description
#---------- ---------------  ------------------------
 FILE.      PROCESSED          :File Type
 FIID.      9060A              :File Type Identifier
 VERS.      3.60Q              :System Version
 SER .      1                  :System Serial Number
 TRUK.      0.0                :Truck Calibration Number
 TOOL.         202             :Tool Serial Number
 TIME.      1056               :Time    HrHrMinMin
 LAT .                         :Latitude
 LON .                         :Longitude
 LMF .      GL                 :Log Measured From
 DMF .                         :Driller Measured From
 PD  .                         :Permanent Data
 PDEV.FT                       :Elevation Permanent Data
 EKB .FT                       :Elevation Kelly Bushing
 ELEV.FT                       :Elevation DF
 EGL .FT     942 L1            :Elevation Ground Level
 DRDP.FT     53                :Driller's Depth
 CASD.FT    6                  :Casing Diameter
 CASB.FT                       :Casing Bottom
 CASX.                         :Casing Type
 CAST.IN    0                  :Casing Thickness
 TNOC.                         :Time Circulation Stopped
 LOGU.                         :Logging Unit
 RECB.      MAYER              :Recorded By
 OSR1.                         :Other Services
 OSR2.                         :Other Services
 OSR3.                         :Other Services
 BS  .IN           4           :Bit Size
 MST .F                        :Mean Surface Temperature
 TGRD.F     0                  :Temperature Gradiant
 MAGN.      0                  :Magnetic Declination
 MDEN.      2.84               :Density Matrix
 MATR.      DOLOMITE           :Neutron Matrix
 DTMT.      44                 :Delta T Matrix
 DTFL.                         :Delta T Fluid
 MUDS.      0                  :Mud Sample Source
 MRS .      0                  :Mud Resistivity
 MTP .      0                  :Mud Temperature
 MFRS.                         :Resistivity Mud Filtrate
 MFTP.                         :Temperature Mud Filtrate
 MCRS.      0                  :Resistivity Mud Cake
 MCTP.                         :Temperature Mud Cake
 FTYP.      0                  :Fluid Type
 FD  .LB/G     0               :Mud Weight
 DFV .S                        :Fluid Viscosity
 FPH .                         :Fuild PH
 ELCO.      2500               :Electron Cutoff
 CASL.IN    6                  :Casing Logger
 LOTD.FT                       :Logger TD
 ARTM.                         :Arrival Time
 DPTM.                         :Departure Time
 RIGN.                         :Rig Number
~Other Information
#MNEM.UNIT  Information      Description
#---------- ---------------  ------------------------
# -------------------------- 
~A DEPTH  GAMMA    RES      SP    
# ...
 358.690    132.7    114.1  533.3 
 358.710     33.9    112.8  531.6 
 358.730     33.9    112.8  531.6 
 358.750     33.9    112.8  531.6 
 358.770     66.8    112.8  531.6 
 358.790     66.8    112.8  531.6 
 358.810     99.7    111.6  531.6 
 358.830     99.7    111.6  531.6 
 358.850     99.7    112.8  529.8 
 358.870    132.7    112.8  529.8 
 358.890    132.7    112.8  529.8 
 358.910     66.8    112.8  529.8 
 358.930     66.8    112.8  529.8 
 358.950     66.8    115.4  528.0 
 358.970     66.8    115.4  528.0 
 358.990     66.8    115.4  528.0 
 359.010    165.6    116.7  529.8 
 359.030    165.6    116.7  529.8 
 359.050    165.6    119.3  526.3 
 359.070     66.8    119.3  526.3 
 359.090     66.8    119.3  526.3 
 359.110     66.8    119.3  528.0 
 359.130     66.8    119.3  528.0 
 359.150     66.8    119.3  528.0 
 359.170     99.7    120.5  526.3 
 359.190     99.7    120.5  526.3 
 359.210     99.7    123.1  526.3 
 359.230     99.7    123.1  526.3 
 359.250     99.7    123.1  526.3 
 359.270     99.7    123.1  526.3 
 359.290     99.7    123.1  526.3 
 359.310     33.9    124.4  526.3 
 359.330     33.9    124.4  526.3 
 359.350     33.9    124.4  526.3 
 359.370      1.0    125.7  526.3 
 359.390      1.0    125.7  526.3 
 359.410      1.0    125.7  524.5 
 359.430     33.9    125.7  524.5 
 359.450     33.9    125.7  524.5 
 359.470     99.7    128.2  522.7 
 359.490     99.7    128.2  522.7 
 359.510     99.7    128.2  522.7 
 359.530     33.9    128.2  522.7 
 359.550     33.9    128.2  522.7 
 359.570     66.8    129.5  520.9 
 359.590     66.8    129.5  520.9 
 359.610     66.8    130.8  519.2 
 359.630     33.9    130.8  519.2 
 359.650     33.9    130.8  519.2 
 359.670    132.7    130.8  519.2 
 359.690    132.7    130.8  519.2 
 359.710    132.7    130.8  517.4 
 359.730    198.5    130.8  517.4 
 359.750    198.5    130.8  517.4 
 359.770     99.7    130.8  517.4 
 359.790     99.7    130.8  517.4 
 359.810     99.7    132.1  517.4 
 359.830    165.6    132.1  517.4 
 359.850    165.6    132.1  517.4 
 359.870     33.9    133.4  515.6 
 359.890     33.9    133.4  515.6 
 359.910     33.9    133.4  515.6 
 359.930     33.9    133.4  515.6 
 359.950     33.9    133.4  515.6 
 359.970    132.7    137.2  517.4 
 359.990    132.7    137.2  517.4 
 360.010    132.7    137.2  515.6 
 360.030    132.7    137.2  515.6 
 360.050    132.7    137.2  515.6 
 360.070    132.7    138.5  513.9 
 360.090     99.7    138.5  513.9 
 360.110     99.7    138.5  510.3 
 360.130      1.0    138.5  510.3 
 360.150      1.0    138.5  510.3 
 360.170      1.0    141.1  510.3 
 360.190    132.7    141.1  510.3 
 360.210    132.7    142.4  508.5 
 360.230     33.9    142.4  508.5 
 360.250     33.9    142.4  508.5 
 360.270     33.9    143.6  510.3 
 360.290     33.9    143.6  510.3 
 360.310     33.9    143.6  510.3 
 360.330      1.0    146.2  508.5 
 360.350      1.0    146.2  508.5 
 360.370      1.0    147.5  508.5 
 360.390     99.7    147.5  508.5 
 360.410     99.7    147.5  508.5 
 360.430      1.0    148.8  506.8 
 360.450      1.0    148.8  506.8 
 360.470      1.0    151.3  505.0 
 360.490     33.9    151.3  505.0 
 360.510     33.9    151.3  505.0 
 360.530     66.8    151.3  503.2 
 360.550     66.8    151.3  503.2 
 360.570     66.8    152.6  503.2 
 360.590      1.0    152.6  503.2 
 360.610      1.0    152.6  503.2 
 360.630     33.9    153.9  505.0 
 360.650     33.9    153.9  505.0 
 360.670     33.9    156.5  503.2 
 360.690     33.9    156.5  503.2 
 360.710     33.9    156.5  503.2 
 360.730     33.9    156.5  505.0 
 360.750     33.9    156.5  505.0 
 360.770     33.9    156.5  501.5 
 360.790     33.9    156.5  501.5 
 360.810     33.9    156.5  501.5 
 360.830     66.8    156.5  503.2 
 360.850     66.8    156.5  503.2 
 360.870     66.8    156.5  503.2 
 360.890     33.9    156.5  503.2 
 360.910     33.9    156.5  503.2 
 360.930     33.9    157.8  501.5 
 360.950     66.8    157.8  501.5 
 360.970     66.8    157.8  501.5 
 360.990     33.9    156.5  501.5 
 361.010     33.9    156.5  501.5 
 361.030     33.9    156.5  501.5 
 361.050    132.7    156.5  501.5 
 361.070    132.7    156.5  501.5 
 361.090     33.9    156.5  499.7 
 361.110     33.9    156.5  499.7 
 361.130     33.9    155.2  503.2 
 361.150     33.9    155.2  503.2 
 361.170     33.9    155.2  503.2 
 361.190     66.8    155.2  501.5 
 361.210     66.8    155.2  501.5 
 361.230     66.8    153.9  503.2 
 361.250      1.0    153.9  503.2 
 361.270      1.0    153.9  503.2 
 361.290     33.9    153.9  506.8 
 361.310     33.9    153.9  506.8 
 361.330     33.9    151.3  508.5 
 361.350     33.9    151.3  508.5 
 361.370     33.9    151.3  508.5 
 361.390    132.7    150.1  512.1 
 361.410    132.7    150.1  512.1 
 361.430    132.7    147.5  517.4 
 361.450      1.0    147.5  517.4 
 361.470      1.0    147.5  517.4 
 361.490      1.0    146.2  519.2 
 361.510      1.0    146.2  519.2 
 361.530      1.0    142.4  520.9 
 361.550     33.9    142.4  520.9 
 361.570     33.9    142.4  520.9 
 361.590     66.8    139.8  520.9 
 361.610     66.8    139.8  520.9 
 361.630     66.8    134.7  524.5 
 361.650     33.9    134.7  524.5 
 361.670     33.9    134.7  524.5 
 361.690     33.9    132.1  524.5 
 361.710     33.9    132.1  524.5 
 361.730     33.9    127.0  524.5 
 361.750      1.0    127.0  524.5 
 361.770      1.0    127.0  524.5 
 361.790     33.9    123.1  526.3 
 361.810     33.9    123.1  526.3 
 361.830     33.9    123.1  526.3 
 361.850      1.0    119.3  526.3 
 361.870      1.0    119.3  526.3 
 361.890      1.0    116.7  526.3 
 361.910      1.0    116.7  526.3 
 361.930      1.0    116.7  526.3 
 361.950     99.7    112.8  526.3 
 361.970     99.7    112.8  526.3 
 361.990     66.8    110.3  526.3 
 362.010     66.8    110.3  526.3 
 362.030     66.8    110.3  526.3 
 362.050      1.0    106.4  528.0 
 362.070      1.0    106.4  528.0 
 362.090      1.0    103.9  529.8 
 362.110     33.9    103.9  529.8 
 362.130     33.9    103.9  529.8 
 362.150     66.8    102.6  531.6 
 362.170     66.8    102.6  531.6 
 362.190     66.8     99.3  533.3 
 362.210    132.7     99.3  533.3 
 362.230    132.7     99.3  533.3 
 362.250     33.9     98.6  536.9 
 362.270     33.9     98.6  536.9 
 362.290     33.9     97.9  538.6 
 362.310     66.8     97.9  538.6 
 362.330     66.8     97.9  538.6 
 362.350     66.8     97.2  538.6 
 362.370     66.8     97.2  538.6 
 362.390     66.8     96.5  540.4 
 362.410     66.8     96.5  540.4 
 362.430     66.8     96.5  540.4 
 362.450    231.4     95.8  536.9 
 362.470    231.4     95.8  536.9 
 362.490    231.4     95.1  538.6 
 362.510    198.5     95.1  538.6 
 362.530    198.5     95.1  538.6 
 362.550      1.0     93.7  535.1 
 362.570      1.0     93.7  535.1 
 362.590      1.0     94.4  536.9 
 362.610    165.6     94.4  536.9 
 362.630    165.6     94.4  536.9 
 362.650    165.6     93.7  536.9 
 362.670      1.0     93.7  536.9 
 362.690      1.0     93.7  536.9 
 362.710     66.8     93.7  536.9 
 362.730     66.8     93.7  536.9 
 362.750     66.8     93.7  536.9 
 362.770     66.8     93.7  536.9 
 362.790     66.8     93.0  536.9 
 362.810     33.9     93.0  536.9 
 362.830     33.9     93.0  536.9 
 362.850     33.9     93.7  538.6 
 362.870     33.9     93.7  538.6 
 362.890     33.9     92.3  540.4 
 362.910     66.8     92.3  540.4 
 362.930     66.8     92.3  540.4 
 362.950     66.8     92.3  542.2 
 362.970     99.7     92.3  542.2 
 362.990     99.7     92.3  542.2 
 363.010    231.4     91.6  540.4 
 363.030    231.4     91.6  540.4 
 363.050    231.4     92.3  540.4 
 363.070     66.8     92.3  540.4 
 363.090     66.8     92.3  540.4 
 363.110     99.7     90.8  542.2 
 363.130     99.7     90.8  542.2 
 363.150     99.7     90.8  542.2 
 363.170     33.9     90.8  542.2 
 363.190     33.9     90.8  542.2 
 363.210     66.8     90.1  542.2 
 363.230     66.8     90.1  542.2 
 363.250     66.8     89.4  542.2 
