~Version Information
 VERS.                2.0:  CWLS LOG ASCII STANDARD -VERSION 2.0
 WRAP.                 NO:  ONE LINE PER DEPTH STEP
~WELL INFORMATION BLOCK
#MNEM.UNIT       DATA		            DESCRIPTION OF MNEMONIC
#---------    -------------            ------------------------
 STRT.FT  6.050                          :START DEPTH
 STOP.FT  535.390                        :STOP DEPTH
 STEP.FT  0.020                          :STEP    UP_HOLE  
 NULL.    -999.25                        :NULL VALUE
 COMP.    CARLTON VL4282                 :COMPANY
 WELL.    278586                                                       :WELL
 FLD .    NORTHFIELD 71-B                :FIELD\LOCATION
 LOC .    31    112   19                 :LOCATION
 CNTY.    RICE                           :COUNTY
 STAT.                                   :STATE
 CTRY.    USA                            :COUNTRY
 SRVC.    TRUCK                          :SERVICE COMPANY
 DATE.    06/28/2018                     :LOG DATE
 API .                                       :API NUMBER
 LIC .                                   :LICENSE NUMBER
~Curve Information Block
#MNEM.UNIT      API CODE     Curve Description
#---------    -------------  ------------------------
 DEPT     .FT        00 001 00 00          :  1  DEPTH   
 GAMMA    .API-GR    00 310 00 00          :  2  GAMMA RAY           
 RES      .OHM       00 000 00 00          :  3  SINGLE POINT RES    
 SP       .MV        00 010 00 00          :  4  SPON POTENTIAL      
~Parameter Information Block
#MNEM.UNIT   Information     Description
#---------- ---------------  ------------------------
 FILE.      PROCESSED          :File Type
 FIID.      9060A              :File Type Identifier
 VERS.      3.60Q              :System Version
 SER .      1                  :System Serial Number
 TRUK.      0.0                :Truck Calibration Number
 TOOL.         202             :Tool Serial Number
 TIME.      1056               :Time    HrHrMinMin
 LAT .                         :Latitude
 LON .                         :Longitude
 LMF .      GL                 :Log Measured From
 DMF .                         :Driller Measured From
 PD  .                         :Permanent Data
 PDEV.FT                       :Elevation Permanent Data
 EKB .FT                       :Elevation Kelly Bushing
 ELEV.FT                       :Elevation DF
 EGL .FT     942 L1            :Elevation Ground Level
 DRDP.FT     53                :Driller's Depth
 CASD.FT    6                  :Casing Diameter
 CASB.FT                       :Casing Bottom
 CASX.                         :Casing Type
 CAST.IN    0                  :Casing Thickness
 TNOC.                         :Time Circulation Stopped
 LOGU.                         :Logging Unit
 RECB.      MAYER              :Recorded By
 OSR1.                         :Other Services
 OSR2.                         :Other Services
 OSR3.                         :Other Services
 BS  .IN           4           :Bit Size
 MST .F                        :Mean Surface Temperature
 TGRD.F     0                  :Temperature Gradiant
 MAGN.      0                  :Magnetic Declination
 MDEN.      2.84               :Density Matrix
 MATR.      DOLOMITE           :Neutron Matrix
 DTMT.      44                 :Delta T Matrix
 DTFL.                         :Delta T Fluid
 MUDS.      0                  :Mud Sample Source
 MRS .      0                  :Mud Resistivity
 MTP .      0                  :Mud Temperature
 MFRS.                         :Resistivity Mud Filtrate
 MFTP.                         :Temperature Mud Filtrate
 MCRS.      0                  :Resistivity Mud Cake
 MCTP.                         :Temperature Mud Cake
 FTYP.      0                  :Fluid Type
 FD  .LB/G     0               :Mud Weight
 DFV .S                        :Fluid Viscosity
 FPH .                         :Fuild PH
 ELCO.      2500               :Electron Cutoff
 CASL.IN    6                  :Casing Logger
 LOTD.FT                       :Logger TD
 ARTM.                         :Arrival Time
 DPTM.                         :Departure Time
 RIGN.                         :Rig Number
~Other Information
#MNEM.UNIT  Information      Description
#---------- ---------------  ------------------------
# -------------------------- 
~A DEPTH  GAMMA    RES      SP    
# ...
 532.730     99.7     90.1  505.0 
 532.750     99.7     90.1  505.0 
 532.770    132.7     90.1  505.0 
 532.790    132.7     90.8  503.2 
 532.810    132.7     90.8  503.2 
 532.830     99.7     90.1  501.5 
 532.850     99.7     90.1  501.5 
 532.870     99.7     90.1  501.5 
 532.890    165.6     89.4  501.5 
 532.910    165.6     89.4  501.5 
 532.930     66.8     90.1  497.9 
 532.950     66.8     90.1  497.9 
 532.970     66.8     90.1  497.9 
 532.990     66.8     89.4  494.4 
 533.010     66.8     89.4  494.4 
 533.030     33.9     90.1  490.8 
 533.050     33.9     90.1  490.8 
 533.070     33.9     90.1  490.8 
 533.090     99.7     90.1  490.8 
 533.110     99.7     90.1  490.8 
 533.130     66.8     90.8  487.3 
 533.150     66.8     90.8  487.3 
 533.170     66.8     90.8  487.3 
 533.190     33.9     91.6  485.5 
 533.210     33.9     91.6  485.5 
 533.230     33.9     93.0  483.8 
 533.250     99.7     93.0  483.8 
 533.270     99.7     93.0  483.8 
 533.290     33.9     93.7  482.0 
 533.310     33.9     93.7  482.0 
 533.330     33.9     95.8  478.4 
 533.350    132.7     95.8  478.4 
 533.370    132.7     95.8  478.4 
 533.390    132.7     96.5  474.9 
 533.410    132.7     96.5  474.9 
 533.430    132.7     97.9  474.9 
 533.450     66.8     97.9  474.9 
 533.470     66.8     97.9  474.9 
 533.490     66.8    100.0  471.4 
 533.510      1.0    100.0  471.4 
 533.530      1.0    103.9  469.6 
 533.550    231.4    103.9  469.6 
 533.570    231.4    103.9  469.6 
 533.590    231.4    106.4  467.8 
 533.610     99.7    106.4  467.8 
 533.630     99.7    111.6  466.0 
 533.650     99.7    111.6  466.0 
 533.670     99.7    112.8  466.0 
 533.690     99.7    112.8  466.0 
 533.710     99.7    112.8  466.0 
 533.730     99.7    114.1  466.0 
 533.750     99.7    114.1  466.0 
 533.770     99.7    114.1  466.0 
 533.790     99.7    116.7  464.3 
 533.810     33.9    116.7  464.3 
 533.830     33.9    118.0  462.5 
 533.850     99.7    118.0  462.5 
 533.870     99.7    118.0  462.5 
 533.890      1.0    118.0  462.5 
 533.910      1.0    118.0  462.5 
 533.930      1.0    119.3  462.5 
 533.950     66.8    119.3  462.5 
 533.970     66.8    119.3  462.5 
 533.990      1.0    119.3  460.7 
 534.010      1.0    119.3  460.7 
 534.030      1.0    120.5  459.0 
 534.050      1.0    120.5  459.0 
 534.070     66.8    120.5  459.0 
 534.090     66.8    120.5  459.0 
 534.110     33.9    120.5  459.0 
 534.130     33.9    120.5  459.0 
 534.150      1.0    120.5  459.0 
 534.170      1.0    120.5  459.0 
 534.190     33.9    121.8  457.2 
 534.210      1.0    121.8  457.2 
 534.230      1.0    121.8  457.2 
 534.250    132.7    123.1  457.2 
 534.270    132.7    123.1  457.2 
 534.290      1.0    123.1  457.2 
 534.310     99.7    123.1  457.2 
 534.330     66.8    123.1  457.2 
 534.350     66.8    123.1  455.4 
 534.370     66.8    123.1  455.4 
 534.390      1.0    123.1  455.4 
 534.410     50.4    121.8  455.4 
 534.430     33.9    121.8  455.4 
 534.450    149.1    123.1  455.4 
 534.470     83.3    123.1  455.4 
 534.490    100.6    123.1  455.4 
 534.510  -999.25    121.8  453.7 
 534.530  -999.25    121.8  453.7 
 534.550  -999.25    124.4  453.7 
 534.570  -999.25    124.4  453.7 
 534.590  -999.25    124.4  453.7 
 534.610  -999.25    124.4  451.9 
 534.630  -999.25    124.4  451.9 
 534.650  -999.25    127.0  453.7 
 534.670  -999.25    127.0  453.7 
 534.690  -999.25    127.0  453.7 
 534.710  -999.25    128.2  453.7 
 534.730  -999.25    128.2  453.7 
 534.750  -999.25    129.5  451.9 
 534.770  -999.25    129.5  451.9 
 534.790  -999.25    129.5  450.1 
 534.810  -999.25    129.5  450.1 
 534.830  -999.25    129.5  450.1 
 534.850  -999.25    130.8  450.1 
 534.870  -999.25    130.8  450.1 
 534.890  -999.25    130.8  450.1 
 534.910  -999.25    130.8  450.1 
 534.930  -999.25    133.4  448.3 
 534.950  -999.25    133.4  448.3 
 534.970  -999.25    135.9  448.3 
 534.990  -999.25    135.9  448.3 
 535.010  -999.25    137.2  446.6 
 535.030  -999.25    137.2  446.6 
 535.050  -999.25    137.2  448.3 
 535.070  -999.25    137.2  448.3 
 535.090  -999.25    138.5  448.3 
 535.110  -999.25    137.2  448.3 
 535.130  -999.25    137.2  448.3 
 535.150  -999.25    138.5  446.6 
 535.170  -999.25    138.5  446.6 
 535.190  -999.25    138.5  448.3 
 535.210  -999.25    138.5  448.3 
 535.230  -999.25    139.8  446.6 
 535.250  -999.25    139.8  446.6 
 535.270  -999.25    141.1  446.6 
 535.290  -999.25    141.1  446.6 
 535.310  -999.25    142.4  446.6 
 535.330  -999.25    142.4  444.8 
 535.350  -999.25    144.3  445.7 
 535.370  -999.25    145.6  444.8 
 535.390  -999.25    146.1  444.9 
