~Version Information
 VERS.                2.0:  CWLS LOG ASCII STANDARD -VERSION 2.0
 WRAP.                 NO:  ONE LINE PER DEPTH STEP
~WELL INFORMATION BLOCK
#MNEM.UNIT       DATA		            DESCRIPTION OF MNEMONIC
#---------    -------------            ------------------------
 STRT.FT  6.050                          :START DEPTH
 STOP.FT  535.390                        :STOP DEPTH
 STEP.FT  0.020                          :STEP    UP_HOLE  
 NULL.    -999.25                        :NULL VALUE
 COMP.    CARLTON VL4282                 :COMPANY
 WELL.    278586                                                       :WELL
 FLD .    NORTHFIELD 71-B                :FIELD\LOCATION
 LOC .    31    112   19                 :LOCATION
 CNTY.    RICE                           :COUNTY
 STAT.                                   :STATE
 CTRY.    USA                            :COUNTRY
 SRVC.    TRUCK                          :SERVICE COMPANY
 DATE.    06/28/2018                     :LOG DATE
 API .                                       :API NUMBER
 LIC .                                   :LICENSE NUMBER
~Curve Information Block
#MNEM.UNIT      API CODE     Curve Description
#---------    -------------  ------------------------
 DEPT     .FT        00 001 00 00          :  1  DEPTH   
 GAMMA    .API-GR    00 310 00 00          :  2  GAMMA RAY           
 RES      .OHM       00 000 00 00          :  3  SINGLE POINT RES    
 SP       .MV        00 010 00 00          :  4  SPON POTENTIAL      
~Parameter Information Block
#MNEM.UNIT   Information     Description
#---------- ---------------  ------------------------
 FILE.      PROCESSED          :File Type
 FIID.      9060A              :File Type Identifier
 VERS.      3.60Q              :System Version
 SER .      1                  :System Serial Number
 TRUK.      0.0                :Truck Calibration Number
 TOOL.         202             :Tool Serial Number
 TIME.      1056               :Time    HrHrMinMin
 LAT .                         :Latitude
 LON .                         :Longitude
 LMF .      GL                 :Log Measured From
 DMF .                         :Driller Measured From
 PD  .                         :Permanent Data
 PDEV.FT                       :Elevation Permanent Data
 EKB .FT                       :Elevation Kelly Bushing
 ELEV.FT                       :Elevation DF
 EGL .FT     942 L1            :Elevation Ground Level
 DRDP.FT     53                :Driller's Depth
 CASD.FT    6                  :Casing Diameter
 CASB.FT                       :Casing Bottom
 CASX.                         :Casing Type
 CAST.IN    0                  :Casing Thickness
 TNOC.                         :Time Circulation Stopped
 LOGU.                         :Logging Unit
 RECB.      MAYER              :Recorded By
 OSR1.                         :Other Services
 OSR2.                         :Other Services
 OSR3.                         :Other Services
 BS  .IN           4           :Bit Size
 MST .F                        :Mean Surface Temperature
 TGRD.F     0                  :Temperature Gradiant
 MAGN.      0                  :Magnetic Declination
 MDEN.      2.84               :Density Matrix
 MATR.      DOLOMITE           :Neutron Matrix
 DTMT.      44                 :Delta T Matrix
 DTFL.                         :Delta T Fluid
 MUDS.      0                  :Mud Sample Source
 MRS .      0                  :Mud Resistivity
 MTP .      0                  :Mud Temperature
 MFRS.                         :Resistivity Mud Filtrate
 MFTP.                         :Temperature Mud Filtrate
 MCRS.      0                  :Resistivity Mud Cake
 MCTP.                         :Temperature Mud Cake
 FTYP.      0                  :Fluid Type
 FD  .LB/G     0               :Mud Weight
 DFV .S                        :Fluid Viscosity
 FPH .                         :Fuild PH
 ELCO.      2500               :Electron Cutoff
 CASL.IN    6                  :Casing Logger
 LOTD.FT                       :Logger TD
 ARTM.                         :Arrival Time
 DPTM.                         :Departure Time
 RIGN.                         :Rig Number
~Other Information
#MNEM.UNIT  Information      Description
#---------- ---------------  ------------------------
# -------------------------- 
~A DEPTH  GAMMA    RES      SP    
   6.050      1.0  -999.25  -999.25
   6.070     33.9  -999.25  -999.25
   6.090     33.9  -999.25  -999.25
   6.110     33.9  -999.25  -999.25
   6.130     33.9  -999.25  -999.25
   6.150     33.9  -999.25  -999.25
   6.170     33.9  -999.25  -999.25
   6.190     33.9  -999.25  -999.25
   6.210     33.9  -999.25  -999.25
   6.230     33.9  -999.25  -999.25
   6.250      1.0  -999.25  -999.25
   6.270      1.0  -999.25  -999.25
   6.290     33.9  -999.25  -999.25
   6.310     66.8  -999.25  -999.25
   6.330     66.8  -999.25  -999.25
   6.350      1.0  -999.25  -999.25
   6.370     33.9  -999.25  -999.25
   6.390     33.9  -999.25  -999.25
   6.410      1.0  -999.25  -999.25
   6.430     66.8  -999.25  -999.25
   6.450     66.8  -999.25  -999.25
   6.470     33.9  -999.25  -999.25
   6.490      1.0  -999.25  -999.25
   6.510      1.0  -999.25  -999.25
   6.530     33.9  -999.25  -999.25
   6.550      1.0  -999.25  -999.25
   6.570      1.0  -999.25  -999.25
   6.590     33.9  -999.25  -999.25
   6.610      1.0  -999.25  -999.25
   6.630      1.0  -999.25  -999.25
   6.650      1.0  -999.25  -999.25
   6.670    132.7  -999.25  -999.25
   6.690    132.7  -999.25  -999.25
   6.710     33.9  -999.25  196.9 
   6.730      1.0  -999.25  197.7 
   6.750      1.0  -999.25  198.7 
   6.770     33.9  -999.25  198.7 
   6.790      1.0  -999.25  198.7 
   6.810     33.9  -999.25  198.7 
   6.830     33.9  -999.25  198.7 
   6.850      1.0  -999.25  198.7 
   6.870     66.8  -999.25  198.7 
   6.890     33.9  -999.25  198.7 
   6.910     33.9  -999.25  198.7 
   6.930      1.0  -999.25  198.7 
   6.950     33.9  -999.25  198.7 
   6.970     33.9  -999.25  198.7 
   6.990     66.8  -999.25  200.4 
   7.010      1.0  -999.25  198.7 
   7.030     33.9  -999.25  198.7 
   7.050      1.0  -999.25  198.7 
   7.070      1.0  -999.25  200.4 
   7.090      1.0  -999.25  198.7 
   7.110      1.0  -999.25  200.4 
   7.130     33.9  -999.25  198.7 
   7.150      1.0  -999.25  198.7 
   7.170      1.0  -999.25  198.7 
   7.190     33.9  -999.25  200.4 
   7.210      1.0  -999.25  198.7 
   7.230     99.7  -999.25  200.4 
   7.250     33.9  -999.25  198.7 
   7.270     33.9  -999.25  200.4 
   7.290     33.9  -999.25  200.4 
   7.310      1.0  -999.25  198.7 
   7.330      1.0  -999.25  200.4 
   7.350      1.0  -999.25  200.4 
   7.370     66.8  -999.25  198.7 
   7.390     66.8  -999.25  200.4 
   7.410     33.9  -999.25  200.4 
   7.430     33.9  -999.25  198.7 
   7.450     33.9  -999.25  200.4 
   7.470      1.0  -999.25  200.4 
   7.490      1.0  -999.25  200.4 
   7.510     33.9  -999.25  200.4 
   7.530     33.9  -999.25  200.4 
   7.550     33.9  -999.25  198.7 
   7.570      1.0  -999.25  200.4 
   7.590      1.0  -999.25  200.4 
   7.610      1.0  -999.25  200.4 
   7.630     99.7  -999.25  200.4 
   7.650     99.7  -999.25  200.4 
   7.670      1.0  -999.25  200.4 
   7.690      1.0  -999.25  200.4 
   7.710      1.0  -999.25  200.4 
   7.730     33.9  -999.25  200.4 
   7.750     33.9  -999.25  200.4 
   7.770      1.0  -999.25  200.4 
   7.790      1.0  -999.25  200.4 
   7.810      1.0  -999.25  200.4 
   7.830     66.8  -999.25  200.4 
   7.850     66.8  -999.25  200.4 
   7.870     33.9  -999.25  202.2 
   7.890     33.9  -999.25  200.4 
   7.910     33.9  -999.25  200.4 
   7.930      1.0  -999.25  202.2 
   7.950      1.0  -999.25  202.2 
   7.970      1.0  -999.25  200.4 
   7.990     33.9  -999.25  202.2 
   8.010     33.9  -999.25  202.2 
   8.030      1.0  -999.25  201.3 
   8.050      1.0  -999.25  202.2 
   8.070      1.0  -999.25  202.2 
   8.090      1.0  -999.25  202.5 
   8.110      1.0  -999.25  202.2 
   8.130      1.0  -999.25  204.0 
   8.150      1.0  -999.25  202.2 
   8.170      1.0  -999.25  202.2 
   8.190      1.0  -999.25  202.2 
   8.210      1.0  -999.25  204.0 
   8.230     99.7  -999.25  204.0 
   8.250     99.7  -999.25  204.0 
   8.270     99.7  -999.25  202.2 
   8.290      1.0  -999.25  202.2 
   8.310      1.0  -999.25  202.2 
   8.330     33.9  -999.25  202.2 
   8.350     33.9  -999.25  202.2 
   8.370     33.9  -999.25  204.0 
   8.390     33.9  -999.25  204.0 
   8.410     33.9  -999.25  202.2 
   8.430      1.0  -999.25  202.2 
   8.450      1.0  -999.25  202.2 
   8.470      1.0  -999.25  202.2 
   8.490      1.0  -999.25  202.2 
   8.510      1.0  -999.25  202.2 
   8.530     33.9  -999.25  204.0 
   8.550     33.9  -999.25  204.0 
   8.570     33.9  -999.25  202.2 
   8.590     33.9  -999.25  202.2 
   8.610     33.9  -999.25  202.2 
   8.630     33.9  -999.25  202.2 
   8.650     33.9  -999.25  202.2 
   8.670     33.9  -999.25  202.2 
   8.690      1.0  -999.25  202.2 
   8.710      1.0  -999.25  202.2 
   8.730      1.0  -999.25  202.2 
   8.750     33.9  -999.25  202.2 
   8.770     33.9  -999.25  202.2 
   8.790      1.0  -999.25  202.2 
   8.810      1.0  -999.25  202.2 
   8.830      1.0  -999.25  202.2 
   8.850      1.0  -999.25  202.2 
   8.870      1.0  -999.25  202.2 
   8.890      1.0  -999.25  204.0 
   8.910      1.0  -999.25  204.0 
   8.930      1.0  -999.25  204.0 
   8.950     66.8  -999.25  204.0 
   8.970     66.8  -999.25  204.0 
   8.990      1.0  -999.25  204.0 
   9.010      1.0  -999.25  204.0 
   9.030      1.0  -999.25  205.8 
   9.050      1.0  -999.25  205.8 
   9.070      1.0  -999.25  205.8 
   9.090      1.0  -999.25  205.8 
   9.110     66.8  -999.25  205.8 
   9.130     66.8  -999.25  207.5 
   9.150      1.0  -999.25  207.5 
   9.170      1.0  -999.25  207.5 
   9.190      1.0  -999.25  209.3 
   9.210     66.8  -999.25  209.3 
   9.230     66.8  -999.25  211.1 
   9.250      1.0  -999.25  211.1 
   9.270      1.0  -999.25  211.1 
   9.290      1.0  -999.25  211.1 
   9.310     66.8  -999.25  211.1 
   9.330     66.8  -999.25  211.1 
   9.350      1.0  -999.25  211.1 
   9.370      1.0  -999.25  211.1 
   9.390      1.0  -999.25  209.3 
   9.410     33.9  -999.25  209.3 
   9.430     33.9  -999.25  207.5 
   9.450     66.8  -999.25  207.5 
   9.470     66.8  -999.25  207.5 
   9.490     66.8  -999.25  202.2 
   9.510      1.0  -999.25  202.2 
   9.530      1.0  -999.25  202.2 
   9.550     66.8  -999.25  196.9 
   9.570     66.8  -999.25  196.9 
   9.590     66.8  -999.25  191.6 
   9.610      1.0  -999.25  191.6 
   9.630      1.0  -999.25  191.6 
   9.650      1.0  -999.25  184.5 
   9.670      1.0  -999.25  184.5 
   9.690      1.0  -999.25  175.7 
   9.710      1.0  -999.25  175.7 
   9.730      1.0  -999.25  175.7 
   9.750      1.0  -999.25  166.8 
   9.770      1.0  -999.25  166.8 
   9.790      1.0  -999.25  156.2 
   9.810     33.9  -999.25  156.2 
   9.830     33.9  -999.25  156.2 
   9.850     33.9  -999.25  150.9 
   9.870     33.9  -999.25  150.9 
   9.890     33.9  -999.25  142.0 
   9.910     66.8  -999.25  142.0 
   9.930     66.8  -999.25  142.0 
   9.950     66.8  -999.25  136.7 
   9.970      1.0  -999.25  136.7 
   9.990      1.0  -999.25  136.7 
  10.010     33.9  -999.25  126.1 
  10.030     33.9  -999.25  126.1 
  10.050     33.9  -999.25  120.8 
  10.070     33.9  -999.25  120.8 
  10.090     33.9  -999.25  120.8 
  10.110     33.9  -999.25  122.5 
  10.130     33.9  -999.25  122.5 
  10.150     33.9  -999.25  126.1 
  10.170     33.9  -999.25  126.1 
  10.190     33.9  -999.25  126.1 
  10.210     33.9  -999.25  129.6 
  10.230      1.0  -999.25  129.6 
  10.250      1.0  -999.25  129.6 
  10.270     33.9  -999.25  129.6 
  10.290     33.9  -999.25  129.6 
  10.310     33.9  -999.25  129.6 
  10.330      1.0  -999.25  129.6 
  10.350      1.0  -999.25  131.4 
  10.370      1.0  -999.25  131.4 
  10.390      1.0  -999.25  131.4 
  10.410      1.0  -999.25  140.2 
  10.430      1.0  -999.25  140.2 
  10.450      1.0  -999.25  147.3 
  10.470     66.8  -999.25  147.3 
  10.490     66.8  -999.25  147.3 
  10.510     66.8  -999.25  157.9 
  10.530      1.0  -999.25  157.9 
  10.550      1.0  -999.25  166.8 
  10.570      1.0  -999.25  166.8 
  10.590     99.7  -999.25  166.8 
