~Version Information
 VERS.                2.0:  CWLS LOG ASCII STANDARD -VERSION 2.0
 WRAP.                 NO:  ONE LINE PER DEPTH STEP
~WELL INFORMATION BLOCK
#MNEM.UNIT       DATA		            DESCRIPTION OF MNEMONIC
#---------    -------------            ------------------------
 STRT.FT  6.050                          :START DEPTH
 STOP.FT  535.390                        :STOP DEPTH
 STEP.FT  0.020                          :STEP    UP_HOLE  
 NULL.    -999.25                        :NULL VALUE
 COMP.    CARLTON VL4282                 :COMPANY
 WELL.    278586                                                       :WELL
 FLD .    NORTHFIELD 71-B                :FIELD\LOCATION
 LOC .    31    112   19                 :LOCATION
 CNTY.    RICE                           :COUNTY
 STAT.                                   :STATE
 CTRY.    USA                            :COUNTRY
 SRVC.    TRUCK                          :SERVICE COMPANY
 DATE.    06/28/2018                     :LOG DATE
 API .                                       :API NUMBER
 LIC .                                   :LICENSE NUMBER
~Curve Information Block
#MNEM.UNIT      API CODE     Curve Description
#---------    -------------  ------------------------
 DEPT     .FT        00 001 00 00          :  1  DEPTH   
 GAMMA    .API-GR    00 310 00 00          :  2  GAMMA RAY           
 RES      .OHM       00 000 00 00          :  3  SINGLE POINT RES    
 SP       .MV        00 010 00 00          :  4  SPON POTENTIAL      
~Parameter Information Block
#MNEM.UNIT   Information     Description
#---------- ---------------  ------------------------
 FILE.      PROCESSED          :File Type
 FIID.      9060A              :File Type Identifier
 VERS.      3.60Q              :System Version
 SER .      1                  :System Serial Number
 TRUK.      0.0                :Truck Calibration Number
 TOOL.         202             :Tool Serial Number
 TIME.      1056               :Time    HrHrMinMin
 LAT .                         :Latitude
 LON .                         :Longitude
 LMF .      GL                 :Log Measured From
 DMF .                         :Driller Measured From
 PD  .                         :Permanent Data
 PDEV.FT                       :Elevation Permanent Data
 EKB .FT                       :Elevation Kelly Bushing
 ELEV.FT                       :Elevation DF
 EGL .FT     942 L1            :Elevation Ground Level
 DRDP.FT     53                :Driller's Depth
 CASD.FT    6                  :Casing Diameter
 CASB.FT                       :Casing Bottom
 CASX.                         :Casing Type
 CAST.IN    0                  :Casing Thickness
 TNOC.                         :Time Circulation Stopped
 LOGU.                         :Logging Unit
 RECB.      MAYER              :Recorded By
 OSR1.                         :Other Services
 OSR2.                         :Other Services
 OSR3.                         :Other Services
 BS  .IN           4           :Bit Size
 MST .F                        :Mean Surface Temperature
 TGRD.F     0                  :Temperature Gradiant
 MAGN.      0                  :Magnetic Declination
 MDEN.      2.84               :Density Matrix
 MATR.      DOLOMITE           :Neutron Matrix
 DTMT.      44                 :Delta T Matrix
 DTFL.                         :Delta T Fluid
 MUDS.      0                  :Mud Sample Source
 MRS .      0                  :Mud Resistivity
 MTP .      0                  :Mud Temperature
 MFRS.                         :Resistivity Mud Filtrate
 MFTP.                         :Temperature Mud Filtrate
 MCRS.      0                  :Resistivity Mud Cake
 MCTP.                         :Temperature Mud Cake
 FTYP.      0                  :Fluid Type
 FD  .LB/G     0               :Mud Weight
 DFV .S                        :Fluid Viscosity
 FPH .                         :Fuild PH
 ELCO.      2500               :Electron Cutoff
 CASL.IN    6                  :Casing Logger
 LOTD.FT                       :Logger TD
 ARTM.                         :Arrival Time
 DPTM.                         :Departure Time
 RIGN.                         :Rig Number
~Other Information
#MNEM.UNIT  Information      Description
#---------- ---------------  ------------------------
# -------------------------- 
~A DEPTH  GAMMA    RES      SP    
# ...
 390.750     66.8    137.2  519.2 
 390.770     66.8    137.2  519.2 
 390.790     99.7    135.9  519.2 
 390.810     99.7    135.9  519.2 
 390.830     99.7    135.9  519.2 
 390.850     33.9    134.7  520.9 
 390.870     33.9    134.7  520.9 
 390.890      1.0    133.4  519.2 
 390.910      1.0    133.4  519.2 
 390.930      1.0    133.4  519.2 
 390.950      1.0    134.7  519.2 
 390.970      1.0    134.7  519.2 
 390.990      1.0    133.4  517.4 
 391.010     66.8    133.4  517.4 
 391.030     66.8    133.4  517.4 
 391.050     33.9    133.4  515.6 
 391.070     33.9    133.4  515.6 
 391.090     33.9    133.4  515.6 
 391.110      1.0    132.1  513.9 
 391.130      1.0    132.1  513.9 
 391.150      1.0    133.4  515.6 
 391.170    132.7    133.4  515.6 
 391.190    132.7    133.4  515.6 
 391.210     66.8    133.4  515.6 
 391.230     66.8    133.4  515.6 
 391.250     66.8    133.4  515.6 
 391.270     33.9    133.4  513.9 
 391.290     33.9    133.4  513.9 
 391.310     33.9    134.7  513.9 
 391.330     66.8    134.7  513.9 
 391.350     66.8    134.7  513.9 
 391.370     99.7    133.4  515.6 
 391.390     99.7    133.4  515.6 
 391.410     99.7    133.4  515.6 
 391.430     33.9    133.4  517.4 
 391.450     33.9    133.4  517.4 
 391.470     33.9    134.7  517.4 
 391.490     33.9    134.7  517.4 
 391.510     33.9    134.7  517.4 
 391.530      1.0    134.7  517.4 
 391.550      1.0    134.7  517.4 
 391.570      1.0    134.7  517.4 
 391.590     33.9    133.4  519.2 
 391.610     33.9    133.4  519.2 
 391.630     33.9    133.4  519.2 
 391.650      1.0    133.4  519.2 
 391.670      1.0    133.4  519.2 
 391.690      1.0    132.1  520.9 
 391.710      1.0    132.1  520.9 
 391.730      1.0    132.1  520.9 
 391.750      1.0    130.8  520.9 
 391.770      1.0    130.8  520.9 
 391.790      1.0    130.8  522.7 
 391.810     33.9    130.8  522.7 
 391.830     33.9    130.8  522.7 
 391.850      1.0    128.2  522.7 
 391.870      1.0    128.2  522.7 
 391.890      1.0    128.2  522.7 
 391.910     33.9    128.2  522.7 
 391.930     33.9    128.2  522.7 
 391.950     33.9    128.2  524.5 
 391.970      1.0    128.2  524.5 
 391.990      1.0    128.2  524.5 
 392.010     99.7    127.0  526.3 
 392.030     99.7    127.0  526.3 
 392.050     99.7    127.0  526.3 
 392.070      1.0    124.4  526.3 
 392.090      1.0    124.4  526.3 
 392.110      1.0    124.4  526.3 
 392.130     66.8    124.4  526.3 
 392.150     66.8    124.4  526.3 
 392.170     66.8    124.4  526.3 
 392.190     66.8    124.4  526.3 
 392.210     66.8    124.4  526.3 
 392.230     66.8    123.1  526.3 
 392.250     66.8    123.1  526.3 
 392.270     66.8    123.1  524.5 
 392.290    132.7    123.1  524.5 
 392.310    132.7    123.1  524.5 
 392.330      1.0    121.8  524.5 
 392.350      1.0    121.8  524.5 
 392.370      1.0    121.8  524.5 
 392.390     33.9    123.1  526.3 
 392.410     33.9    123.1  526.3 
 392.430     33.9    121.8  528.0 
 392.450     99.7    121.8  528.0 
 392.470     99.7    121.8  528.0 
 392.490     66.8    121.8  528.0 
 392.510     66.8    121.8  528.0 
 392.530     66.8    121.8  528.0 
 392.550     66.8    121.8  526.3 
 392.570     66.8    121.8  526.3 
 392.590     66.8    121.8  528.0 
 392.610     33.9    121.8  528.0 
 392.630     33.9    121.8  528.0 
 392.650     99.7    120.5  526.3 
 392.670     99.7    120.5  526.3 
 392.690     99.7    120.5  526.3 
 392.710     99.7    120.5  528.0 
 392.730     99.7    120.5  528.0 
 392.750     99.7    119.3  528.0 
 392.770      1.0    119.3  528.0 
 392.790      1.0    119.3  528.0 
 392.810     33.9    119.3  528.0 
 392.830     33.9    119.3  528.0 
 392.850     33.9    119.3  528.0 
 392.870     33.9    119.3  528.0 
 392.890     33.9    119.3  528.0 
 392.910     33.9    119.3  526.3 
 392.930     66.8    119.3  526.3 
 392.950     66.8    119.3  526.3 
 392.970     33.9    118.0  528.0 
 392.990     33.9    118.0  528.0 
 393.010     33.9    118.0  528.0 
 393.030     66.8    119.3  528.0 
 393.050     66.8    119.3  528.0 
 393.070     66.8    118.0  528.0 
 393.090     99.7    118.0  528.0 
 393.110     99.7    118.0  528.0 
 393.130     99.7    119.3  526.3 
 393.150     99.7    119.3  526.3 
 393.170     99.7    119.3  526.3 
 393.190    132.7    118.0  526.3 
 393.210    132.7    118.0  526.3 
 393.230    132.7    118.0  526.3 
 393.250     33.9    118.0  526.3 
 393.270     33.9    118.0  526.3 
 393.290     99.7    118.0  528.0 
 393.310     99.7    118.0  528.0 
 393.330     99.7    118.0  528.0 
 393.350     99.7    116.7  528.0 
 393.370     99.7    116.7  528.0 
 393.390     99.7    118.0  528.0 
 393.410     99.7    118.0  528.0 
 393.430     99.7    118.0  528.0 
 393.450     33.9    115.4  529.8 
 393.470     33.9    115.4  529.8 
 393.490     33.9    115.4  529.8 
 393.510     33.9    116.7  528.0 
 393.530     33.9    116.7  528.0 
 393.550     33.9    115.4  528.0 
 393.570      1.0    115.4  528.0 
 393.590      1.0    115.4  528.0 
 393.610     99.7    116.7  528.0 
 393.630     99.7    116.7  528.0 
 393.650     99.7    116.7  528.0 
 393.670     66.8    115.4  528.0 
 393.690     66.8    115.4  528.0 
 393.710     66.8    116.7  526.3 
 393.730      1.0    116.7  526.3 
 393.750      1.0    116.7  526.3 
 393.770     33.9    116.7  526.3 
 393.790     33.9    116.7  526.3 
 393.810     33.9    116.7  526.3 
 393.830     99.7    116.7  522.7 
 393.850     99.7    116.7  522.7 
 393.870     99.7    118.0  522.7 
 393.890     33.9    118.0  522.7 
 393.910     33.9    118.0  522.7 
 393.930      1.0    118.0  524.5 
 393.950      1.0    118.0  524.5 
 393.970      1.0    118.0  524.5 
 393.990     66.8    119.3  522.7 
 394.010     66.8    119.3  522.7 
 394.030     66.8    118.0  524.5 
 394.050     33.9    118.0  524.5 
 394.070     33.9    118.0  524.5 
 394.090     33.9    119.3  522.7 
 394.110     33.9    119.3  522.7 
 394.130     33.9    119.3  522.7 
 394.150      1.0    119.3  522.7 
 394.170      1.0    119.3  522.7 
 394.190      1.0    119.3  524.5 
 394.210    165.6    119.3  524.5 
 394.230    165.6    119.3  524.5 
 394.250     33.9    118.0  526.3 
 394.270     33.9    118.0  526.3 
 394.290     33.9    118.0  526.3 
 394.310     66.8    116.7  528.0 
 394.330     66.8    116.7  528.0 
 394.350     66.8    116.7  526.3 
 394.370      1.0    116.7  526.3 
 394.390      1.0    116.7  526.3 
 394.410     99.7    116.7  526.3 
 394.430     99.7    116.7  526.3 
 394.450     99.7    116.7  526.3 
 394.470     33.9    116.7  528.0 
 394.490     33.9    116.7  528.0 
 394.510     33.9    116.7  526.3 
 394.530     33.9    116.7  526.3 
 394.550     33.9    116.7  526.3 
 394.570      1.0    115.4  529.8 
 394.590      1.0    115.4  529.8 
 394.610      1.0    115.4  529.8 
 394.630     33.9    114.1  528.0 
 394.650     33.9    114.1  528.0 
 394.670     33.9    112.8  529.8 
 394.690     99.7    112.8  529.8 
 394.710     99.7    112.8  529.8 
 394.730      1.0    112.8  528.0 
 394.750      1.0    112.8  528.0 
 394.770      1.0    112.8  528.0 
 394.790     66.8    111.6  526.3 
 394.810     66.8    111.6  526.3 
 394.830     66.8    110.3  528.0 
 394.850     33.9    110.3  528.0 
 394.870     33.9    110.3  528.0 
 394.890      1.0    111.6  526.3 
 394.910      1.0    111.6  526.3 
 394.930      1.0    111.6  526.3 
 394.950      1.0    110.3  528.0 
 394.970      1.0    110.3  528.0 
 394.990      1.0    112.8  526.3 
 395.010     99.7    112.8  526.3 
 395.030     99.7    112.8  526.3 
 395.050     33.9    111.6  526.3 
 395.070     33.9    111.6  526.3 
 395.090     33.9    111.6  526.3 
 395.110     99.7    112.8  522.7 
 395.130     99.7    112.8  522.7 
 395.150     99.7    112.8  524.5 
 395.170      1.0    112.8  524.5 
 395.190      1.0    112.8  524.5 
 395.210     99.7    115.4  522.7 
 395.230     99.7    115.4  522.7 
 395.250     99.7    115.4  522.7 
 395.270     66.8    116.7  522.7 
 395.290     66.8    116.7  522.7 
 395.310     66.8    118.0  522.7 
