~Version Information
 VERS.                2.0:  CWLS LOG ASCII STANDARD -VERSION 2.0
 WRAP.                 NO:  ONE LINE PER DEPTH STEP
~WELL INFORMATION BLOCK
#MNEM.UNIT       DATA		            DESCRIPTION OF MNEMONIC
#---------    -------------            ------------------------
 STRT.FT  6.050                          :START DEPTH
 STOP.FT  535.390                        :STOP DEPTH
 STEP.FT  0.020                          :STEP    UP_HOLE  
 NULL.    -999.25                        :NULL VALUE
 COMP.    CARLTON VL4282                 :COMPANY
 WELL.    278586                                                       :WELL
 FLD .    NORTHFIELD 71-B                :FIELD\LOCATION
 LOC .    31    112   19                 :LOCATION
 CNTY.    RICE                           :COUNTY
 STAT.                                   :STATE
 CTRY.    USA                            :COUNTRY
 SRVC.    TRUCK                          :SERVICE COMPANY
 DATE.    06/28/2018                     :LOG DATE
 API .                                       :API NUMBER
 LIC .                                   :LICENSE NUMBER
~Curve Information Block
#MNEM.UNIT      API CODE     Curve Description
#---------    -------------  ------------------------
 DEPT     .FT        00 001 00 00          :  1  DEPTH   
 GAMMA    .API-GR    00 310 00 00          :  2  GAMMA RAY           
 RES      .OHM       00 000 00 00          :  3  SINGLE POINT RES    
 SP       .MV        00 010 00 00          :  4  SPON POTENTIAL      
~Parameter Information Block
#MNEM.UNIT   Information     Description
#---------- ---------------  ------------------------
 FILE.      PROCESSED          :File Type
 FIID.      9060A              :File Type Identifier
 VERS.      3.60Q              :System Version
 SER .      1                  :System Serial Number
 TRUK.      0.0                :Truck Calibration Number
 TOOL.         202             :Tool Serial Number
 TIME.      1056               :Time    HrHrMinMin
 LAT .                         :Latitude
 LON .                         :Longitude
 LMF .      GL                 :Log Measured From
 DMF .                         :Driller Measured From
 PD  .                         :Permanent Data
 PDEV.FT                       :Elevation Permanent Data
 EKB .FT                       :Elevation Kelly Bushing
 ELEV.FT                       :Elevation DF
 EGL .FT     942 L1            :Elevation Ground Level
 DRDP.FT     53                :Driller's Depth
 CASD.FT    6                  :Casing Diameter
 CASB.FT                       :Casing Bottom
 CASX.                         :Casing Type
 CAST.IN    0                  :Casing Thickness
 TNOC.                         :Time Circulation Stopped
 LOGU.                         :Logging Unit
 RECB.      MAYER              :Recorded By
 OSR1.                         :Other Services
 OSR2.                         :Other Services
 OSR3.                         :Other Services
 BS  .IN           4           :Bit Size
 MST .F                        :Mean Surface Temperature
 TGRD.F     0                  :Temperature Gradiant
 MAGN.      0                  :Magnetic Declination
 MDEN.      2.84               :Density Matrix
 MATR.      DOLOMITE           :Neutron Matrix
 DTMT.      44                 :Delta T Matrix
 DTFL.                         :Delta T Fluid
 MUDS.      0                  :Mud Sample Source
 MRS .      0                  :Mud Resistivity
 MTP .      0                  :Mud Temperature
 MFRS.                         :Resistivity Mud Filtrate
 MFTP.                         :Temperature Mud Filtrate
 MCRS.      0                  :Resistivity Mud Cake
 MCTP.                         :Temperature Mud Cake
 FTYP.      0                  :Fluid Type
 FD  .LB/G     0               :Mud Weight
 DFV .S                        :Fluid Viscosity
 FPH .                         :Fuild PH
 ELCO.      2500               :Electron Cutoff
 CASL.IN    6                  :Casing Logger
 LOTD.FT                       :Logger TD
 ARTM.                         :Arrival Time
 DPTM.                         :Departure Time
 RIGN.                         :Rig Number
~Other Information
#MNEM.UNIT  Information      Description
#---------- ---------------  ------------------------
# -------------------------- 
~A DEPTH  GAMMA    RES      SP    
# ...
 427.390     33.9    139.8  513.9 
 427.410     33.9    139.8  513.9 
 427.430     33.9    139.8  513.9 
 427.450     33.9    137.2  513.9 
 427.470     33.9    137.2  513.9 
 427.490     33.9    137.2  515.6 
 427.510      1.0    137.2  515.6 
 427.530      1.0    137.2  515.6 
 427.550      1.0    134.7  513.9 
 427.570     66.8    134.7  513.9 
 427.590     66.8    133.4  515.6 
 427.610     66.8    133.4  515.6 
 427.630     33.9    133.4  515.6 
 427.650     33.9    132.1  513.9 
 427.670     33.9    132.1  513.9 
 427.690     33.9    132.1  513.9 
 427.710     33.9    132.1  513.9 
 427.730      1.0    132.1  513.9 
 427.750      1.0    129.5  513.9 
 427.770     33.9    129.5  513.9 
 427.790     33.9    129.5  513.9 
 427.810     33.9    129.5  513.9 
 427.830     33.9    129.5  513.9 
 427.850     33.9    127.0  515.6 
 427.870     66.8    127.0  515.6 
 427.890     66.8    127.0  515.6 
 427.910     66.8    125.7  515.6 
 427.930     99.7    125.7  515.6 
 427.950     99.7    124.4  515.6 
 427.970     99.7    124.4  515.6 
 427.990     66.8    124.4  515.6 
 428.010     66.8    123.1  515.6 
 428.030      1.0    123.1  515.6 
 428.050      1.0    123.1  515.6 
 428.070      1.0    123.1  519.2 
 428.090     99.7    123.1  519.2 
 428.110     99.7    123.1  519.2 
 428.130     99.7    123.1  519.2 
 428.150     99.7    123.1  519.2 
 428.170     99.7    121.8  522.7 
 428.190     66.8    121.8  522.7 
 428.210     66.8    120.5  524.5 
 428.230     66.8    120.5  524.5 
 428.250      1.0    120.5  524.5 
 428.270      1.0    119.3  526.3 
 428.290     33.9    119.3  526.3 
 428.310     33.9    118.0  528.0 
 428.330     33.9    118.0  528.0 
 428.350     66.8    118.0  528.0 
 428.370     66.8    115.4  529.8 
 428.390      1.0    115.4  529.8 
 428.410      1.0    115.4  531.6 
 428.430      1.0    115.4  531.6 
 428.450     33.9    115.4  531.6 
 428.470     33.9    112.8  529.8 
 428.490     66.8    112.8  529.8 
 428.510     66.8    112.8  529.8 
 428.530     66.8    110.3  529.8 
 428.550     99.7    110.3  529.8 
 428.570     99.7    110.3  529.8 
 428.590     66.8    110.3  529.8 
 428.610     66.8    110.3  529.8 
 428.630     66.8    109.0  529.8 
 428.650    165.6    109.0  529.8 
 428.670    165.6    107.7  531.6 
 428.690    165.6    107.7  531.6 
 428.710     66.8    107.7  531.6 
 428.730     66.8    106.4  529.8 
 428.750     99.7    106.4  529.8 
 428.770     99.7    106.4  531.6 
 428.790     99.7    106.4  531.6 
 428.810     66.8    106.4  531.6 
 428.830     66.8    103.9  531.6 
 428.850     66.8    103.9  531.6 
 428.870     66.8    103.9  531.6 
 428.890     66.8    102.6  531.6 
 428.910     66.8    102.6  531.6 
 428.930     66.8    102.6  531.6 
 428.950     66.8    102.6  531.6 
 428.970     66.8    102.6  531.6 
 428.990     66.8    101.3  531.6 
 429.010     33.9    101.3  531.6 
 429.030     33.9    101.3  529.8 
 429.050     33.9    101.3  529.8 
 429.070     66.8    101.3  529.8 
 429.090     66.8    102.6  528.0 
 429.110     99.7    102.6  528.0 
 429.130     99.7    102.6  528.0 
 429.150     99.7    102.6  529.8 
 429.170     66.8    102.6  529.8 
 429.190     66.8    103.9  528.0 
 429.210     33.9    103.9  528.0 
 429.230     33.9    103.9  528.0 
 429.250     33.9    103.9  528.0 
 429.270     33.9    103.9  528.0 
 429.290     33.9    105.1  526.3 
 429.310     33.9    105.1  526.3 
 429.330     66.8    105.1  526.3 
 429.350     66.8    103.9  526.3 
 429.370     66.8    103.9  526.3 
 429.390     66.8    105.1  528.0 
 429.410     66.8    105.1  528.0 
 429.430      1.0    105.1  528.0 
 429.450      1.0    106.4  528.0 
 429.470     33.9    106.4  528.0 
 429.490     33.9    107.7  528.0 
 429.510     33.9    107.7  528.0 
 429.530      1.0    107.7  528.0 
 429.550      1.0    106.4  529.8 
 429.570     33.9    106.4  529.8 
 429.590     33.9    106.4  529.8 
 429.610     33.9    107.7  528.0 
 429.630     99.7    107.7  528.0 
 429.650     99.7    106.4  528.0 
 429.670     66.8    106.4  528.0 
 429.690     66.8    106.4  528.0 
 429.710     66.8    106.4  529.8 
 429.730     99.7    106.4  529.8 
 429.750     99.7    105.1  529.8 
 429.770     99.7    105.1  529.8 
 429.790    132.7    105.1  529.8 
 429.810    132.7    103.9  529.8 
 429.830     33.9    103.9  529.8 
 429.850     33.9    103.9  529.8 
 429.870     33.9    103.9  529.8 
 429.890     33.9    103.9  529.8 
 429.910     33.9    102.6  529.8 
 429.930     99.7    102.6  529.8 
 429.950     99.7    102.6  529.8 
 429.970     99.7    102.6  529.8 
 429.990    165.6    102.6  529.8 
 430.010    165.6    101.3  531.6 
 430.030     99.7    101.3  531.6 
 430.050     99.7    101.3  531.6 
 430.070     99.7    101.3  531.6 
 430.090      1.0    101.3  531.6 
 430.110      1.0    100.0  529.8 
 430.130    132.7    100.0  529.8 
 430.150    132.7    100.0  529.8 
 430.170    132.7     99.3  531.6 
 430.190     66.8     99.3  531.6 
 430.210     66.8     99.3  531.6 
 430.230     66.8     99.3  529.8 
 430.250     66.8     99.3  529.8 
 430.270     66.8     99.3  529.8 
 430.290     99.7     99.3  529.8 
 430.310     99.7     99.3  529.8 
 430.330     99.7     99.3  529.8 
 430.350     66.8     99.3  529.8 
 430.370     66.8     98.6  529.8 
 430.390     66.8     98.6  529.8 
 430.410     66.8     98.6  529.8 
 430.430     66.8     98.6  531.6 
 430.450     66.8     98.6  531.6 
 430.470     66.8     98.6  531.6 
 430.490     66.8     98.6  531.6 
 430.510     33.9     98.6  531.6 
 430.530     33.9     97.9  529.8 
 430.550    165.6     97.9  529.8 
 430.570    165.6     97.9  531.6 
 430.590    165.6     97.9  531.6 
 430.610     99.7     97.9  531.6 
 430.630     99.7     97.2  533.3 
 430.650      1.0     97.2  533.3 
 430.670      1.0     97.2  533.3 
 430.690      1.0     97.2  531.6 
 430.710     33.9     97.2  531.6 
 430.730     33.9     96.5  533.3 
 430.750     33.9     96.5  533.3 
 430.770     99.7     96.5  533.3 
 430.790     99.7     95.8  533.3 
 430.810     33.9     95.8  533.3 
 430.830     33.9     95.8  535.1 
 430.850     33.9     95.8  535.1 
 430.870     99.7     95.8  535.1 
 430.890     99.7     95.1  535.1 
 430.910     66.8     95.1  535.1 
 430.930     66.8     95.1  535.1 
 430.950     66.8     95.1  535.1 
 430.970    231.4     95.1  535.1 
 430.990    231.4     93.7  535.1 
 431.010     99.7     93.7  535.1 
 431.030     99.7     93.0  535.1 
 431.050     99.7     93.0  535.1 
 431.070     99.7     93.0  535.1 
 431.090     99.7     91.6  535.1 
 431.110     66.8     91.6  535.1 
 431.130     66.8     91.6  535.1 
 431.150     66.8     90.1  536.9 
 431.170     33.9     90.1  536.9 
 431.190     33.9     90.8  533.3 
 431.210     33.9     90.8  533.3 
 431.230     99.7     90.8  533.3 
 431.250     99.7     90.1  533.3 
 431.270     99.7     90.1  533.3 
 431.290     99.7     90.8  531.6 
 431.310     99.7     90.8  531.6 
 431.330     99.7     90.8  531.6 
 431.350     99.7     90.8  531.6 
 431.370     66.8     90.8  531.6 
 431.390     66.8     90.8  531.6 
 431.410     66.8     91.6  531.6 
 431.430     33.9     91.6  531.6 
 431.450     33.9     92.3  529.8 
 431.470     33.9     92.3  529.8 
 431.490     66.8     92.3  529.8 
 431.510     66.8     92.3  529.8 
 431.530     33.9     92.3  529.8 
 431.550     33.9     93.0  528.0 
 431.570     33.9     93.0  528.0 
 431.590     66.8     93.0  528.0 
 431.610     66.8     93.0  528.0 
 431.630    165.6     93.0  528.0 
 431.650    165.6     93.0  528.0 
 431.670    165.6     94.4  528.0 
 431.690     66.8     94.4  528.0 
 431.710     66.8     95.1  528.0 
 431.730     99.7     95.1  528.0 
 431.750     99.7     95.1  528.0 
 431.770     99.7     96.5  528.0 
 431.790    132.7     96.5  528.0 
 431.810    132.7     96.5  528.0 
 431.830    132.7     96.5  528.0 
 431.850    132.7     96.5  528.0 
 431.870    132.7     97.2  529.8 
 431.890     99.7     97.2  529.8 
 431.910     99.7     96.5  528.0 
 431.930     99.7     96.5  528.0 
 431.950     99.7     96.5  528.0 
