~Version Information
 VERS.                2.0:  CWLS LOG ASCII STANDARD -VERSION 2.0
 WRAP.                 NO:  ONE LINE PER DEPTH STEP
~WELL INFORMATION BLOCK
#MNEM.UNIT       DATA		            DESCRIPTION OF MNEMONIC
#---------    -------------            ------------------------
 STRT.FT  6.050                          :START DEPTH
 STOP.FT  535.390                        :STOP DEPTH
 STEP.FT  0.020                          :STEP    UP_HOLE  
 NULL.    -999.25                        :NULL VALUE
 COMP.    CARLTON VL4282                 :COMPANY
 WELL.    278586                                                       :WELL
 FLD .    NORTHFIELD 71-B                :FIELD\LOCATION
 LOC .    31    112   19                 :LOCATION
 CNTY.    RICE                           :COUNTY
 STAT.                                   :STATE
 CTRY.    USA                            :COUNTRY
 SRVC.    TRUCK                          :SERVICE COMPANY
 DATE.    06/28/2018                     :LOG DATE
 API .                                       :API NUMBER
 LIC .                                   :LICENSE NUMBER
~Curve Information Block
#MNEM.UNIT      API CODE     Curve Description
#---------    -------------  ------------------------
 DEPT     .FT        00 001 00 00          :  1  DEPTH   
 GAMMA    .API-GR    00 310 00 00          :  2  GAMMA RAY           
 RES      .OHM       00 000 00 00          :  3  SINGLE POINT RES    
 SP       .MV        00 010 00 00          :  4  SPON POTENTIAL      
~Parameter Information Block
#MNEM.UNIT   Information     Description
#---------- ---------------  ------------------------
 FILE.      PROCESSED          :File Type
 FIID.      9060A              :File Type Identifier
 VERS.      3.60Q              :System Version
 SER .      1                  :System Serial Number
 TRUK.      0.0                :Truck Calibration Number
 TOOL.         202             :Tool Serial Number
 TIME.      1056               :Time    HrHrMinMin
 LAT .                         :Latitude
 LON .                         :Longitude
 LMF .      GL                 :Log Measured From
 DMF .                         :Driller Measured From
 PD  .                         :Permanent Data
 PDEV.FT                       :Elevation Permanent Data
 EKB .FT                       :Elevation Kelly Bushing
 ELEV.FT                       :Elevation DF
 EGL .FT     942 L1            :Elevation Ground Level
 DRDP.FT     53                :Driller's Depth
 CASD.FT    6                  :Casing Diameter
 CASB.FT                       :Casing Bottom
 CASX.                         :Casing Type
 CAST.IN    0                  :Casing Thickness
 TNOC.                         :Time Circulation Stopped
 LOGU.                         :Logging Unit
 RECB.      MAYER              :Recorded By
 OSR1.                         :Other Services
 OSR2.                         :Other Services
 OSR3.                         :Other Services
 BS  .IN           4           :Bit Size
 MST .F                        :Mean Surface Temperature
 TGRD.F     0                  :Temperature Gradiant
 MAGN.      0                  :Magnetic Declination
 MDEN.      2.84               :Density Matrix
 MATR.      DOLOMITE           :Neutron Matrix
 DTMT.      44                 :Delta T Matrix
 DTFL.                         :Delta T Fluid
 MUDS.      0                  :Mud Sample Source
 MRS .      0                  :Mud Resistivity
 MTP .      0                  :Mud Temperature
 MFRS.                         :Resistivity Mud Filtrate
 MFTP.                         :Temperature Mud Filtrate
 MCRS.      0                  :Resistivity Mud Cake
 MCTP.                         :Temperature Mud Cake
 FTYP.      0                  :Fluid Type
 FD  .LB/G     0               :Mud Weight
 DFV .S                        :Fluid Viscosity
 FPH .                         :Fuild PH
 ELCO.      2500               :Electron Cutoff
 CASL.IN    6                  :Casing Logger
 LOTD.FT                       :Logger TD
 ARTM.                         :Arrival Time
 DPTM.                         :Departure Time
 RIGN.                         :Rig Number
~Other Information
#MNEM.UNIT  Information      Description
#---------- ---------------  ------------------------
# -------------------------- 
~A DEPTH  GAMMA    RES      SP    
# ...
 285.410     33.9    120.5  528.0 
 285.430     33.9    120.5  528.0 
 285.450     66.8    121.8  533.3 
 285.470     66.8    121.8  533.3 
 285.490     66.8    121.8  535.1 
 285.510     33.9    121.8  535.1 
 285.530     33.9    121.8  535.1 
 285.550     33.9    120.5  536.9 
 285.570     33.9    120.5  536.9 
 285.590     33.9    121.8  535.1 
 285.610      1.0    121.8  535.1 
 285.630      1.0    121.8  535.1 
 285.650      1.0    121.8  536.9 
 285.670      1.0    121.8  536.9 
 285.690      1.0    121.8  536.9 
 285.710      1.0    121.8  536.9 
 285.730      1.0    121.8  536.9 
 285.750      1.0    121.8  536.9 
 285.770      1.0    121.8  536.9 
 285.790      1.0    121.8  536.9 
 285.810      1.0    121.8  536.9 
 285.830      1.0    121.8  536.9 
 285.850      1.0    121.8  536.9 
 285.870      1.0    121.8  536.9 
 285.890      1.0    121.8  536.9 
 285.910      1.0    121.8  536.9 
 285.930      1.0    121.8  536.9 
 285.950      1.0    121.8  535.1 
 285.970      1.0    121.8  535.1 
 285.990      1.0    121.8  535.1 
 286.010     33.9    121.8  535.1 
 286.030     33.9    121.8  535.1 
 286.050     33.9    121.8  535.1 
 286.070     33.9    121.8  535.1 
 286.090     33.9    121.8  535.1 
 286.110      1.0    123.1  535.1 
 286.130      1.0    123.1  535.1 
 286.150      1.0    121.8  533.3 
 286.170      1.0    121.8  533.3 
 286.190      1.0    121.8  533.3 
 286.210      1.0    121.8  533.3 
 286.230      1.0    121.8  533.3 
 286.250      1.0    123.1  533.3 
 286.270     33.9    123.1  533.3 
 286.290     33.9    123.1  533.3 
 286.310     66.8    121.8  533.3 
 286.330     66.8    121.8  533.3 
 286.350     66.8    121.8  535.1 
 286.370      1.0    121.8  535.1 
 286.390      1.0    121.8  535.1 
 286.410     66.8    121.8  535.1 
 286.430     66.8    121.8  535.1 
 286.450     66.8    123.1  533.3 
 286.470     33.9    123.1  533.3 
 286.490     33.9    123.1  533.3 
 286.510      1.0    121.8  533.3 
 286.530      1.0    121.8  533.3 
 286.550      1.0    121.8  531.6 
 286.570     66.8    121.8  531.6 
 286.590     66.8    121.8  531.6 
 286.610      1.0    121.8  529.8 
 286.630      1.0    121.8  529.8 
 286.650      1.0    121.8  528.0 
 286.670      1.0    121.8  528.0 
 286.690      1.0    121.8  528.0 
 286.710      1.0    121.8  529.8 
 286.730      1.0    121.8  529.8 
 286.750      1.0    120.5  529.8 
 286.770      1.0    120.5  529.8 
 286.790      1.0    120.5  529.8 
 286.810     33.9    121.8  528.0 
 286.830     33.9    121.8  528.0 
 286.850     33.9    121.8  529.8 
 286.870      1.0    121.8  529.8 
 286.890      1.0    121.8  529.8 
 286.910     33.9    120.5  528.0 
 286.930     33.9    120.5  528.0 
 286.950     33.9    121.8  529.8 
 286.970     33.9    121.8  529.8 
 286.990     33.9    121.8  529.8 
 287.010     33.9    121.8  531.6 
 287.030     33.9    121.8  531.6 
 287.050     33.9    120.5  533.3 
 287.070      1.0    120.5  533.3 
 287.090      1.0    120.5  533.3 
 287.110      1.0    120.5  533.3 
 287.130      1.0    120.5  533.3 
 287.150      1.0    120.5  533.3 
 287.170      1.0    121.8  531.6 
 287.190      1.0    121.8  531.6 
 287.210      1.0    121.8  531.6 
 287.230      1.0    121.8  531.6 
 287.250      1.0    121.8  531.6 
 287.270      1.0    120.5  531.6 
 287.290      1.0    120.5  531.6 
 287.310      1.0    121.8  533.3 
 287.330      1.0    121.8  533.3 
 287.350      1.0    121.8  533.3 
 287.370      1.0    120.5  529.8 
 287.390      1.0    120.5  529.8 
 287.410      1.0    120.5  528.0 
 287.430      1.0    120.5  528.0 
 287.450      1.0    120.5  528.0 
 287.470      1.0    121.8  526.3 
 287.490      1.0    121.8  526.3 
 287.510      1.0    120.5  524.5 
 287.530      1.0    120.5  524.5 
 287.550      1.0    120.5  524.5 
 287.570     33.9    119.3  524.5 
 287.590     33.9    119.3  524.5 
 287.610     33.9    120.5  524.5 
 287.630      1.0    120.5  524.5 
 287.650      1.0    120.5  524.5 
 287.670      1.0    119.3  526.3 
 287.690      1.0    119.3  526.3 
 287.710      1.0    120.5  526.3 
 287.730     33.9    120.5  526.3 
 287.750     33.9    120.5  526.3 
 287.770      1.0    119.3  526.3 
 287.790      1.0    119.3  526.3 
 287.810      1.0    118.0  524.5 
 287.830      1.0    118.0  524.5 
 287.850      1.0    118.0  524.5 
 287.870      1.0    119.3  522.7 
 287.890      1.0    119.3  522.7 
 287.910      1.0    119.3  520.9 
 287.930     66.8    119.3  520.9 
 287.950     66.8    119.3  520.9 
 287.970      1.0    119.3  522.7 
 287.990      1.0    119.3  522.7 
 288.010      1.0    119.3  520.9 
 288.030      1.0    119.3  520.9 
 288.050      1.0    119.3  520.9 
 288.070      1.0    119.3  519.2 
 288.090      1.0    119.3  519.2 
 288.110      1.0    119.3  519.2 
 288.130      1.0    119.3  517.4 
 288.150      1.0    119.3  517.4 
 288.170     33.9    118.0  517.4 
 288.190     33.9    118.0  517.4 
 288.210     33.9    118.0  517.4 
 288.230     33.9    119.3  515.6 
 288.250     33.9    119.3  515.6 
 288.270      1.0    118.0  517.4 
 288.290      1.0    118.0  517.4 
 288.310      1.0    118.0  517.4 
 288.330     33.9    118.0  519.2 
 288.350     33.9    118.0  519.2 
 288.370     33.9    119.3  520.9 
 288.390    165.6    119.3  520.9 
 288.410    165.6    119.3  520.9 
 288.430     66.8    119.3  522.7 
 288.450     66.8    119.3  522.7 
 288.470     66.8    119.3  522.7 
 288.490      1.0    119.3  522.7 
 288.510      1.0    119.3  522.7 
 288.530     33.9    119.3  522.7 
 288.550     33.9    119.3  522.7 
 288.570     33.9    120.5  519.2 
 288.590     66.8    120.5  519.2 
 288.610     66.8    120.5  519.2 
 288.630      1.0    120.5  519.2 
 288.650      1.0    120.5  519.2 
 288.670      1.0    121.8  512.1 
 288.690     33.9    121.8  512.1 
 288.710     33.9    121.8  512.1 
 288.730     33.9    121.8  508.5 
 288.750     33.9    121.8  508.5 
 288.770     33.9    121.8  505.0 
 288.790      1.0    121.8  505.0 
 288.810      1.0    121.8  505.0 
 288.830      1.0    123.1  503.2 
 288.850      1.0    123.1  503.2 
 288.870      1.0    123.1  503.2 
 288.890     33.9    123.1  503.2 
 288.910     33.9    123.1  503.2 
 288.930     33.9    123.1  505.0 
 288.950     33.9    123.1  505.0 
 288.970     33.9    124.4  506.8 
 288.990      1.0    124.4  506.8 
 289.010      1.0    124.4  506.8 
 289.030      1.0    124.4  510.3 
 289.050      1.0    124.4  510.3 
 289.070      1.0    125.7  512.1 
 289.090     66.8    125.7  512.1 
 289.110     66.8    125.7  512.1 
 289.130     66.8    124.4  513.9 
 289.150     66.8    124.4  513.9 
 289.170     66.8    125.7  517.4 
 289.190     33.9    125.7  517.4 
 289.210     33.9    125.7  517.4 
 289.230     33.9    125.7  519.2 
 289.250     66.8    125.7  519.2 
 289.270     66.8    125.7  519.2 
 289.290     66.8    125.7  520.9 
 289.310     66.8    125.7  520.9 
 289.330     66.8    127.0  520.9 
 289.350     33.9    127.0  520.9 
 289.370     33.9    127.0  520.9 
 289.390     99.7    125.7  517.4 
 289.410     99.7    125.7  517.4 
 289.430     99.7    127.0  517.4 
 289.450     33.9    127.0  517.4 
 289.470     33.9    127.0  517.4 
 289.490      1.0    125.7  513.9 
 289.510      1.0    125.7  513.9 
 289.530      1.0    127.0  515.6 
 289.550      1.0    127.0  515.6 
 289.570      1.0    127.0  515.6 
 289.590     33.9    127.0  515.6 
 289.610     33.9    127.0  515.6 
 289.630     33.9    127.0  517.4 
 289.650      1.0    127.0  517.4 
 289.670      1.0    127.0  517.4 
 289.690     33.9    127.0  517.4 
 289.710     33.9    127.0  517.4 
 289.730     33.9    125.7  515.6 
 289.750      1.0    125.7  515.6 
 289.770      1.0    125.7  515.6 
 289.790     66.8    127.0  515.6 
 289.810     66.8    127.0  515.6 
 289.830     66.8    127.0  515.6 
 289.850     33.9    127.0  517.4 
 289.870     33.9    127.0  517.4 
 289.890      1.0    127.0  515.6 
 289.910      1.0    127.0  515.6 
 289.930      1.0    127.0  515.6 
 289.950     99.7    127.0  513.9 
 289.970     99.7    127.0  513.9 
