~Version Information
 VERS.                2.0:  CWLS LOG ASCII STANDARD -VERSION 2.0
 WRAP.                 NO:  ONE LINE PER DEPTH STEP
~WELL INFORMATION BLOCK
#MNEM.UNIT       DATA		            DESCRIPTION OF MNEMONIC
#---------    -------------            ------------------------
 STRT.FT  6.050                          :START DEPTH
 STOP.FT  535.390                        :STOP DEPTH
 STEP.FT  0.020                          :STEP    UP_HOLE  
 NULL.    -999.25                        :NULL VALUE
 COMP.    CARLTON VL4282                 :COMPANY
 WELL.    278586                                                       :WELL
 FLD .    NORTHFIELD 71-B                :FIELD\LOCATION
 LOC .    31    112   19                 :LOCATION
 CNTY.    RICE                           :COUNTY
 STAT.                                   :STATE
 CTRY.    USA                            :COUNTRY
 SRVC.    TRUCK                          :SERVICE COMPANY
 DATE.    06/28/2018                     :LOG DATE
 API .                                       :API NUMBER
 LIC .                                   :LICENSE NUMBER
~Curve Information Block
#MNEM.UNIT      API CODE     Curve Description
#---------    -------------  ------------------------
 DEPT     .FT        00 001 00 00          :  1  DEPTH   
 GAMMA    .API-GR    00 310 00 00          :  2  GAMMA RAY           
 RES      .OHM       00 000 00 00          :  3  SINGLE POINT RES    
 SP       .MV        00 010 00 00          :  4  SPON POTENTIAL      
~Parameter Information Block
#MNEM.UNIT   Information     Description
#---------- ---------------  ------------------------
 FILE.      PROCESSED          :File Type
 FIID.      9060A              :File Type Identifier
 VERS.      3.60Q              :System Version
 SER .      1                  :System Serial Number
 TRUK.      0.0                :Truck Calibration Number
 TOOL.         202             :Tool Serial Number
 TIME.      1056               :Time    HrHrMinMin
 LAT .                         :Latitude
 LON .                         :Longitude
 LMF .      GL                 :Log Measured From
 DMF .                         :Driller Measured From
 PD  .                         :Permanent Data
 PDEV.FT                       :Elevation Permanent Data
 EKB .FT                       :Elevation Kelly Bushing
 ELEV.FT                       :Elevation DF
 EGL .FT     942 L1            :Elevation Ground Level
 DRDP.FT     53                :Driller's Depth
 CASD.FT    6                  :Casing Diameter
 CASB.FT                       :Casing Bottom
 CASX.                         :Casing Type
 CAST.IN    0                  :Casing Thickness
 TNOC.                         :Time Circulation Stopped
 LOGU.                         :Logging Unit
 RECB.      MAYER              :Recorded By
 OSR1.                         :Other Services
 OSR2.                         :Other Services
 OSR3.                         :Other Services
 BS  .IN           4           :Bit Size
 MST .F                        :Mean Surface Temperature
 TGRD.F     0                  :Temperature Gradiant
 MAGN.      0                  :Magnetic Declination
 MDEN.      2.84               :Density Matrix
 MATR.      DOLOMITE           :Neutron Matrix
 DTMT.      44                 :Delta T Matrix
 DTFL.                         :Delta T Fluid
 MUDS.      0                  :Mud Sample Source
 MRS .      0                  :Mud Resistivity
 MTP .      0                  :Mud Temperature
 MFRS.                         :Resistivity Mud Filtrate
 MFTP.                         :Temperature Mud Filtrate
 MCRS.      0                  :Resistivity Mud Cake
 MCTP.                         :Temperature Mud Cake
 FTYP.      0                  :Fluid Type
 FD  .LB/G     0               :Mud Weight
 DFV .S                        :Fluid Viscosity
 FPH .                         :Fuild PH
 ELCO.      2500               :Electron Cutoff
 CASL.IN    6                  :Casing Logger
 LOTD.FT                       :Logger TD
 ARTM.                         :Arrival Time
 DPTM.                         :Departure Time
 RIGN.                         :Rig Number
~Other Information
#MNEM.UNIT  Information      Description
#---------- ---------------  ------------------------
# -------------------------- 
~A DEPTH  GAMMA    RES      SP    
# ...
 216.710      1.0    238.6  405.8 
 216.730     33.9    238.6  405.8 
 216.750     33.9    237.3  405.8 
 216.770      1.0    237.3  405.8 
 216.790      1.0    238.6  405.8 
 216.810      1.0    238.6  405.8 
 216.830     33.9    238.6  405.8 
 216.850     33.9    239.9  404.1 
 216.870     33.9    239.9  404.1 
 216.890     33.9    238.6  400.5 
 216.910     33.9    238.6  400.5 
 216.930     66.8    238.6  400.5 
 216.950     66.8    238.6  400.5 
 216.970      1.0    238.6  400.5 
 216.990      1.0    238.6  400.5 
 217.010      1.0    239.9  400.5 
 217.030      1.0    239.9  400.5 
 217.050      1.0    238.6  400.5 
 217.070      1.0    238.6  400.5 
 217.090      1.0    238.6  400.5 
 217.110      1.0    238.6  400.5 
 217.130      1.0    238.6  400.5 
 217.150      1.0    239.9  402.3 
 217.170      1.0    239.9  402.3 
 217.190     66.8    239.9  402.3 
 217.210     66.8    238.6  400.5 
 217.230     33.9    238.6  400.5 
 217.250     33.9    238.6  400.5 
 217.270     33.9    238.6  400.5 
 217.290     66.8    238.6  400.5 
 217.310     66.8    237.3  398.8 
 217.330     66.8    237.3  398.8 
 217.350     66.8    237.3  398.8 
 217.370     66.8    238.6  397.0 
 217.390      1.0    238.6  397.0 
 217.410      1.0    238.6  398.8 
 217.430      1.0    238.6  398.8 
 217.450     33.9    238.6  398.8 
 217.470     33.9    238.6  397.0 
 217.490     33.9    238.6  397.0 
 217.510     33.9    238.6  397.0 
 217.530     33.9    238.6  398.8 
 217.550     33.9    238.6  398.8 
 217.570     33.9    237.3  398.8 
 217.590      1.0    237.3  398.8 
 217.610      1.0    237.3  398.8 
 217.630      1.0    237.3  398.8 
 217.650     33.9    237.3  398.8 
 217.670     33.9    236.0  402.3 
 217.690     33.9    236.0  402.3 
 217.710     33.9    236.0  402.3 
 217.730     33.9    236.0  402.3 
 217.750      1.0    236.0  402.3 
 217.770      1.0    236.0  402.3 
 217.790      1.0    236.0  402.3 
 217.810      1.0    236.0  402.3 
 217.830      1.0    236.0  405.8 
 217.850      1.0    236.0  405.8 
 217.870      1.0    234.8  407.6 
 217.890      1.0    234.8  407.6 
 217.910      1.0    234.8  407.6 
 217.930      1.0    234.8  405.8 
 217.950      1.0    234.8  405.8 
 217.970      1.0    233.5  405.8 
 217.990      1.0    233.5  405.8 
 218.010      1.0    233.5  405.8 
 218.030      1.0    233.5  407.6 
 218.050     66.8    233.5  407.6 
 218.070     66.8    233.5  407.6 
 218.090     66.8    233.5  407.6 
 218.110     33.9    233.5  407.6 
 218.130     33.9    232.2  407.6 
 218.150     33.9    232.2  407.6 
 218.170     33.9    232.2  407.6 
 218.190     33.9    232.2  409.4 
 218.210     33.9    232.2  409.4 
 218.230     33.9    232.2  409.4 
 218.250      1.0    232.2  409.4 
 218.270      1.0    232.2  409.4 
 218.290      1.0    230.9  411.2 
 218.310      1.0    230.9  411.2 
 218.330      1.0    230.9  411.2 
 218.350     33.9    232.2  409.4 
 218.370     33.9    232.2  409.4 
 218.390     33.9    230.9  411.2 
 218.410     33.9    230.9  411.2 
 218.430     33.9    230.9  411.2 
 218.450     33.9    230.9  412.9 
 218.470     33.9    230.9  412.9 
 218.490     33.9    229.6  412.9 
 218.510     33.9    229.6  412.9 
 218.530     33.9    229.6  412.9 
 218.550     33.9    229.6  412.9 
 218.570     66.8    229.6  412.9 
 218.590     66.8    228.3  414.7 
 218.610     33.9    228.3  414.7 
 218.630     33.9    228.3  414.7 
 218.650     33.9    228.3  416.5 
 218.670     66.8    228.3  416.5 
 218.690     66.8    227.1  416.5 
 218.710      1.0    227.1  416.5 
 218.730      1.0    227.1  416.5 
 218.750      1.0    227.1  418.2 
 218.770      1.0    227.1  418.2 
 218.790      1.0    227.1  418.2 
 218.810      1.0    227.1  418.2 
 218.830      1.0    227.1  418.2 
 218.850      1.0    225.8  420.0 
 218.870      1.0    225.8  420.0 
 218.890      1.0    225.8  420.0 
 218.910      1.0    224.5  418.2 
 218.930      1.0    224.5  418.2 
 218.950      1.0    224.5  420.0 
 218.970      1.0    224.5  420.0 
 218.990      1.0    224.5  420.0 
 219.010      1.0    223.2  418.2 
 219.030      1.0    223.2  418.2 
 219.050      1.0    223.2  416.5 
 219.070      1.0    223.2  416.5 
 219.090      1.0    223.2  416.5 
 219.110      1.0    223.2  412.9 
 219.130     33.9    223.2  412.9 
 219.150     33.9    223.2  414.7 
 219.170     33.9    223.2  414.7 
 219.190     33.9    223.2  414.7 
 219.210     33.9    221.9  412.9 
 219.230      1.0    221.9  412.9 
 219.250      1.0    223.2  416.5 
 219.270      1.0    223.2  416.5 
 219.290     33.9    223.2  416.5 
 219.310     33.9    221.9  414.7 
 219.330     33.9    221.9  414.7 
 219.350     33.9    221.9  414.7 
 219.370     33.9    223.2  416.5 
 219.390     33.9    223.2  416.5 
 219.410     33.9    223.2  416.5 
 219.430     33.9    223.2  416.5 
 219.450     33.9    223.2  416.5 
 219.470     33.9    223.2  420.0 
 219.490     33.9    223.2  420.0 
 219.510     33.9    223.2  420.0 
 219.530      1.0    223.2  420.0 
 219.550      1.0    223.2  420.0 
 219.570      1.0    223.2  421.8 
 219.590      1.0    223.2  421.8 
 219.610      1.0    223.2  423.6 
 219.630      1.0    223.2  423.6 
 219.650      1.0    223.2  423.6 
 219.670      1.0    223.2  420.0 
 219.690     66.8    223.2  420.0 
 219.710     66.8    223.2  420.0 
 219.730     66.8    224.5  416.5 
 219.750      1.0    224.5  416.5 
 219.770      1.0    223.2  414.7 
 219.790     33.9    223.2  414.7 
 219.810     33.9    223.2  414.7 
 219.830     33.9    223.2  414.7 
 219.850     33.9    223.2  414.7 
 219.870     33.9    224.5  414.7 
 219.890     66.8    224.5  414.7 
 219.910     66.8    224.5  414.7 
 219.930     66.8    224.5  416.5 
 219.950      1.0    224.5  416.5 
 219.970      1.0    224.5  416.5 
 219.990      1.0    224.5  414.7 
 220.010     33.9    224.5  414.7 
 220.030     33.9    224.5  414.7 
 220.050     66.8    224.5  414.7 
 220.070     66.8    224.5  414.7 
 220.090     66.8    224.5  412.9 
 220.110     33.9    224.5  412.9 
 220.130     33.9    225.8  412.9 
 220.150      1.0    225.8  412.9 
 220.170      1.0    225.8  412.9 
 220.190      1.0    224.5  414.7 
 220.210     66.8    224.5  414.7 
 220.230     66.8    225.8  414.7 
 220.250     66.8    225.8  414.7 
 220.270     66.8    225.8  414.7 
 220.290     66.8    225.8  418.2 
 220.310    132.7    225.8  418.2 
 220.330    132.7    225.8  416.5 
 220.350    132.7    225.8  416.5 
 220.370     33.9    225.8  416.5 
 220.390     33.9    227.1  416.5 
 220.410      1.0    227.1  416.5 
 220.430      1.0    225.8  416.5 
 220.450      1.0    225.8  416.5 
 220.470     66.8    225.8  416.5 
 220.490     66.8    225.8  418.2 
 220.510      1.0    225.8  418.2 
 220.530      1.0    225.8  418.2 
 220.550      1.0    227.1  418.2 
 220.570     33.9    227.1  418.2 
 220.590     33.9    227.1  420.0 
 220.610     33.9    227.1  420.0 
 220.630     33.9    227.1  420.0 
 220.650     33.9    227.1  421.8 
 220.670     33.9    227.1  421.8 
 220.690     33.9    228.3  420.0 
 220.710     66.8    228.3  420.0 
 220.730     66.8    228.3  420.0 
 220.750     66.8    228.3  418.2 
 220.770      1.0    228.3  418.2 
 220.790      1.0    229.6  418.2 
 220.810     33.9    229.6  418.2 
 220.830     33.9    229.6  418.2 
 220.850     33.9    228.3  416.5 
 220.870     66.8    228.3  416.5 
 220.890     66.8    228.3  416.5 
 220.910      1.0    229.6  414.7 
 220.930      1.0    229.6  414.7 
 220.950      1.0    229.6  416.5 
 220.970      1.0    229.6  416.5 
 220.990      1.0    229.6  416.5 
 221.010      1.0    230.9  418.2 
 221.030      1.0    230.9  418.2 
 221.050      1.0    232.2  416.5 
 221.070     66.8    232.2  416.5 
 221.090     66.8    232.2  416.5 
 221.110     66.8    232.2  414.7 
 221.130     33.9    232.2  414.7 
 221.150     33.9    232.2  411.2 
 221.170      1.0    232.2  411.2 
 221.190      1.0    232.2  411.2 
 221.210      1.0    233.5  411.2 
 221.230      1.0    233.5  411.2 
 221.250      1.0    233.5  411.2 
 221.270      1.0    234.8  411.2 
