~Version Information
 VERS.                2.0:  CWLS LOG ASCII STANDARD -VERSION 2.0
 WRAP.                 NO:  ONE LINE PER DEPTH STEP
~WELL INFORMATION BLOCK
#MNEM.UNIT       DATA		            DESCRIPTION OF MNEMONIC
#---------    -------------            ------------------------
 STRT.FT  6.050                          :START DEPTH
 STOP.FT  535.390                        :STOP DEPTH
 STEP.FT  0.020                          :STEP    UP_HOLE  
 NULL.    -999.25                        :NULL VALUE
 COMP.    CARLTON VL4282                 :COMPANY
 WELL.    278586                                                       :WELL
 FLD .    NORTHFIELD 71-B                :FIELD\LOCATION
 LOC .    31    112   19                 :LOCATION
 CNTY.    RICE                           :COUNTY
 STAT.                                   :STATE
 CTRY.    USA                            :COUNTRY
 SRVC.    TRUCK                          :SERVICE COMPANY
 DATE.    06/28/2018                     :LOG DATE
 API .                                       :API NUMBER
 LIC .                                   :LICENSE NUMBER
~Curve Information Block
#MNEM.UNIT      API CODE     Curve Description
#---------    -------------  ------------------------
 DEPT     .FT        00 001 00 00          :  1  DEPTH   
 GAMMA    .API-GR    00 310 00 00          :  2  GAMMA RAY           
 RES      .OHM       00 000 00 00          :  3  SINGLE POINT RES    
 SP       .MV        00 010 00 00          :  4  SPON POTENTIAL      
~Parameter Information Block
#MNEM.UNIT   Information     Description
#---------- ---------------  ------------------------
 FILE.      PROCESSED          :File Type
 FIID.      9060A              :File Type Identifier
 VERS.      3.60Q              :System Version
 SER .      1                  :System Serial Number
 TRUK.      0.0                :Truck Calibration Number
 TOOL.         202             :Tool Serial Number
 TIME.      1056               :Time    HrHrMinMin
 LAT .                         :Latitude
 LON .                         :Longitude
 LMF .      GL                 :Log Measured From
 DMF .                         :Driller Measured From
 PD  .                         :Permanent Data
 PDEV.FT                       :Elevation Permanent Data
 EKB .FT                       :Elevation Kelly Bushing
 ELEV.FT                       :Elevation DF
 EGL .FT     942 L1            :Elevation Ground Level
 DRDP.FT     53                :Driller's Depth
 CASD.FT    6                  :Casing Diameter
 CASB.FT                       :Casing Bottom
 CASX.                         :Casing Type
 CAST.IN    0                  :Casing Thickness
 TNOC.                         :Time Circulation Stopped
 LOGU.                         :Logging Unit
 RECB.      MAYER              :Recorded By
 OSR1.                         :Other Services
 OSR2.                         :Other Services
 OSR3.                         :Other Services
 BS  .IN           4           :Bit Size
 MST .F                        :Mean Surface Temperature
 TGRD.F     0                  :Temperature Gradiant
 MAGN.      0                  :Magnetic Declination
 MDEN.      2.84               :Density Matrix
 MATR.      DOLOMITE           :Neutron Matrix
 DTMT.      44                 :Delta T Matrix
 DTFL.                         :Delta T Fluid
 MUDS.      0                  :Mud Sample Source
 MRS .      0                  :Mud Resistivity
 MTP .      0                  :Mud Temperature
 MFRS.                         :Resistivity Mud Filtrate
 MFTP.                         :Temperature Mud Filtrate
 MCRS.      0                  :Resistivity Mud Cake
 MCTP.                         :Temperature Mud Cake
 FTYP.      0                  :Fluid Type
 FD  .LB/G     0               :Mud Weight
 DFV .S                        :Fluid Viscosity
 FPH .                         :Fuild PH
 ELCO.      2500               :Electron Cutoff
 CASL.IN    6                  :Casing Logger
 LOTD.FT                       :Logger TD
 ARTM.                         :Arrival Time
 DPTM.                         :Departure Time
 RIGN.                         :Rig Number
~Other Information
#MNEM.UNIT  Information      Description
#---------- ---------------  ------------------------
# -------------------------- 
~A DEPTH  GAMMA    RES      SP    
# ...
 322.050      1.0    102.6  529.8 
 322.070      1.0    102.6  529.8 
 322.090      1.0    101.3  529.8 
 322.110      1.0    101.3  529.8 
 322.130      1.0    100.0  528.0 
 322.150      1.0    100.0  528.0 
 322.170      1.0    100.0  528.0 
 322.190     66.8    100.0  528.0 
 322.210     66.8    100.0  528.0 
 322.230     66.8    100.0  528.0 
 322.250      1.0    100.0  528.0 
 322.270      1.0    100.0  528.0 
 322.290      1.0    100.0  528.0 
 322.310      1.0    100.0  528.0 
 322.330      1.0    101.3  528.0 
 322.350      1.0    101.3  528.0 
 322.370      1.0    101.3  528.0 
 322.390      1.0    101.3  529.8 
 322.410      1.0    101.3  529.8 
 322.430      1.0    101.3  529.8 
 322.450      1.0    102.6  529.8 
 322.470      1.0    102.6  529.8 
 322.490      1.0    101.3  528.0 
 322.510      1.0    101.3  528.0 
 322.530      1.0    101.3  528.0 
 322.550      1.0    102.6  529.8 
 322.570      1.0    102.6  529.8 
 322.590      1.0    102.6  528.0 
 322.610      1.0    102.6  528.0 
 322.630      1.0    102.6  528.0 
 322.650      1.0    102.6  529.8 
 322.670      1.0    102.6  529.8 
 322.690      1.0    102.6  528.0 
 322.710      1.0    102.6  528.0 
 322.730      1.0    102.6  528.0 
 322.750      1.0    102.6  526.3 
 322.770      1.0    102.6  526.3 
 322.790      1.0    102.6  524.5 
 322.810      1.0    102.6  524.5 
 322.830      1.0    102.6  524.5 
 322.850     33.9    102.6  524.5 
 322.870     33.9    102.6  524.5 
 322.890     33.9    102.6  522.7 
 322.910      1.0    102.6  522.7 
 322.930      1.0    102.6  522.7 
 322.950      1.0    102.6  526.3 
 322.970      1.0    102.6  526.3 
 322.990      1.0    102.6  528.0 
 323.010     33.9    102.6  528.0 
 323.030     33.9    102.6  528.0 
 323.050      1.0    102.6  531.6 
 323.070      1.0    102.6  531.6 
 323.090      1.0    102.6  533.3 
 323.110     33.9    102.6  533.3 
 323.130     33.9    102.6  533.3 
 323.150     33.9    102.6  533.3 
 323.170      1.0    102.6  533.3 
 323.190      1.0    101.3  531.6 
 323.210      1.0    101.3  531.6 
 323.230      1.0    101.3  531.6 
 323.250      1.0    102.6  533.3 
 323.270      1.0    102.6  533.3 
 323.290      1.0    101.3  531.6 
 323.310     33.9    101.3  531.6 
 323.330     33.9    101.3  531.6 
 323.350     33.9    102.6  529.8 
 323.370     66.8    102.6  529.8 
 323.390     66.8    102.6  528.0 
 323.410      1.0    102.6  528.0 
 323.430      1.0    102.6  528.0 
 323.450      1.0    101.3  526.3 
 323.470      1.0    101.3  526.3 
 323.490      1.0    102.6  528.0 
 323.510      1.0    102.6  528.0 
 323.530      1.0    102.6  528.0 
 323.550      1.0    101.3  528.0 
 323.570      1.0    101.3  528.0 
 323.590      1.0    101.3  528.0 
 323.610      1.0    102.6  528.0 
 323.630      1.0    102.6  528.0 
 323.650      1.0    102.6  528.0 
 323.670      1.0    102.6  528.0 
 323.690      1.0    102.6  528.0 
 323.710      1.0    102.6  526.3 
 323.730      1.0    102.6  526.3 
 323.750      1.0    101.3  524.5 
 323.770      1.0    101.3  524.5 
 323.790      1.0    101.3  524.5 
 323.810      1.0    102.6  524.5 
 323.830      1.0    102.6  524.5 
 323.850      1.0    102.6  524.5 
 323.870     33.9    102.6  524.5 
 323.890     33.9    102.6  524.5 
 323.910     33.9    101.3  522.7 
 323.930      1.0    101.3  522.7 
 323.950      1.0    102.6  522.7 
 323.970     33.9    102.6  522.7 
 323.990     33.9    102.6  522.7 
 324.010     33.9    101.3  522.7 
 324.030      1.0    101.3  522.7 
 324.050      1.0    101.3  522.7 
 324.070      1.0    102.6  524.5 
 324.090      1.0    102.6  524.5 
 324.110      1.0    101.3  522.7 
 324.130      1.0    101.3  522.7 
 324.150      1.0    101.3  522.7 
 324.170      1.0    101.3  526.3 
 324.190      1.0    101.3  526.3 
 324.210      1.0    101.3  526.3 
 324.230     33.9    101.3  526.3 
 324.250     33.9    101.3  526.3 
 324.270      1.0    101.3  529.8 
 324.290      1.0    101.3  529.8 
 324.310      1.0    101.3  529.8 
 324.330      1.0    101.3  529.8 
 324.350      1.0    101.3  529.8 
 324.370      1.0    101.3  533.3 
 324.390      1.0    101.3  533.3 
 324.410      1.0    101.3  533.3 
 324.430      1.0    101.3  533.3 
 324.450      1.0    101.3  533.3 
 324.470      1.0    100.0  533.3 
 324.490     33.9    100.0  533.3 
 324.510     33.9    101.3  535.1 
 324.530     33.9    101.3  535.1 
 324.550     33.9    101.3  535.1 
 324.570     33.9    101.3  533.3 
 324.590      1.0    101.3  533.3 
 324.610      1.0    101.3  535.1 
 324.630      1.0    101.3  535.1 
 324.650      1.0    101.3  535.1 
 324.670      1.0    101.3  533.3 
 324.690      1.0    101.3  533.3 
 324.710      1.0    101.3  531.6 
 324.730     33.9    101.3  531.6 
 324.750     33.9    101.3  531.6 
 324.770     33.9    100.0  531.6 
 324.790      1.0    100.0  531.6 
 324.810      1.0    100.0  531.6 
 324.830      1.0    101.3  533.3 
 324.850      1.0    101.3  533.3 
 324.870      1.0    101.3  531.6 
 324.890     33.9    101.3  531.6 
 324.910     33.9    101.3  531.6 
 324.930      1.0    100.0  531.6 
 324.950      1.0    100.0  531.6 
 324.970      1.0    101.3  533.3 
 324.990      1.0    101.3  533.3 
 325.010      1.0    101.3  533.3 
 325.030     33.9    100.0  531.6 
 325.050     33.9    100.0  531.6 
 325.070     33.9    101.3  531.6 
 325.090     66.8    101.3  531.6 
 325.110     66.8    101.3  531.6 
 325.130     66.8    100.0  531.6 
 325.150     66.8    100.0  531.6 
 325.170     66.8    101.3  531.6 
 325.190      1.0    101.3  531.6 
 325.210      1.0    101.3  531.6 
 325.230     33.9    100.0  533.3 
 325.250     33.9    100.0  533.3 
 325.270     33.9    101.3  535.1 
 325.290      1.0    101.3  535.1 
 325.310      1.0    101.3  535.1 
 325.330      1.0    100.0  536.9 
 325.350      1.0    100.0  536.9 
 325.370      1.0    100.0  536.9 
 325.390     33.9    100.0  535.1 
 325.410     33.9    100.0  535.1 
 325.430     33.9    100.0  535.1 
 325.450      1.0    100.0  535.1 
 325.470      1.0    100.0  535.1 
 325.490      1.0    100.0  536.9 
 325.510      1.0    100.0  536.9 
 325.530      1.0    100.0  535.1 
 325.550      1.0    100.0  535.1 
 325.570      1.0    100.0  535.1 
 325.590      1.0    100.0  533.3 
 325.610      1.0    100.0  533.3 
 325.630      1.0    100.0  535.1 
 325.650      1.0    100.0  535.1 
 325.670      1.0    100.0  535.1 
 325.690      1.0    101.3  533.3 
 325.710      1.0    101.3  533.3 
 325.730      1.0     99.3  535.1 
 325.750      1.0     99.3  535.1 
 325.770      1.0     99.3  535.1 
 325.790      1.0    100.0  536.9 
 325.810      1.0    100.0  536.9 
 325.830      1.0    100.0  536.9 
 325.850      1.0    100.0  536.9 
 325.870      1.0    100.0  536.9 
 325.890      1.0     99.3  538.6 
 325.910      1.0     99.3  538.6 
 325.930      1.0     98.6  538.6 
 325.950      1.0     98.6  538.6 
 325.970      1.0     98.6  538.6 
 325.990      1.0     99.3  536.9 
 326.010      1.0     99.3  536.9 
 326.030      1.0    100.0  535.1 
 326.050      1.0    100.0  535.1 
 326.070      1.0    100.0  535.1 
 326.090      1.0     99.3  535.1 
 326.110      1.0     99.3  535.1 
 326.130      1.0     98.6  533.3 
 326.150      1.0     98.6  533.3 
 326.170      1.0     98.6  533.3 
 326.190      1.0     98.6  531.6 
 326.210      1.0     98.6  531.6 
 326.230      1.0     98.6  531.6 
 326.250     33.9     98.6  529.8 
 326.270     33.9     98.6  529.8 
 326.290     33.9     98.6  528.0 
 326.310     33.9     98.6  528.0 
 326.330     33.9     98.6  528.0 
 326.350     33.9     99.3  526.3 
 326.370     33.9     99.3  526.3 
 326.390     33.9    100.0  526.3 
 326.410      1.0    100.0  526.3 
 326.430      1.0    100.0  526.3 
 326.450      1.0    100.0  526.3 
 326.470      1.0    100.0  526.3 
 326.490      1.0     99.3  528.0 
 326.510      1.0     99.3  528.0 
 326.530      1.0     99.3  528.0 
 326.550      1.0    100.0  524.5 
 326.570     33.9    100.0  524.5 
 326.590     33.9     99.3  526.3 
 326.610      1.0     99.3  526.3 
