~Version Information
 VERS.                2.0:  CWLS LOG ASCII STANDARD -VERSION 2.0
 WRAP.                 NO:  ONE LINE PER DEPTH STEP
~WELL INFORMATION BLOCK
#MNEM.UNIT       DATA		            DESCRIPTION OF MNEMONIC
#---------    -------------            ------------------------
 STRT.FT  6.060                          :START DEPTH
 STOP.FT  525.860                        :STOP DEPTH
 STEP.FT  0.020                          :STEP    UP_HOLE  
 NULL.    -999.25                        :NULL VALUE
 COMP.    CARLETON GEO LOOP E-1          :COMPANY
 WELL.    278816                                                       :WELL
 FLD .    NORTHFIELD 71-B                :FIELD\LOCATION
 LOC .    31    112   19                 :LOCATION
 CNTY.    RICE                           :COUNTY
 STAT.    CADDDC                         :STATE
 CTRY.    USA                            :COUNTRY
 SRVC.    TRUCK                          :SERVICE COMPANY
 DATE.    08/15/2017                     :LOG DATE
 API .                                       :API NUMBER
 LIC .                                   :LICENSE NUMBER
~Curve Information Block
#MNEM.UNIT      API CODE     Curve Description
#---------    -------------  ------------------------
 DEPT     .FT        00 001 00 00          :  1  DEPTH   
 GAMMA    .API-GR    00 310 00 00          :  2  GAMMA RAY           
 RES      .OHM       00 000 00 00          :  3  SINGLE POINT RES    
 SP       .MV        00 010 00 00          :  4  SPON POTENTIAL      
~Parameter Information Block
#MNEM.UNIT   Information     Description
#---------- ---------------  ------------------------
 FILE.      PROCESSED          :File Type
 FIID.      9060A              :File Type Identifier
 VERS.      3.60Q              :System Version
 SER .      1                  :System Serial Number
 TRUK.      0.0                :Truck Calibration Number
 TOOL.         202             :Tool Serial Number
 TIME.      1341               :Time    HrHrMinMin
 LAT .                         :Latitude
 LON .                         :Longitude
 LMF .                         :Log Measured From
 DMF .                         :Driller Measured From
 PD  .                         :Permanent Data
 PDEV.FT                       :Elevation Permanent Data
 EKB .FT                       :Elevation Kelly Bushing
 ELEV.FT                       :Elevation DF
 EGL .FT    938                :Elevation Ground Level
 DRDP.FT    109                :Driller's Depth
 CASD.FT    6                  :Casing Diameter
 CASB.FT                       :Casing Bottom
 CASX.                         :Casing Type
 CAST.IN    0                  :Casing Thickness
 TNOC.                         :Time Circulation Stopped
 LOGU.                         :Logging Unit
 RECB.      PETTUS             :Recorded By
 OSR1.                         :Other Services
 OSR2.                         :Other Services
 OSR3.                         :Other Services
 BS  .IN           6           :Bit Size
 MST .F                        :Mean Surface Temperature
 TGRD.F     0                  :Temperature Gradiant
 MAGN.      0                  :Magnetic Declination
 MDEN.      2.84               :Density Matrix
 MATR.      DOLOMITE           :Neutron Matrix
 DTMT.      44                 :Delta T Matrix
 DTFL.                         :Delta T Fluid
 MUDS.      0                  :Mud Sample Source
 MRS .      0                  :Mud Resistivity
 MTP .      0                  :Mud Temperature
 MFRS.                         :Resistivity Mud Filtrate
 MFTP.                         :Temperature Mud Filtrate
 MCRS.      0                  :Resistivity Mud Cake
 MCTP.                         :Temperature Mud Cake
 FTYP.      0                  :Fluid Type
 FD  .LB/G     0               :Mud Weight
 DFV .S                        :Fluid Viscosity
 FPH .                         :Fuild PH
 ELCO.      2500               :Electron Cutoff
 CASL.IN    4                  :Casing Logger
 LOTD.FT                       :Logger TD
 ARTM.                         :Arrival Time
 DPTM.                         :Departure Time
 RIGN.                         :Rig Number
~Other Information
#MNEM.UNIT  Information      Description
#---------- ---------------  ------------------------
# -------------------------- 
~A DEPTH  GAMMA    RES      SP    
# ...
 111.380     66.8    354.5  -465.3
 111.400     66.8    354.5  -465.3
 111.420      1.0    354.5  -465.3
 111.440      1.0    357.1  -465.3
 111.460      1.0    357.1  -465.3
 111.480      1.0    357.1  -465.3
 111.500      1.0    357.1  -465.3
 111.520      1.0    357.1  -465.3
 111.540      1.0    354.5  -465.3
 111.560     33.9    354.5  -465.3
 111.580     33.9    354.5  -465.3
 111.600     33.9    354.5  -465.3
 111.620      1.0    354.5  -465.3
 111.640      1.0    351.9  -465.3
 111.660      1.0    351.9  -465.3
 111.680      1.0    354.5  -465.3
 111.700      1.0    354.5  -465.3
 111.720     33.9    349.3  -465.3
 111.740     33.9    349.3  -465.3
 111.760      1.0    349.3  -465.3
 111.780      1.0    351.9  -465.3
 111.800      1.0    351.9  -465.3
 111.820      1.0    349.3  -465.3
 111.840      1.0    349.3  -465.3
 111.860      1.0    349.3  -465.3
 111.880      1.0    349.3  -465.3
 111.900      1.0    349.3  -465.3
 111.920      1.0    351.9  -465.3
 111.940      1.0    351.9  -465.3
 111.960      1.0    351.9  -465.3
 111.980      1.0    349.3  -465.3
 112.000      1.0    349.3  -465.3
 112.020      1.0    351.9  -463.6
 112.040      1.0    351.9  -463.6
 112.060     33.9    351.9  -463.6
 112.080     33.9    349.3  -465.3
 112.100      1.0    349.3  -465.3
 112.120      1.0    349.3  -465.3
 112.140      1.0    349.3  -465.3
 112.160      1.0    349.3  -465.3
 112.180      1.0    346.7  -465.3
 112.200      1.0    346.7  -465.3
 112.220      1.0    349.3  -465.3
 112.240      1.0    349.3  -465.3
 112.260      1.0    346.7  -465.3
 112.280      1.0    346.7  -465.3
 112.300      1.0    346.7  -465.3
 112.320      1.0    344.1  -465.3
 112.340     33.9    344.1  -465.3
 112.360     33.9    341.5  -465.3
 112.380     33.9    341.5  -465.3
 112.400      1.0    341.5  -465.3
 112.420      1.0    341.5  -465.3
 112.440     33.9    341.5  -465.3
 112.460     33.9    341.5  -465.3
 112.480     33.9    341.5  -465.3
 112.500      1.0    341.5  -465.3
 112.520      1.0    341.5  -465.3
 112.540      1.0    341.5  -465.3
 112.560      1.0    338.9  -465.3
 112.580      1.0    338.9  -465.3
 112.600      1.0    338.9  -465.3
 112.620      1.0    338.9  -463.6
 112.640      1.0    338.9  -463.6
 112.660      1.0    341.5  -465.3
 112.680      1.0    341.5  -465.3
 112.700      1.0    338.9  -465.3
 112.720      1.0    338.9  -465.3
 112.740      1.0    338.9  -465.3
 112.760      1.0    338.9  -465.3
 112.780      1.0    338.9  -465.3
 112.800      1.0    338.9  -465.3
 112.820      1.0    338.9  -465.3
 112.840     33.9    338.9  -465.3
 112.860     33.9    338.9  -465.3
 112.880     33.9    338.9  -465.3
 112.900     33.9    338.9  -465.3
 112.920     33.9    338.9  -465.3
 112.940     33.9    338.9  -465.3
 112.960     33.9    336.3  -465.3
 112.980      1.0    336.3  -465.3
 113.000      1.0    333.7  -465.3
 113.020      1.0    333.7  -465.3
 113.040      1.0    333.7  -465.3
 113.060      1.0    336.3  -465.3
 113.080      1.0    336.3  -465.3
 113.100      1.0    333.7  -465.3
 113.120      1.0    333.7  -465.3
 113.140      1.0    333.7  -463.6
 113.160      1.0    333.7  -463.6
 113.180      1.0    333.7  -463.6
 113.200      1.0    336.3  -465.3
 113.220      1.0    336.3  -465.3
 113.240      1.0    336.3  -465.3
 113.260      1.0    336.3  -465.3
 113.280     33.9    336.3  -465.3
 113.300     33.9    338.9  -465.3
 113.320      1.0    338.9  -465.3
 113.340      1.0    338.9  -465.3
 113.360      1.0    338.9  -465.3
 113.380      1.0    338.9  -465.3
 113.400      1.0    341.5  -465.3
 113.420      1.0    341.5  -465.3
 113.440      1.0    338.9  -465.3
 113.460      1.0    338.9  -465.3
 113.480      1.0    338.9  -465.3
 113.500      1.0    341.5  -465.3
 113.520     33.9    341.5  -465.3
 113.540     33.9    338.9  -465.3
 113.560      1.0    338.9  -465.3
 113.580      1.0    338.9  -465.3
 113.600      1.0    338.9  -465.3
 113.620      1.0    338.9  -465.3
 113.640      1.0    338.9  -463.6
 113.660     99.7    338.9  -463.6
 113.680     99.7    338.9  -465.3
 113.700     99.7    338.9  -465.3
 113.720      1.0    338.9  -465.3
 113.740      1.0    341.5  -465.3
 113.760      1.0    341.5  -465.3
 113.780      1.0    338.9  -465.3
 113.800      1.0    338.9  -465.3
 113.820      1.0    338.9  -465.3
 113.840      1.0    338.9  -465.3
 113.860      1.0    338.9  -465.3
 113.880      1.0    338.9  -465.3
 113.900      1.0    338.9  -465.3
 113.920      1.0    338.9  -465.3
 113.940      1.0    338.9  -465.3
 113.960      1.0    338.9  -465.3
 113.980      1.0    338.9  -465.3
 114.000     33.9    338.9  -465.3
 114.020     33.9    338.9  -465.3
 114.040     33.9    338.9  -465.3
 114.060     33.9    338.9  -465.3
 114.080     33.9    336.3  -463.6
 114.100      1.0    336.3  -463.6
 114.120      1.0    336.3  -465.3
 114.140      1.0    336.3  -465.3
 114.160      1.0    336.3  -465.3
 114.180      1.0    333.7  -465.3
 114.200      1.0    333.7  -465.3
 114.220      1.0    333.7  -465.3
 114.240      1.0    333.7  -465.3
 114.260      1.0    333.7  -465.3
 114.280      1.0    333.7  -465.3
 114.300      1.0    333.7  -465.3
 114.320      1.0    333.7  -465.3
 114.340      1.0    333.7  -465.3
 114.360      1.0    333.7  -465.3
 114.380      1.0    333.7  -465.3
 114.400      1.0    333.7  -465.3
 114.420      1.0    331.1  -465.3
 114.440      1.0    331.1  -465.3
 114.460      1.0    328.5  -463.6
 114.480      1.0    328.5  -463.6
 114.500      1.0    328.5  -463.6
 114.520      1.0    331.1  -465.3
 114.540      1.0    331.1  -465.3
 114.560      1.0    328.5  -465.3
 114.580      1.0    328.5  -465.3
 114.600      1.0    328.5  -465.3
 114.620      1.0    325.9  -465.3
 114.640      1.0    325.9  -465.3
 114.660      1.0    328.5  -465.3
 114.680      1.0    328.5  -465.3
 114.700      1.0    328.5  -465.3
 114.720      1.0    323.3  -465.3
 114.740      1.0    323.3  -465.3
 114.760      1.0    325.9  -463.6
 114.780      1.0    325.9  -463.6
 114.800      1.0    325.9  -463.6
 114.820      1.0    323.3  -465.3
 114.840     33.9    323.3  -465.3
 114.860     33.9    320.7  -465.3
 114.880     33.9    320.7  -465.3
 114.900      1.0    320.7  -465.3
 114.920      1.0    320.7  -465.3
 114.940      1.0    320.7  -465.3
 114.960      1.0    320.7  -465.3
 114.980      1.0    320.7  -465.3
 115.000      1.0    320.7  -463.6
 115.020      1.0    320.7  -463.6
 115.040      1.0    320.7  -463.6
 115.060      1.0    320.7  -465.3
 115.080     33.9    320.7  -465.3
 115.100     33.9    318.1  -465.3
 115.120     33.9    318.1  -465.3
 115.140     33.9    318.1  -465.3
 115.160     33.9    318.1  -465.3
 115.180      1.0    318.1  -465.3
 115.200      1.0    318.1  -463.6
 115.220      1.0    318.1  -463.6
 115.240      1.0    318.1  -463.6
 115.260      1.0    315.5  -465.3
 115.280      1.0    315.5  -465.3
 115.300      1.0    315.5  -465.3
 115.320      1.0    315.5  -465.3
 115.340     33.9    315.5  -465.3
 115.360     33.9    315.5  -463.6
 115.380      1.0    315.5  -463.6
 115.400      1.0    310.2  -465.3
 115.420      1.0    310.2  -465.3
 115.440      1.0    310.2  -465.3
 115.460      1.0    310.2  -465.3
 115.480      1.0    310.2  -465.3
 115.500      1.0    310.2  -463.6
 115.520      1.0    310.2  -463.6
 115.540      1.0    305.0  -465.3
 115.560      1.0    305.0  -465.3
 115.580      1.0    305.0  -465.3
 115.600      1.0    305.0  -465.3
 115.620      1.0    305.0  -465.3
 115.640      1.0    302.4  -463.6
 115.660      1.0    302.4  -463.6
 115.680      1.0    302.4  -463.6
 115.700      1.0    299.8  -463.6
 115.720      1.0    299.8  -463.6
 115.740      1.0    297.2  -465.3
 115.760      1.0    297.2  -465.3
 115.780     33.9    297.2  -465.3
 115.800     33.9    294.6  -463.6
 115.820      1.0    294.6  -463.6
 115.840      1.0    292.0  -463.6
 115.860     33.9    292.0  -463.6
 115.880     33.9    289.4  -463.6
 115.900     33.9    289.4  -463.6
 115.920      1.0    289.4  -463.6
 115.940      1.0    284.2  -461.8
