~Version Information
 VERS.                2.0:  CWLS LOG ASCII STANDARD -VERSION 2.0
 WRAP.                 NO:  ONE LINE PER DEPTH STEP
~WELL INFORMATION BLOCK
#MNEM.UNIT       DATA		            DESCRIPTION OF MNEMONIC
#---------    -------------            ------------------------
 STRT.FT  6.060                          :START DEPTH
 STOP.FT  525.860                        :STOP DEPTH
 STEP.FT  0.020                          :STEP    UP_HOLE  
 NULL.    -999.25                        :NULL VALUE
 COMP.    CARLETON GEO LOOP E-1          :COMPANY
 WELL.    278816                                                       :WELL
 FLD .    NORTHFIELD 71-B                :FIELD\LOCATION
 LOC .    31    112   19                 :LOCATION
 CNTY.    RICE                           :COUNTY
 STAT.    CADDDC                         :STATE
 CTRY.    USA                            :COUNTRY
 SRVC.    TRUCK                          :SERVICE COMPANY
 DATE.    08/15/2017                     :LOG DATE
 API .                                       :API NUMBER
 LIC .                                   :LICENSE NUMBER
~Curve Information Block
#MNEM.UNIT      API CODE     Curve Description
#---------    -------------  ------------------------
 DEPT     .FT        00 001 00 00          :  1  DEPTH   
 GAMMA    .API-GR    00 310 00 00          :  2  GAMMA RAY           
 RES      .OHM       00 000 00 00          :  3  SINGLE POINT RES    
 SP       .MV        00 010 00 00          :  4  SPON POTENTIAL      
~Parameter Information Block
#MNEM.UNIT   Information     Description
#---------- ---------------  ------------------------
 FILE.      PROCESSED          :File Type
 FIID.      9060A              :File Type Identifier
 VERS.      3.60Q              :System Version
 SER .      1                  :System Serial Number
 TRUK.      0.0                :Truck Calibration Number
 TOOL.         202             :Tool Serial Number
 TIME.      1341               :Time    HrHrMinMin
 LAT .                         :Latitude
 LON .                         :Longitude
 LMF .                         :Log Measured From
 DMF .                         :Driller Measured From
 PD  .                         :Permanent Data
 PDEV.FT                       :Elevation Permanent Data
 EKB .FT                       :Elevation Kelly Bushing
 ELEV.FT                       :Elevation DF
 EGL .FT    938                :Elevation Ground Level
 DRDP.FT    109                :Driller's Depth
 CASD.FT    6                  :Casing Diameter
 CASB.FT                       :Casing Bottom
 CASX.                         :Casing Type
 CAST.IN    0                  :Casing Thickness
 TNOC.                         :Time Circulation Stopped
 LOGU.                         :Logging Unit
 RECB.      PETTUS             :Recorded By
 OSR1.                         :Other Services
 OSR2.                         :Other Services
 OSR3.                         :Other Services
 BS  .IN           6           :Bit Size
 MST .F                        :Mean Surface Temperature
 TGRD.F     0                  :Temperature Gradiant
 MAGN.      0                  :Magnetic Declination
 MDEN.      2.84               :Density Matrix
 MATR.      DOLOMITE           :Neutron Matrix
 DTMT.      44                 :Delta T Matrix
 DTFL.                         :Delta T Fluid
 MUDS.      0                  :Mud Sample Source
 MRS .      0                  :Mud Resistivity
 MTP .      0                  :Mud Temperature
 MFRS.                         :Resistivity Mud Filtrate
 MFTP.                         :Temperature Mud Filtrate
 MCRS.      0                  :Resistivity Mud Cake
 MCTP.                         :Temperature Mud Cake
 FTYP.      0                  :Fluid Type
 FD  .LB/G     0               :Mud Weight
 DFV .S                        :Fluid Viscosity
 FPH .                         :Fuild PH
 ELCO.      2500               :Electron Cutoff
 CASL.IN    4                  :Casing Logger
 LOTD.FT                       :Logger TD
 ARTM.                         :Arrival Time
 DPTM.                         :Departure Time
 RIGN.                         :Rig Number
~Other Information
#MNEM.UNIT  Information      Description
#---------- ---------------  ------------------------
# -------------------------- 
~A DEPTH  GAMMA    RES      SP    
# ...
 180.080      1.0    299.8  -320.1
 180.100      1.0    299.8  -320.1
 180.120      1.0    297.2  -318.4
 180.140      1.0    297.2  -318.4
 180.160      1.0    297.2  -318.4
 180.180      1.0    294.6  -320.1
 180.200     33.9    294.6  -320.1
 180.220     33.9    294.6  -320.1
 180.240      1.0    294.6  -320.1
 180.260      1.0    286.8  -321.9
 180.280      1.0    286.8  -321.9
 180.300      1.0    286.8  -321.9
 180.320      1.0    289.4  -321.9
 180.340     33.9    289.4  -321.9
 180.360     33.9    286.8  -321.9
 180.380     33.9    286.8  -321.9
 180.400     33.9    286.8  -321.9
 180.420     33.9    284.2  -321.9
 180.440      1.0    284.2  -321.9
 180.460      1.0    281.6  -323.7
 180.480      1.0    281.6  -323.7
 180.500     66.8    281.6  -323.7
 180.520     66.8    279.0  -323.7
 180.540      1.0    279.0  -323.7
 180.560      1.0    279.0  -323.7
 180.580      1.0    279.0  -323.7
 180.600      1.0    271.2  -325.5
 180.620      1.0    271.2  -325.5
 180.640      1.0    271.2  -325.5
 180.660      1.0    271.2  -325.5
 180.680      1.0    271.2  -325.5
 180.700      1.0    268.5  -325.5
 180.720      1.0    268.5  -325.5
 180.740      1.0    268.5  -325.5
 180.760      1.0    263.3  -329.0
 180.780      1.0    263.3  -329.0
 180.800      1.0    263.3  -329.0
 180.820      1.0    263.3  -329.0
 180.840      1.0    263.3  -329.0
 180.860      1.0    260.7  -330.8
 180.880      1.0    260.7  -330.8
 180.900      1.0    255.5  -332.5
 180.920     33.9    255.5  -332.5
 180.940     33.9    255.5  -332.5
 180.960     33.9    252.9  -332.5
 180.980     66.8    252.9  -332.5
 181.000     66.8    250.3  -334.3
 181.020      1.0    250.3  -334.3
 181.040      1.0    248.9  -336.1
 181.060      1.0    248.9  -336.1
 181.080      1.0    248.9  -336.1
 181.100      1.0    245.0  -334.3
 181.120      1.0    245.0  -334.3
 181.140      1.0    245.0  -336.1
 181.160      1.0    245.0  -336.1
 181.180      1.0    245.0  -336.1
 181.200      1.0    241.2  -334.3
 181.220      1.0    241.2  -334.3
 181.240      1.0    239.9  -336.1
 181.260      1.0    239.9  -336.1
 181.280     66.8    239.9  -336.1
 181.300     66.8    241.2  -334.3
 181.320      1.0    241.2  -334.3
 181.340      1.0    239.9  -334.3
 181.360      1.0    239.9  -334.3
 181.380      1.0    239.9  -334.3
 181.400      1.0    239.9  -334.3
 181.420      1.0    239.9  -334.3
 181.440      1.0    238.6  -334.3
 181.460     33.9    238.6  -334.3
 181.480     33.9    238.6  -334.3
 181.500     33.9    238.6  -334.3
 181.520      1.0    238.6  -334.3
 181.540      1.0    239.9  -334.3
 181.560      1.0    239.9  -334.3
 181.580      1.0    239.9  -332.5
 181.600      1.0    239.9  -332.5
 181.620      1.0    239.9  -332.5
 181.640      1.0    241.2  -334.3
 181.660     33.9    241.2  -334.3
 181.680     33.9    241.2  -332.5
 181.700     33.9    241.2  -332.5
 181.720      1.0    241.2  -332.5
 181.740      1.0    239.9  -332.5
 181.760     99.7    239.9  -332.5
 181.780     99.7    242.5  -332.5
 181.800     33.9    242.5  -332.5
 181.820     33.9    241.2  -330.8
 181.840     33.9    241.2  -330.8
 181.860      1.0    241.2  -330.8
 181.880      1.0    243.7  -332.5
 181.900      1.0    243.7  -332.5
 181.920      1.0    243.7  -329.0
 181.940      1.0    243.7  -329.0
 181.960     33.9    243.7  -329.0
 181.980     33.9    243.7  -329.0
 182.000      1.0    243.7  -329.0
 182.020      1.0    243.7  -329.0
 182.040      1.0    243.7  -329.0
 182.060     33.9    243.7  -329.0
 182.080     33.9    246.3  -327.2
 182.100     33.9    246.3  -327.2
 182.120     33.9    248.9  -325.5
 182.140      1.0    248.9  -325.5
 182.160      1.0    248.9  -325.5
 182.180      1.0    250.3  -323.7
 182.200      1.0    250.3  -323.7
 182.220      1.0    255.5  -323.7
 182.240      1.0    255.5  -323.7
 182.260      1.0    255.5  -320.1
 182.280      1.0    255.5  -320.1
 182.300     33.9    255.5  -320.1
 182.320     33.9    260.7  -320.1
 182.340      1.0    260.7  -320.1
 182.360      1.0    260.7  -316.6
 182.380      1.0    260.7  -316.6
 182.400      1.0    260.7  -316.6
 182.420      1.0    268.5  -316.6
 182.440    132.7    268.5  -316.6
 182.460    132.7    271.2  -313.1
 182.480      1.0    271.2  -313.1
 182.500      1.0    271.2  -313.1
 182.520      1.0    273.8  -313.1
 182.540      1.0    273.8  -313.1
 182.560      1.0    281.6  -311.3
 182.580      1.0    281.6  -311.3
 182.600      1.0    281.6  -311.3
 182.620      1.0    284.2  -311.3
 182.640      1.0    284.2  -311.3
 182.660      1.0    286.8  -309.5
 182.680      1.0    286.8  -309.5
 182.700      1.0    289.4  -309.5
 182.720      1.0    289.4  -309.5
 182.740     33.9    289.4  -309.5
 182.760     33.9    292.0  -307.7
 182.780     33.9    292.0  -307.7
 182.800     33.9    294.6  -309.5
 182.820     33.9    294.6  -309.5
 182.840     33.9    294.6  -309.5
 182.860     33.9    294.6  -307.7
 182.880      1.0    294.6  -307.7
 182.900      1.0    299.8  -306.0
 182.920      1.0    299.8  -306.0
 182.940      1.0    299.8  -306.0
 182.960      1.0    299.8  -306.0
 182.980     33.9    299.8  -306.0
 183.000     33.9    297.2  -304.2
 183.020      1.0    297.2  -304.2
 183.040      1.0    299.8  -302.4
 183.060      1.0    299.8  -302.4
 183.080     33.9    299.8  -302.4
 183.100     33.9    305.0  -302.4
 183.120      1.0    305.0  -302.4
 183.140      1.0    305.0  -302.4
 183.160      1.0    305.0  -302.4
 183.180      1.0    305.0  -302.4
 183.200      1.0    310.2  -302.4
 183.220      1.0    310.2  -302.4
 183.240      1.0    307.6  -302.4
 183.260      1.0    307.6  -302.4
 183.280      1.0    307.6  -302.4
 183.300      1.0    310.2  -302.4
 183.320      1.0    310.2  -302.4
 183.340      1.0    310.2  -302.4
 183.360      1.0    310.2  -302.4
 183.380      1.0    312.8  -302.4
 183.400      1.0    312.8  -302.4
 183.420      1.0    312.8  -302.4
 183.440      1.0    312.8  -302.4
 183.460      1.0    312.8  -302.4
 183.480      1.0    307.6  -304.2
 183.500      1.0    307.6  -304.2
 183.520      1.0    307.6  -304.2
 183.540      1.0    312.8  -304.2
 183.560      1.0    312.8  -304.2
 183.580      1.0    307.6  -302.4
 183.600      1.0    307.6  -302.4
 183.620      1.0    307.6  -302.4
 183.640      1.0    310.2  -304.2
 183.660      1.0    310.2  -304.2
 183.680      1.0    310.2  -304.2
 183.700      1.0    310.2  -304.2
 183.720      1.0    310.2  -304.2
 183.740      1.0    312.8  -304.2
 183.760      1.0    312.8  -304.2
 183.780      1.0    312.8  -304.2
 183.800     33.9    312.8  -304.2
 183.820     33.9    310.2  -302.4
 183.840     33.9    310.2  -302.4
 183.860      1.0    310.2  -302.4
 183.880      1.0    310.2  -304.2
 183.900      1.0    310.2  -304.2
 183.920      1.0    310.2  -300.7
 183.940      1.0    310.2  -300.7
 183.960      1.0    310.2  -300.7
 183.980      1.0    307.6  -300.7
 184.000     33.9    307.6  -300.7
 184.020     33.9    302.4  -300.7
 184.040     33.9    302.4  -300.7
 184.060     99.7    302.4  -300.7
 184.080     99.7    302.4  -298.9
 184.100      1.0    302.4  -298.9
 184.120      1.0    305.0  -298.9
 184.140      1.0    305.0  -298.9
 184.160      1.0    302.4  -300.7
 184.180      1.0    302.4  -300.7
 184.200      1.0    302.4  -300.7
 184.220      1.0    302.4  -298.9
 184.240      1.0    302.4  -298.9
 184.260      1.0    302.4  -300.7
 184.280      1.0    302.4  -300.7
 184.300      1.0    302.4  -300.7
 184.320      1.0    297.2  -300.7
 184.340      1.0    297.2  -300.7
 184.360      1.0    299.8  -300.7
 184.380      1.0    299.8  -300.7
 184.400      1.0    299.8  -300.7
 184.420      1.0    294.6  -302.4
 184.440      1.0    294.6  -302.4
 184.460      1.0    294.6  -300.7
 184.480      1.0    294.6  -300.7
 184.500      1.0    294.6  -300.7
 184.520      1.0    294.6  -302.4
 184.540     33.9    294.6  -302.4
 184.560     33.9    289.4  -302.4
 184.580      1.0    289.4  -302.4
 184.600      1.0    284.2  -300.7
 184.620      1.0    284.2  -300.7
 184.640     99.7    284.2  -300.7
