~Version Information
 VERS.                2.0:  CWLS LOG ASCII STANDARD -VERSION 2.0
 WRAP.                 NO:  ONE LINE PER DEPTH STEP
~WELL INFORMATION BLOCK
#MNEM.UNIT       DATA		            DESCRIPTION OF MNEMONIC
#---------    -------------            ------------------------
 STRT.FT  6.060                          :START DEPTH
 STOP.FT  525.860                        :STOP DEPTH
 STEP.FT  0.020                          :STEP    UP_HOLE  
 NULL.    -999.25                        :NULL VALUE
 COMP.    CARLETON GEO LOOP E-1          :COMPANY
 WELL.    278816                                                       :WELL
 FLD .    NORTHFIELD 71-B                :FIELD\LOCATION
 LOC .    31    112   19                 :LOCATION
 CNTY.    RICE                           :COUNTY
 STAT.    CADDDC                         :STATE
 CTRY.    USA                            :COUNTRY
 SRVC.    TRUCK                          :SERVICE COMPANY
 DATE.    08/15/2017                     :LOG DATE
 API .                                       :API NUMBER
 LIC .                                   :LICENSE NUMBER
~Curve Information Block
#MNEM.UNIT      API CODE     Curve Description
#---------    -------------  ------------------------
 DEPT     .FT        00 001 00 00          :  1  DEPTH   
 GAMMA    .API-GR    00 310 00 00          :  2  GAMMA RAY           
 RES      .OHM       00 000 00 00          :  3  SINGLE POINT RES    
 SP       .MV        00 010 00 00          :  4  SPON POTENTIAL      
~Parameter Information Block
#MNEM.UNIT   Information     Description
#---------- ---------------  ------------------------
 FILE.      PROCESSED          :File Type
 FIID.      9060A              :File Type Identifier
 VERS.      3.60Q              :System Version
 SER .      1                  :System Serial Number
 TRUK.      0.0                :Truck Calibration Number
 TOOL.         202             :Tool Serial Number
 TIME.      1341               :Time    HrHrMinMin
 LAT .                         :Latitude
 LON .                         :Longitude
 LMF .                         :Log Measured From
 DMF .                         :Driller Measured From
 PD  .                         :Permanent Data
 PDEV.FT                       :Elevation Permanent Data
 EKB .FT                       :Elevation Kelly Bushing
 ELEV.FT                       :Elevation DF
 EGL .FT    938                :Elevation Ground Level
 DRDP.FT    109                :Driller's Depth
 CASD.FT    6                  :Casing Diameter
 CASB.FT                       :Casing Bottom
 CASX.                         :Casing Type
 CAST.IN    0                  :Casing Thickness
 TNOC.                         :Time Circulation Stopped
 LOGU.                         :Logging Unit
 RECB.      PETTUS             :Recorded By
 OSR1.                         :Other Services
 OSR2.                         :Other Services
 OSR3.                         :Other Services
 BS  .IN           6           :Bit Size
 MST .F                        :Mean Surface Temperature
 TGRD.F     0                  :Temperature Gradiant
 MAGN.      0                  :Magnetic Declination
 MDEN.      2.84               :Density Matrix
 MATR.      DOLOMITE           :Neutron Matrix
 DTMT.      44                 :Delta T Matrix
 DTFL.                         :Delta T Fluid
 MUDS.      0                  :Mud Sample Source
 MRS .      0                  :Mud Resistivity
 MTP .      0                  :Mud Temperature
 MFRS.                         :Resistivity Mud Filtrate
 MFTP.                         :Temperature Mud Filtrate
 MCRS.      0                  :Resistivity Mud Cake
 MCTP.                         :Temperature Mud Cake
 FTYP.      0                  :Fluid Type
 FD  .LB/G     0               :Mud Weight
 DFV .S                        :Fluid Viscosity
 FPH .                         :Fuild PH
 ELCO.      2500               :Electron Cutoff
 CASL.IN    4                  :Casing Logger
 LOTD.FT                       :Logger TD
 ARTM.                         :Arrival Time
 DPTM.                         :Departure Time
 RIGN.                         :Rig Number
~Other Information
#MNEM.UNIT  Information      Description
#---------- ---------------  ------------------------
# -------------------------- 
~A DEPTH  GAMMA    RES      SP    
# ...
 454.880    132.7    111.6  -465.3
 454.900    132.7    111.6  -465.3
 454.920     66.8    111.6  -465.3
 454.940     66.8    111.6  -465.3
 454.960    132.7    111.6  -465.3
 454.980    132.7    110.3  -463.6
 455.000    132.7    110.3  -463.6
 455.020     99.7    110.3  -463.6
 455.040     99.7    111.6  -465.3
 455.060     99.7    111.6  -465.3
 455.080     99.7    111.6  -465.3
 455.100     99.7    111.6  -465.3
 455.120      1.0    111.6  -465.3
 455.140      1.0    110.3  -465.3
 455.160     99.7    110.3  -465.3
 455.180     99.7    111.6  -463.6
 455.200     99.7    111.6  -463.6
 455.220     66.8    111.6  -463.6
 455.240     66.8    110.3  -465.3
 455.260     66.8    110.3  -465.3
 455.280     66.8    110.3  -465.3
 455.300     66.8    110.3  -465.3
 455.320    132.7    110.3  -463.6
 455.340    132.7    110.3  -463.6
 455.360     66.8    110.3  -463.6
 455.380     66.8    110.3  -465.3
 455.400     66.8    110.3  -465.3
 455.420     66.8    109.0  -465.3
 455.440     66.8    109.0  -465.3
 455.460     66.8    109.0  -465.3
 455.480     66.8    110.3  -463.6
 455.500     33.9    110.3  -463.6
 455.520     33.9    109.0  -465.3
 455.540     33.9    109.0  -465.3
 455.560     99.7    109.0  -465.3
 455.580     99.7    110.3  -465.3
 455.600     66.8    110.3  -465.3
 455.620     66.8    109.0  -465.3
 455.640     66.8    109.0  -465.3
 455.660     33.9    109.0  -465.3
 455.680     33.9    109.0  -463.6
 455.700     66.8    109.0  -463.6
 455.720     66.8    109.0  -465.3
 455.740     66.8    109.0  -465.3
 455.760    198.5    109.0  -465.3
 455.780    198.5    109.0  -465.3
 455.800      1.0    109.0  -465.3
 455.820      1.0    107.7  -465.3
 455.840      1.0    107.7  -465.3
 455.860     99.7    109.0  -463.6
 455.880     99.7    109.0  -463.6
 455.900     99.7    109.0  -463.6
 455.920     99.7    107.7  -465.3
 455.940     66.8    107.7  -465.3
 455.960     66.8    109.0  -465.3
 455.980     66.8    109.0  -465.3
 456.000     33.9    109.0  -465.3
 456.020     33.9    107.7  -465.3
 456.040     99.7    107.7  -465.3
 456.060     99.7    106.4  -465.3
 456.080     99.7    106.4  -465.3
 456.100     66.8    106.4  -465.3
 456.120     66.8    106.4  -463.6
 456.140    132.7    106.4  -463.6
 456.160    132.7    106.4  -465.3
 456.180    132.7    106.4  -465.3
 456.200    231.4    106.4  -465.3
 456.220    231.4    106.4  -465.3
 456.240     66.8    106.4  -465.3
 456.260     66.8    103.9  -465.3
 456.280     66.8    103.9  -465.3
 456.300    132.7    103.9  -465.3
 456.320    132.7    105.1  -465.3
 456.340    132.7    105.1  -465.3
 456.360    132.7    103.9  -465.3
 456.380    132.7    103.9  -465.3
 456.400     99.7    102.6  -463.6
 456.420     99.7    102.6  -463.6
 456.440    165.6    102.6  -463.6
 456.460    165.6    103.9  -465.3
 456.480    165.6    103.9  -465.3
 456.500     66.8    102.6  -465.3
 456.520     66.8    102.6  -465.3
 456.540     99.7    102.6  -465.3
 456.560     99.7    102.6  -465.3
 456.580     99.7    102.6  -465.3
 456.600     99.7    102.6  -465.3
 456.620     99.7    102.6  -465.3
 456.640     99.7    102.6  -465.3
 456.660     99.7    102.6  -465.3
 456.680     33.9    102.6  -465.3
 456.700     33.9    102.6  -463.6
 456.720     33.9    102.6  -463.6
 456.740    165.6    102.6  -463.6
 456.760    165.6    101.3  -465.3
 456.780     99.7    101.3  -465.3
 456.800     99.7    101.3  -465.3
 456.820     99.7    101.3  -465.3
 456.840     66.8    100.0  -465.3
 456.860     66.8    100.0  -465.3
 456.880    198.5    100.0  -465.3
 456.900    198.5    100.0  -465.3
 456.920    198.5    100.0  -465.3
 456.940      1.0     99.3  -465.3
 456.960      1.0     99.3  -465.3
 456.980    231.4     99.3  -465.3
 457.000    231.4     98.6  -463.6
 457.020    231.4     98.6  -463.6
 457.040    198.5     98.6  -465.3
 457.060    198.5     98.6  -465.3
 457.080     99.7     98.6  -465.3
 457.100     99.7     98.6  -465.3
 457.120     99.7     98.6  -465.3
 457.140    165.6     98.6  -465.3
 457.160    165.6     98.6  -465.3
 457.180     99.7     98.6  -465.3
 457.200     99.7     97.9  -465.3
 457.220     66.8     97.9  -465.3
 457.240     66.8     97.9  -465.3
 457.260     66.8     97.9  -465.3
 457.280     66.8     97.9  -465.3
 457.300     66.8     97.9  -463.6
 457.320    165.6     97.9  -463.6
 457.340    165.6     97.9  -465.3
 457.360    165.6     97.9  -465.3
 457.380     66.8     97.9  -465.3
 457.400     66.8     97.2  -465.3
 457.420    132.7     97.2  -465.3
 457.440    132.7     97.9  -465.3
 457.460    132.7     97.9  -465.3
 457.480     99.7     97.9  -465.3
 457.500     99.7     97.2  -465.3
 457.520     66.8     97.2  -465.3
 457.540     66.8     97.9  -465.3
 457.560     66.8     97.9  -465.3
 457.580     66.8     97.9  -463.6
 457.600     66.8     97.9  -463.6
 457.620    132.7     97.9  -463.6
 457.640    132.7     97.9  -465.3
 457.660     66.8     97.9  -465.3
 457.680     66.8     97.9  -465.3
 457.700     66.8     97.9  -465.3
 457.720     99.7     97.9  -465.3
 457.740     99.7     97.9  -465.3
 457.760     33.9     97.9  -465.3
 457.780     33.9     97.2  -465.3
 457.800     33.9     97.2  -465.3
 457.820     66.8     97.2  -465.3
 457.840     66.8     97.9  -465.3
 457.860    132.7     97.9  -465.3
 457.880    132.7     97.2  -465.3
 457.900    132.7     97.2  -465.3
 457.920    132.7     97.2  -465.3
 457.940    132.7     97.9  -463.6
 457.960     66.8     97.9  -463.6
 457.980     66.8     97.9  -465.3
 458.000     66.8     97.9  -465.3
 458.020    231.4     97.9  -465.3
 458.040    231.4     97.9  -465.3
 458.060    132.7     97.9  -465.3
 458.080    132.7     97.2  -465.3
 458.100    132.7     97.2  -465.3
 458.120    132.7     97.9  -465.3
 458.140    132.7     97.9  -465.3
 458.160    165.6     97.9  -465.3
 458.180    165.6     97.9  -465.3
 458.200     33.9     97.9  -465.3
 458.220     33.9     97.9  -465.3
 458.240     33.9     97.9  -465.3
 458.260    165.6     97.9  -465.3
 458.280    165.6     97.9  -463.6
 458.300    132.7     97.9  -463.6
 458.320    132.7     97.9  -465.3
 458.340    132.7     97.9  -465.3
 458.360     33.9     97.9  -465.3
 458.380     33.9     98.6  -465.3
 458.400     33.9     98.6  -465.3
 458.420     33.9     98.6  -465.3
 458.440     33.9     98.6  -465.3
 458.460    165.6     98.6  -465.3
 458.480    165.6     98.6  -465.3
 458.500    165.6     98.6  -465.3
 458.520    165.6     99.3  -465.3
 458.540    165.6     99.3  -465.3
 458.560     66.8     99.3  -465.3
 458.580     66.8     99.3  -465.3
 458.600     33.9     99.3  -465.3
 458.620     33.9     99.3  -463.6
 458.640     33.9     99.3  -463.6
 458.660     99.7    100.0  -465.3
 458.680     99.7    100.0  -465.3
 458.700     99.7    100.0  -465.3
 458.720     99.7    100.0  -465.3
 458.740     99.7    100.0  -465.3
 458.760     99.7    100.0  -465.3
 458.780     99.7    100.0  -465.3
 458.800    165.6    100.0  -465.3
 458.820    165.6    101.3  -465.3
 458.840     99.7    101.3  -465.3
 458.860     99.7    101.3  -465.3
 458.880     99.7    101.3  -465.3
 458.900     33.9    101.3  -465.3
 458.920     33.9    101.3  -465.3
 458.940    132.7    101.3  -465.3
 458.960    132.7    102.6  -463.6
 458.980    132.7    102.6  -463.6
 459.000     66.8    102.6  -463.6
 459.020     66.8    102.6  -465.3
 459.040    165.6    102.6  -465.3
 459.060    165.6    103.9  -465.3
 459.080    165.6    103.9  -465.3
 459.100     33.9    102.6  -465.3
 459.120     33.9    102.6  -465.3
 459.140     33.9    102.6  -465.3
 459.160     33.9    105.1  -465.3
 459.180     33.9    105.1  -465.3
 459.200     99.7    103.9  -465.3
 459.220     99.7    103.9  -465.3
 459.240     33.9    103.9  -465.3
 459.260     33.9    105.1  -463.6
 459.280     33.9    105.1  -463.6
 459.300     66.8    105.1  -465.3
 459.320     66.8    105.1  -465.3
 459.340     66.8    105.1  -465.3
 459.360     66.8    105.1  -465.3
 459.380     33.9    105.1  -465.3
 459.400     33.9    105.1  -465.3
 459.420     33.9    105.1  -465.3
 459.440     99.7    105.1  -465.3
