~Version Information
 VERS.                2.0:  CWLS LOG ASCII STANDARD -VERSION 2.0
 WRAP.                 NO:  ONE LINE PER DEPTH STEP
~WELL INFORMATION BLOCK
#MNEM.UNIT       DATA		            DESCRIPTION OF MNEMONIC
#---------    -------------            ------------------------
 STRT.FT  6.060                          :START DEPTH
 STOP.FT  525.860                        :STOP DEPTH
 STEP.FT  0.020                          :STEP    UP_HOLE  
 NULL.    -999.25                        :NULL VALUE
 COMP.    CARLETON GEO LOOP E-1          :COMPANY
 WELL.    278816                                                       :WELL
 FLD .    NORTHFIELD 71-B                :FIELD\LOCATION
 LOC .    31    112   19                 :LOCATION
 CNTY.    RICE                           :COUNTY
 STAT.    CADDDC                         :STATE
 CTRY.    USA                            :COUNTRY
 SRVC.    TRUCK                          :SERVICE COMPANY
 DATE.    08/15/2017                     :LOG DATE
 API .                                       :API NUMBER
 LIC .                                   :LICENSE NUMBER
~Curve Information Block
#MNEM.UNIT      API CODE     Curve Description
#---------    -------------  ------------------------
 DEPT     .FT        00 001 00 00          :  1  DEPTH   
 GAMMA    .API-GR    00 310 00 00          :  2  GAMMA RAY           
 RES      .OHM       00 000 00 00          :  3  SINGLE POINT RES    
 SP       .MV        00 010 00 00          :  4  SPON POTENTIAL      
~Parameter Information Block
#MNEM.UNIT   Information     Description
#---------- ---------------  ------------------------
 FILE.      PROCESSED          :File Type
 FIID.      9060A              :File Type Identifier
 VERS.      3.60Q              :System Version
 SER .      1                  :System Serial Number
 TRUK.      0.0                :Truck Calibration Number
 TOOL.         202             :Tool Serial Number
 TIME.      1341               :Time    HrHrMinMin
 LAT .                         :Latitude
 LON .                         :Longitude
 LMF .                         :Log Measured From
 DMF .                         :Driller Measured From
 PD  .                         :Permanent Data
 PDEV.FT                       :Elevation Permanent Data
 EKB .FT                       :Elevation Kelly Bushing
 ELEV.FT                       :Elevation DF
 EGL .FT    938                :Elevation Ground Level
 DRDP.FT    109                :Driller's Depth
 CASD.FT    6                  :Casing Diameter
 CASB.FT                       :Casing Bottom
 CASX.                         :Casing Type
 CAST.IN    0                  :Casing Thickness
 TNOC.                         :Time Circulation Stopped
 LOGU.                         :Logging Unit
 RECB.      PETTUS             :Recorded By
 OSR1.                         :Other Services
 OSR2.                         :Other Services
 OSR3.                         :Other Services
 BS  .IN           6           :Bit Size
 MST .F                        :Mean Surface Temperature
 TGRD.F     0                  :Temperature Gradiant
 MAGN.      0                  :Magnetic Declination
 MDEN.      2.84               :Density Matrix
 MATR.      DOLOMITE           :Neutron Matrix
 DTMT.      44                 :Delta T Matrix
 DTFL.                         :Delta T Fluid
 MUDS.      0                  :Mud Sample Source
 MRS .      0                  :Mud Resistivity
 MTP .      0                  :Mud Temperature
 MFRS.                         :Resistivity Mud Filtrate
 MFTP.                         :Temperature Mud Filtrate
 MCRS.      0                  :Resistivity Mud Cake
 MCTP.                         :Temperature Mud Cake
 FTYP.      0                  :Fluid Type
 FD  .LB/G     0               :Mud Weight
 DFV .S                        :Fluid Viscosity
 FPH .                         :Fuild PH
 ELCO.      2500               :Electron Cutoff
 CASL.IN    4                  :Casing Logger
 LOTD.FT                       :Logger TD
 ARTM.                         :Arrival Time
 DPTM.                         :Departure Time
 RIGN.                         :Rig Number
~Other Information
#MNEM.UNIT  Information      Description
#---------- ---------------  ------------------------
# -------------------------- 
~A DEPTH  GAMMA    RES      SP    
# ...
  74.740      1.0     10.7  -465.3
  74.760      1.0     10.7  -465.3
  74.780     66.8     10.7  -465.3
  74.800     66.8     11.4  -465.3
  74.820     66.8     11.4  -465.3
  74.840      1.0     11.0  -465.3
  74.860      1.0     11.0  -465.3
  74.880     33.9     11.0  -465.3
  74.900     33.9     11.0  -465.3
  74.920     33.9     11.0  -465.3
  74.940     33.9     11.0  -465.3
  74.960     33.9     11.0  -465.3
  74.980     33.9     11.0  -465.3
  75.000     33.9     11.0  -465.3
  75.020     33.9     11.0  -465.3
  75.040      1.0     10.7  -463.6
  75.060      1.0     10.7  -463.6
  75.080     33.9     10.7  -465.3
  75.100     33.9     10.7  -465.3
  75.120     33.9     10.7  -465.3
  75.140     33.9     10.7  -465.3
  75.160     33.9     10.7  -465.3
  75.180      1.0     10.3  -465.3
  75.200      1.0     10.3  -465.3
  75.220      1.0     10.3  -465.3
  75.240      1.0     10.3  -465.3
  75.260      1.0     10.7  -465.3
  75.280      1.0     10.7  -465.3
  75.300      1.0     10.7  -465.3
  75.320      1.0     11.0  -465.3
  75.340      1.0     11.0  -465.3
  75.360      1.0     11.0  -465.3
  75.380     33.9     11.0  -465.3
  75.400     33.9     11.0  -465.3
  75.420      1.0     10.7  -463.6
  75.440      1.0     10.7  -463.6
  75.460      1.0     10.7  -465.3
  75.480      1.0     10.7  -465.3
  75.500      1.0     10.7  -465.3
  75.520      1.0     10.7  -465.3
  75.540      1.0     10.7  -465.3
  75.560      1.0     10.7  -465.3
  75.580      1.0     10.7  -465.3
  75.600      1.0     10.3  -465.3
  75.620      1.0     10.3  -465.3
  75.640      1.0     10.3  -465.3
  75.660      1.0     10.3  -465.3
  75.680      1.0     10.7  -465.3
  75.700      1.0     10.7  -465.3
  75.720      1.0     10.7  -465.3
  75.740      1.0     10.7  -465.3
  75.760      1.0     10.7  -465.3
  75.780      1.0     10.7  -463.6
  75.800      1.0     10.7  -463.6
  75.820      1.0     10.7  -463.6
  75.840      1.0     10.3  -465.3
  75.860      1.0     10.3  -465.3
  75.880      1.0     10.7  -465.3
  75.900     66.8     10.7  -465.3
  75.920     66.8     10.7  -465.3
  75.940      1.0     10.7  -465.3
  75.960      1.0     10.7  -465.3
  75.980      1.0     10.3  -465.3
  76.000      1.0     10.3  -465.3
  76.020      1.0     10.3  -465.3
  76.040      1.0     10.7  -465.3
  76.060      1.0     10.7  -465.3
  76.080     33.9     10.7  -465.3
  76.100     33.9     10.7  -465.3
  76.120     33.9     10.3  -465.3
  76.140      1.0     10.3  -465.3
  76.160      1.0     10.3  -465.3
  76.180      1.0     10.7  -463.6
  76.200      1.0     10.7  -463.6
  76.220      1.0     10.7  -465.3
  76.240     66.8     10.7  -465.3
  76.260     66.8     10.7  -465.3
  76.280     33.9     10.3  -465.3
  76.300     33.9     10.3  -465.3
  76.320     66.8     10.7  -465.3
  76.340     66.8     10.7  -465.3
  76.360     66.8     10.7  -465.3
  76.380      1.0     10.7  -465.3
  76.400      1.0     10.7  -465.3
  76.420      1.0     10.7  -465.3
  76.440      1.0     10.7  -465.3
  76.460      1.0     10.3  -465.3
  76.480      1.0     10.3  -465.3
  76.500      1.0     11.0  -465.3
  76.520      1.0     11.0  -465.3
  76.540      1.0     11.0  -465.3
  76.560      1.0     10.7  -463.6
  76.580      1.0     10.7  -463.6
  76.600      1.0     10.3  -465.3
  76.620     33.9     10.3  -465.3
  76.640     33.9     10.3  -465.3
  76.660     33.9     10.0  -465.3
  76.680     33.9     10.0  -465.3
  76.700     33.9     10.3  -465.3
  76.720     33.9     10.3  -465.3
  76.740     33.9     10.3  -465.3
  76.760     66.8     10.3  -465.3
  76.780     66.8     10.3  -465.3
  76.800     66.8     10.3  -465.3
  76.820     33.9     10.3  -465.3
  76.840     33.9     10.3  -465.3
  76.860      1.0     10.3  -465.3
  76.880      1.0     10.0  -463.6
  76.900      1.0     10.0  -463.6
  76.920      1.0     10.0  -463.6
  76.940      1.0     10.7  -465.3
  76.960     33.9     10.7  -465.3
  76.980     33.9     10.0  -465.3
  77.000     33.9     10.0  -465.3
  77.020     33.9     10.0  -465.3
  77.040     33.9     10.3  -465.3
  77.060     33.9     10.3  -465.3
  77.080     33.9     10.0  -465.3
  77.100     33.9     10.0  -465.3
  77.120      1.0     10.0  -465.3
  77.140      1.0     10.0  -465.3
  77.160     33.9     10.0  -465.3
  77.180     33.9     10.3  -465.3
  77.200     33.9     10.3  -465.3
  77.220     33.9     10.0  -465.3
  77.240     33.9     10.0  -465.3
  77.260      1.0     10.0  -465.3
  77.280      1.0     10.0  -463.6
  77.300     33.9     10.0  -463.6
  77.320     33.9     10.0  -465.3
  77.340     33.9     10.0  -465.3
  77.360     33.9     10.0  -465.3
  77.380     33.9     10.0  -465.3
  77.400     33.9     10.0  -465.3
  77.420     33.9     10.3  -465.3
  77.440     33.9     10.3  -465.3
  77.460     33.9     10.3  -465.3
  77.480     33.9     10.7  -465.3
  77.500     33.9     10.7  -465.3
  77.520     33.9     10.3  -465.3
  77.540     33.9     10.3  -465.3
  77.560     33.9     10.3  -465.3
  77.580     33.9     10.3  -465.3
  77.600     33.9     10.3  -465.3
  77.620     33.9     10.3  -465.3
  77.640     66.8     10.3  -465.3
  77.660     66.8     10.3  -463.6
  77.680     66.8     10.3  -463.6
  77.700     66.8     10.3  -463.6
  77.720     66.8     10.3  -465.3
  77.740     33.9     10.3  -465.3
  77.760     33.9     10.3  -465.3
  77.780     33.9     10.3  -465.3
  77.800     33.9     10.3  -465.3
  77.820     33.9      9.7  -465.3
  77.840     33.9      9.7  -465.3
  77.860     33.9      9.7  -465.3
  77.880     33.9      9.7  -465.3
  77.900      1.0      9.7  -465.3
  77.920      1.0      9.7  -465.3
  77.940      1.0      9.7  -465.3
  77.960      1.0      9.4  -465.3
  77.980     33.9      9.4  -465.3
  78.000     33.9      9.4  -465.3
  78.020     33.9      9.4  -465.3
  78.040     33.9      9.4  -465.3
  78.060     33.9      9.4  -463.6
  78.080      1.0      9.4  -463.6
  78.100      1.0      9.4  -463.6
  78.120      1.0      9.4  -465.3
  78.140      1.0      9.4  -465.3
  78.160      1.0      9.7  -465.3
  78.180     33.9      9.7  -465.3
  78.200     33.9     10.0  -465.3
  78.220     33.9     10.0  -465.3
  78.240      1.0     10.0  -465.3
  78.260      1.0      9.4  -465.3
  78.280      1.0      9.4  -465.3
  78.300      1.0      9.7  -465.3
  78.320      1.0      9.7  -465.3
  78.340      1.0      9.7  -465.3
  78.360      1.0      9.7  -465.3
  78.380     33.9      9.7  -465.3
  78.400     33.9     10.0  -463.6
  78.420     33.9     10.0  -463.6
  78.440     33.9     10.0  -465.3
  78.460     33.9     10.0  -465.3
  78.480      1.0     10.0  -465.3
  78.500      1.0     10.0  -465.3
  78.520      1.0     10.0  -465.3
  78.540     66.8      9.7  -465.3
  78.560     66.8      9.7  -465.3
  78.580      1.0      9.7  -465.3
  78.600      1.0     10.0  -465.3
  78.620     33.9     10.0  -465.3
  78.640     33.9     10.0  -465.3
  78.660     33.9     10.0  -465.3
  78.680      1.0     10.0  -465.3
  78.700      1.0      9.7  -465.3
  78.720      1.0      9.7  -465.3
  78.740      1.0      9.7  -465.3
  78.760      1.0      9.7  -465.3
  78.780      1.0      9.7  -465.3
  78.800      1.0      9.7  -463.6
  78.820     33.9      9.7  -463.6
  78.840     33.9      9.7  -465.3
  78.860     33.9      9.7  -465.3
  78.880     33.9     10.0  -465.3
  78.900     33.9     10.0  -465.3
  78.920     33.9     10.0  -465.3
  78.940     33.9     10.0  -465.3
  78.960     33.9     10.0  -465.3
  78.980      1.0     10.0  -465.3
  79.000      1.0     10.0  -465.3
  79.020     33.9     10.0  -465.3
  79.040     33.9     10.0  -465.3
  79.060     66.8     10.0  -465.3
  79.080     66.8      9.7  -465.3
  79.100     66.8      9.7  -465.3
  79.120      1.0      9.7  -465.3
  79.140      1.0      9.4  -465.3
  79.160      1.0      9.4  -465.3
  79.180      1.0      8.8  -463.6
  79.200      1.0      8.8  -463.6
  79.220      1.0      8.8  -463.6
  79.240      1.0      8.5  -465.3
  79.260      1.0      8.5  -465.3
  79.280      1.0      8.5  -465.3
  79.300      1.0      8.5  -465.3
