~Version Information
 VERS.                2.0:  CWLS LOG ASCII STANDARD -VERSION 2.0
 WRAP.                 NO:  ONE LINE PER DEPTH STEP
~WELL INFORMATION BLOCK
#MNEM.UNIT       DATA		            DESCRIPTION OF MNEMONIC
#---------    -------------            ------------------------
 STRT.FT  6.060                          :START DEPTH
 STOP.FT  525.860                        :STOP DEPTH
 STEP.FT  0.020                          :STEP    UP_HOLE  
 NULL.    -999.25                        :NULL VALUE
 COMP.    CARLETON GEO LOOP E-1          :COMPANY
 WELL.    278816                                                       :WELL
 FLD .    NORTHFIELD 71-B                :FIELD\LOCATION
 LOC .    31    112   19                 :LOCATION
 CNTY.    RICE                           :COUNTY
 STAT.    CADDDC                         :STATE
 CTRY.    USA                            :COUNTRY
 SRVC.    TRUCK                          :SERVICE COMPANY
 DATE.    08/15/2017                     :LOG DATE
 API .                                       :API NUMBER
 LIC .                                   :LICENSE NUMBER
~Curve Information Block
#MNEM.UNIT      API CODE     Curve Description
#---------    -------------  ------------------------
 DEPT     .FT        00 001 00 00          :  1  DEPTH   
 GAMMA    .API-GR    00 310 00 00          :  2  GAMMA RAY           
 RES      .OHM       00 000 00 00          :  3  SINGLE POINT RES    
 SP       .MV        00 010 00 00          :  4  SPON POTENTIAL      
~Parameter Information Block
#MNEM.UNIT   Information     Description
#---------- ---------------  ------------------------
 FILE.      PROCESSED          :File Type
 FIID.      9060A              :File Type Identifier
 VERS.      3.60Q              :System Version
 SER .      1                  :System Serial Number
 TRUK.      0.0                :Truck Calibration Number
 TOOL.         202             :Tool Serial Number
 TIME.      1341               :Time    HrHrMinMin
 LAT .                         :Latitude
 LON .                         :Longitude
 LMF .                         :Log Measured From
 DMF .                         :Driller Measured From
 PD  .                         :Permanent Data
 PDEV.FT                       :Elevation Permanent Data
 EKB .FT                       :Elevation Kelly Bushing
 ELEV.FT                       :Elevation DF
 EGL .FT    938                :Elevation Ground Level
 DRDP.FT    109                :Driller's Depth
 CASD.FT    6                  :Casing Diameter
 CASB.FT                       :Casing Bottom
 CASX.                         :Casing Type
 CAST.IN    0                  :Casing Thickness
 TNOC.                         :Time Circulation Stopped
 LOGU.                         :Logging Unit
 RECB.      PETTUS             :Recorded By
 OSR1.                         :Other Services
 OSR2.                         :Other Services
 OSR3.                         :Other Services
 BS  .IN           6           :Bit Size
 MST .F                        :Mean Surface Temperature
 TGRD.F     0                  :Temperature Gradiant
 MAGN.      0                  :Magnetic Declination
 MDEN.      2.84               :Density Matrix
 MATR.      DOLOMITE           :Neutron Matrix
 DTMT.      44                 :Delta T Matrix
 DTFL.                         :Delta T Fluid
 MUDS.      0                  :Mud Sample Source
 MRS .      0                  :Mud Resistivity
 MTP .      0                  :Mud Temperature
 MFRS.                         :Resistivity Mud Filtrate
 MFTP.                         :Temperature Mud Filtrate
 MCRS.      0                  :Resistivity Mud Cake
 MCTP.                         :Temperature Mud Cake
 FTYP.      0                  :Fluid Type
 FD  .LB/G     0               :Mud Weight
 DFV .S                        :Fluid Viscosity
 FPH .                         :Fuild PH
 ELCO.      2500               :Electron Cutoff
 CASL.IN    4                  :Casing Logger
 LOTD.FT                       :Logger TD
 ARTM.                         :Arrival Time
 DPTM.                         :Departure Time
 RIGN.                         :Rig Number
~Other Information
#MNEM.UNIT  Information      Description
#---------- ---------------  ------------------------
# -------------------------- 
~A DEPTH  GAMMA    RES      SP    
# ...
 280.840      1.0    119.3  -410.4
 280.860      1.0    119.3  -410.4
 280.880      1.0    119.3  -414.0
 280.900      1.0    119.3  -414.0
 280.920      1.0    119.3  -412.2
 280.940      1.0    119.3  -412.2
 280.960     66.8    119.3  -412.2
 280.980     66.8    120.5  -412.2
 281.000      1.0    120.5  -412.2
 281.020      1.0    119.3  -412.2
 281.040      1.0    119.3  -412.2
 281.060     66.8    119.3  -412.2
 281.080     66.8    120.5  -412.2
 281.100      1.0    120.5  -412.2
 281.120      1.0    120.5  -412.2
 281.140      1.0    120.5  -412.2
 281.160      1.0    120.5  -412.2
 281.180      1.0    119.3  -410.4
 281.200      1.0    119.3  -410.4
 281.220      1.0    121.8  -412.2
 281.240      1.0    121.8  -412.2
 281.260      1.0    121.8  -412.2
 281.280      1.0    120.5  -412.2
 281.300     33.9    120.5  -412.2
 281.320     33.9    121.8  -412.2
 281.340     33.9    121.8  -412.2
 281.360     33.9    121.8  -412.2
 281.380     33.9    121.8  -412.2
 281.400      1.0    121.8  -412.2
 281.420      1.0    121.8  -410.4
 281.440     33.9    121.8  -410.4
 281.460     33.9    123.1  -410.4
 281.480     33.9    123.1  -410.4
 281.500     33.9    123.1  -410.4
 281.520     33.9    124.4  -410.4
 281.540      1.0    124.4  -410.4
 281.560      1.0    124.4  -408.7
 281.580      1.0    124.4  -408.7
 281.600     99.7    124.4  -408.7
 281.620     99.7    125.7  -410.4
 281.640     33.9    125.7  -410.4
 281.660     33.9    127.0  -408.7
 281.680     33.9    127.0  -408.7
 281.700      1.0    128.2  -408.7
 281.720      1.0    128.2  -408.7
 281.740     33.9    128.2  -408.7
 281.760     33.9    128.2  -408.7
 281.780      1.0    128.2  -408.7
 281.800      1.0    129.5  -408.7
 281.820      1.0    129.5  -408.7
 281.840     66.8    129.5  -408.7
 281.860     66.8    130.8  -408.7
 281.880      1.0    130.8  -408.7
 281.900      1.0    132.1  -408.7
 281.920      1.0    132.1  -408.7
 281.940      1.0    132.1  -408.7
 281.960      1.0    133.4  -408.7
 281.980     66.8    133.4  -408.7
 282.000     66.8    133.4  -408.7
 282.020     66.8    133.4  -408.7
 282.040      1.0    135.9  -408.7
 282.060      1.0    135.9  -408.7
 282.080     66.8    135.9  -408.7
 282.100     66.8    134.7  -408.7
 282.120     66.8    134.7  -408.7
 282.140     33.9    135.9  -406.9
 282.160     33.9    135.9  -406.9
 282.180     66.8    135.9  -406.9
 282.200     66.8    134.7  -408.7
 282.220     66.8    134.7  -408.7
 282.240     33.9    135.9  -408.7
 282.260     33.9    135.9  -408.7
 282.280     66.8    135.9  -408.7
 282.300     66.8    134.7  -408.7
 282.320     66.8    134.7  -408.7
 282.340     33.9    133.4  -410.4
 282.360     33.9    133.4  -410.4
 282.380      1.0    133.4  -410.4
 282.400      1.0    132.1  -408.7
 282.420      1.0    132.1  -408.7
 282.440     33.9    130.8  -410.4
 282.460     33.9    130.8  -410.4
 282.480     99.7    130.8  -410.4
 282.500     99.7    129.5  -410.4
 282.520     99.7    129.5  -410.4
 282.540      1.0    129.5  -408.7
 282.560      1.0    129.5  -408.7
 282.580     66.8    129.5  -408.7
 282.600     66.8    128.2  -410.4
 282.620      1.0    128.2  -410.4
 282.640      1.0    127.0  -412.2
 282.660      1.0    127.0  -412.2
 282.680     66.8    125.7  -410.4
 282.700     66.8    125.7  -410.4
 282.720     66.8    125.7  -410.4
 282.740     66.8    124.4  -410.4
 282.760     66.8    124.4  -410.4
 282.780     99.7    124.4  -410.4
 282.800     99.7    124.4  -410.4
 282.820      1.0    124.4  -410.4
 282.840      1.0    123.1  -410.4
 282.860      1.0    123.1  -410.4
 282.880     33.9    123.1  -410.4
 282.900     33.9    123.1  -410.4
 282.920     33.9    123.1  -410.4
 282.940     33.9    121.8  -410.4
 282.960     33.9    121.8  -410.4
 282.980     66.8    121.8  -410.4
 283.000     66.8    121.8  -410.4
 283.020     33.9    121.8  -410.4
 283.040     33.9    121.8  -410.4
 283.060     33.9    121.8  -410.4
 283.080     66.8    120.5  -412.2
 283.100     66.8    120.5  -412.2
 283.120     33.9    120.5  -412.2
 283.140     33.9    121.8  -412.2
 283.160     33.9    121.8  -412.2
 283.180      1.0    120.5  -414.0
 283.200      1.0    120.5  -414.0
 283.220     66.8    120.5  -414.0
 283.240     66.8    121.8  -414.0
 283.260     66.8    121.8  -414.0
 283.280     66.8    120.5  -414.0
 283.300     66.8    120.5  -414.0
 283.320     33.9    120.5  -414.0
 283.340     33.9    120.5  -414.0
 283.360     33.9    120.5  -414.0
 283.380      1.0    120.5  -415.8
 283.400      1.0    120.5  -415.8
 283.420     33.9    120.5  -415.8
 283.440     33.9    120.5  -414.0
 283.460     33.9    120.5  -414.0
 283.480     33.9    119.3  -415.8
 283.500     33.9    119.3  -415.8
 283.520     33.9    119.3  -415.8
 283.540     33.9    119.3  -415.8
 283.560     66.8    119.3  -415.8
 283.580     66.8    119.3  -417.5
 283.600     66.8    119.3  -417.5
 283.620     66.8    119.3  -415.8
 283.640     66.8    119.3  -415.8
 283.660     99.7    119.3  -415.8
 283.680     99.7    118.0  -417.5
 283.700     99.7    118.0  -417.5
 283.720     66.8    119.3  -417.5
 283.740     66.8    119.3  -417.5
 283.760     66.8    119.3  -417.5
 283.780     66.8    118.0  -417.5
 283.800     66.8    118.0  -417.5
 283.820     66.8    119.3  -417.5
 283.840     66.8    119.3  -417.5
 283.860      1.0    119.3  -417.5
 283.880      1.0    118.0  -415.8
 283.900      1.0    118.0  -415.8
 283.920     33.9    120.5  -417.5
 283.940     33.9    120.5  -417.5
 283.960     33.9    120.5  -417.5
 283.980     33.9    120.5  -415.8
 284.000     33.9    120.5  -415.8
 284.020     66.8    120.5  -415.8
 284.040     66.8    120.5  -415.8
 284.060     66.8    120.5  -415.8
 284.080     66.8    121.8  -415.8
 284.100     66.8    121.8  -415.8
 284.120      1.0    123.1  -415.8
 284.140      1.0    123.1  -415.8
 284.160      1.0    123.1  -415.8
 284.180      1.0    123.1  -414.0
 284.200      1.0    123.1  -414.0
 284.220     66.8    121.8  -415.8
 284.240     66.8    121.8  -415.8
 284.260     33.9    121.8  -415.8
 284.280     33.9    123.1  -414.0
 284.300     33.9    123.1  -414.0
 284.320     33.9    121.8  -414.0
 284.340     33.9    121.8  -414.0
 284.360    132.7    121.8  -415.8
 284.380    132.7    121.8  -415.8
 284.400    132.7    121.8  -415.8
 284.420     66.8    121.8  -414.0
 284.440     66.8    121.8  -414.0
 284.460      1.0    121.8  -417.5
 284.480      1.0    121.8  -417.5
 284.500      1.0    121.8  -417.5
 284.520    132.7    119.3  -415.8
 284.540    132.7    119.3  -415.8
 284.560     66.8    119.3  -417.5
 284.580     66.8    119.3  -417.5
 284.600      1.0    119.3  -417.5
 284.620      1.0    119.3  -417.5
 284.640      1.0    119.3  -417.5
 284.660     33.9    118.0  -417.5
 284.680     33.9    118.0  -417.5
 284.700     33.9    118.0  -417.5
 284.720     33.9    116.7  -417.5
 284.740     33.9    116.7  -417.5
 284.760      1.0    115.4  -417.5
 284.780      1.0    115.4  -417.5
 284.800     66.8    115.4  -417.5
 284.820     66.8    115.4  -419.3
 284.840     66.8    115.4  -419.3
 284.860     33.9    114.1  -419.3
 284.880     33.9    114.1  -419.3
 284.900      1.0    114.1  -419.3
 284.920      1.0    112.8  -419.3
 284.940      1.0    112.8  -419.3
 284.960     33.9    114.1  -419.3
 284.980     33.9    114.1  -419.3
 285.000     66.8    114.1  -419.3
 285.020     66.8    111.6  -421.1
 285.040     66.8    111.6  -421.1
 285.060    132.7    111.6  -419.3
 285.080    132.7    111.6  -419.3
 285.100     66.8    111.6  -419.3
 285.120     66.8    111.6  -421.1
 285.140     66.8    111.6  -421.1
 285.160      1.0    111.6  -419.3
 285.180      1.0    111.6  -419.3
 285.200     99.7    111.6  -419.3
 285.220     99.7    110.3  -421.1
 285.240     99.7    110.3  -421.1
 285.260     33.9    110.3  -421.1
 285.280     33.9    110.3  -421.1
 285.300      1.0    110.3  -421.1
 285.320      1.0    109.0  -421.1
 285.340      1.0    109.0  -421.1
 285.360     99.7    109.0  -421.1
 285.380     99.7    109.0  -421.1
 285.400     66.8    109.0  -421.1
