~Version Information
 VERS.                2.0:  CWLS LOG ASCII STANDARD -VERSION 2.0
 WRAP.                 NO:  ONE LINE PER DEPTH STEP
~WELL INFORMATION BLOCK
#MNEM.UNIT       DATA		            DESCRIPTION OF MNEMONIC
#---------    -------------            ------------------------
 STRT.FT  6.060                          :START DEPTH
 STOP.FT  525.860                        :STOP DEPTH
 STEP.FT  0.020                          :STEP    UP_HOLE  
 NULL.    -999.25                        :NULL VALUE
 COMP.    CARLETON GEO LOOP E-1          :COMPANY
 WELL.    278816                                                       :WELL
 FLD .    NORTHFIELD 71-B                :FIELD\LOCATION
 LOC .    31    112   19                 :LOCATION
 CNTY.    RICE                           :COUNTY
 STAT.    CADDDC                         :STATE
 CTRY.    USA                            :COUNTRY
 SRVC.    TRUCK                          :SERVICE COMPANY
 DATE.    08/15/2017                     :LOG DATE
 API .                                       :API NUMBER
 LIC .                                   :LICENSE NUMBER
~Curve Information Block
#MNEM.UNIT      API CODE     Curve Description
#---------    -------------  ------------------------
 DEPT     .FT        00 001 00 00          :  1  DEPTH   
 GAMMA    .API-GR    00 310 00 00          :  2  GAMMA RAY           
 RES      .OHM       00 000 00 00          :  3  SINGLE POINT RES    
 SP       .MV        00 010 00 00          :  4  SPON POTENTIAL      
~Parameter Information Block
#MNEM.UNIT   Information     Description
#---------- ---------------  ------------------------
 FILE.      PROCESSED          :File Type
 FIID.      9060A              :File Type Identifier
 VERS.      3.60Q              :System Version
 SER .      1                  :System Serial Number
 TRUK.      0.0                :Truck Calibration Number
 TOOL.         202             :Tool Serial Number
 TIME.      1341               :Time    HrHrMinMin
 LAT .                         :Latitude
 LON .                         :Longitude
 LMF .                         :Log Measured From
 DMF .                         :Driller Measured From
 PD  .                         :Permanent Data
 PDEV.FT                       :Elevation Permanent Data
 EKB .FT                       :Elevation Kelly Bushing
 ELEV.FT                       :Elevation DF
 EGL .FT    938                :Elevation Ground Level
 DRDP.FT    109                :Driller's Depth
 CASD.FT    6                  :Casing Diameter
 CASB.FT                       :Casing Bottom
 CASX.                         :Casing Type
 CAST.IN    0                  :Casing Thickness
 TNOC.                         :Time Circulation Stopped
 LOGU.                         :Logging Unit
 RECB.      PETTUS             :Recorded By
 OSR1.                         :Other Services
 OSR2.                         :Other Services
 OSR3.                         :Other Services
 BS  .IN           6           :Bit Size
 MST .F                        :Mean Surface Temperature
 TGRD.F     0                  :Temperature Gradiant
 MAGN.      0                  :Magnetic Declination
 MDEN.      2.84               :Density Matrix
 MATR.      DOLOMITE           :Neutron Matrix
 DTMT.      44                 :Delta T Matrix
 DTFL.                         :Delta T Fluid
 MUDS.      0                  :Mud Sample Source
 MRS .      0                  :Mud Resistivity
 MTP .      0                  :Mud Temperature
 MFRS.                         :Resistivity Mud Filtrate
 MFTP.                         :Temperature Mud Filtrate
 MCRS.      0                  :Resistivity Mud Cake
 MCTP.                         :Temperature Mud Cake
 FTYP.      0                  :Fluid Type
 FD  .LB/G     0               :Mud Weight
 DFV .S                        :Fluid Viscosity
 FPH .                         :Fuild PH
 ELCO.      2500               :Electron Cutoff
 CASL.IN    4                  :Casing Logger
 LOTD.FT                       :Logger TD
 ARTM.                         :Arrival Time
 DPTM.                         :Departure Time
 RIGN.                         :Rig Number
~Other Information
#MNEM.UNIT  Information      Description
#---------- ---------------  ------------------------
# -------------------------- 
~A DEPTH  GAMMA    RES      SP    
# ...
 248.780      1.0    143.6  -355.6
 248.800      1.0    142.4  -357.3
 248.820      1.0    142.4  -357.3
 248.840      1.0    142.4  -357.3
 248.860      1.0    142.4  -359.1
 248.880      1.0    142.4  -359.1
 248.900      1.0    143.6  -360.9
 248.920      1.0    143.6  -360.9
 248.940      1.0    143.6  -360.9
 248.960     33.9    141.1  -359.1
 248.980     33.9    141.1  -359.1
 249.000      1.0    141.1  -359.1
 249.020      1.0    139.8  -362.6
 249.040      1.0    139.8  -362.6
 249.060     33.9    137.2  -360.9
 249.080     33.9    137.2  -360.9
 249.100      1.0    134.7  -360.9
 249.120      1.0    134.7  -360.9
 249.140      1.0    134.7  -360.9
 249.160     66.8    135.9  -360.9
 249.180     66.8    135.9  -360.9
 249.200      1.0    132.1  -360.9
 249.220      1.0    132.1  -360.9
 249.240      1.0    132.1  -360.9
 249.260      1.0    129.5  -360.9
 249.280      1.0    129.5  -360.9
 249.300     33.9    128.2  -359.1
 249.320     33.9    128.2  -359.1
 249.340     33.9    128.2  -359.1
 249.360     33.9    130.8  -359.1
 249.380     33.9    130.8  -359.1
 249.400     33.9    130.8  -359.1
 249.420     33.9    130.8  -359.1
 249.440     33.9    130.8  -359.1
 249.460      1.0    129.5  -357.3
 249.480      1.0    129.5  -357.3
 249.500      1.0    130.8  -359.1
 249.520      1.0    130.8  -359.1
 249.540      1.0    130.8  -359.1
 249.560      1.0    129.5  -357.3
 249.580      1.0    129.5  -357.3
 249.600      1.0    132.1  -359.1
 249.620      1.0    132.1  -359.1
 249.640      1.0    132.1  -359.1
 249.660      1.0    130.8  -359.1
 249.680      1.0    130.8  -359.1
 249.700      1.0    132.1  -357.3
 249.720      1.0    132.1  -357.3
 249.740      1.0    132.1  -357.3
 249.760     66.8    132.1  -359.1
 249.780     66.8    132.1  -359.1
 249.800      1.0    132.1  -357.3
 249.820      1.0    132.1  -357.3
 249.840      1.0    132.1  -357.3
 249.860     33.9    132.1  -359.1
 249.880     33.9    132.1  -359.1
 249.900     99.7    133.4  -357.3
 249.920     99.7    133.4  -357.3
 249.940     33.9    133.4  -357.3
 249.960     33.9    132.1  -357.3
 249.980     33.9    132.1  -357.3
 250.000      1.0    133.4  -357.3
 250.020      1.0    133.4  -357.3
 250.040      1.0    133.4  -357.3
 250.060      1.0    133.4  -355.6
 250.080      1.0    133.4  -355.6
 250.100      1.0    133.4  -357.3
 250.120      1.0    133.4  -357.3
 250.140      1.0    133.4  -357.3
 250.160      1.0    132.1  -355.6
 250.180      1.0    132.1  -355.6
 250.200     33.9    133.4  -353.8
 250.220     33.9    133.4  -353.8
 250.240     33.9    133.4  -353.8
 250.260     33.9    133.4  -355.6
 250.280     33.9    133.4  -355.6
 250.300     66.8    132.1  -353.8
 250.320     66.8    132.1  -353.8
 250.340      1.0    132.1  -353.8
 250.360      1.0    133.4  -352.0
 250.380      1.0    133.4  -352.0
 250.400     33.9    132.1  -353.8
 250.420     33.9    132.1  -353.8
 250.440     33.9    132.1  -353.8
 250.460     33.9    133.4  -352.0
 250.480     33.9    133.4  -352.0
 250.500      1.0    132.1  -352.0
 250.520      1.0    132.1  -352.0
 250.540      1.0    132.1  -352.0
 250.560      1.0    130.8  -350.2
 250.580      1.0    130.8  -350.2
 250.600      1.0    132.1  -352.0
 250.620      1.0    132.1  -352.0
 250.640      1.0    132.1  -352.0
 250.660      1.0    132.1  -352.0
 250.680      1.0    132.1  -352.0
 250.700      1.0    130.8  -350.2
 250.720      1.0    130.8  -350.2
 250.740      1.0    130.8  -350.2
 250.760      1.0    132.1  -352.0
 250.780      1.0    132.1  -352.0
 250.800      1.0    130.8  -352.0
 250.820      1.0    130.8  -352.0
 250.840      1.0    132.1  -352.0
 250.860      1.0    132.1  -352.0
 250.880      1.0    132.1  -352.0
 250.900      1.0    130.8  -353.8
 250.920      1.0    130.8  -353.8
 250.940     33.9    130.8  -355.6
 250.960     33.9    130.8  -355.6
 250.980     33.9    130.8  -355.6
 251.000      1.0    132.1  -355.6
 251.020      1.0    132.1  -355.6
 251.040      1.0    130.8  -357.3
 251.060      1.0    130.8  -357.3
 251.080      1.0    130.8  -357.3
 251.100      1.0    130.8  -359.1
 251.120      1.0    130.8  -359.1
 251.140      1.0    132.1  -359.1
 251.160      1.0    132.1  -359.1
 251.180      1.0    132.1  -359.1
 251.200     66.8    130.8  -360.9
 251.220     66.8    130.8  -360.9
 251.240      1.0    130.8  -359.1
 251.260      1.0    130.8  -359.1
 251.280      1.0    130.8  -359.1
 251.300      1.0    130.8  -360.9
 251.320      1.0    130.8  -360.9
 251.340      1.0    129.5  -360.9
 251.360      1.0    129.5  -360.9
 251.380      1.0    129.5  -360.9
 251.400     33.9    130.8  -359.1
 251.420     33.9    130.8  -359.1
 251.440     33.9    130.8  -360.9
 251.460     33.9    130.8  -360.9
 251.480     33.9    130.8  -360.9
 251.500      1.0    129.5  -362.6
 251.520      1.0    129.5  -362.6
 251.540      1.0    129.5  -362.6
 251.560      1.0    129.5  -362.6
 251.580      1.0    129.5  -362.6
 251.600     33.9    129.5  -362.6
 251.620     33.9    129.5  -362.6
 251.640      1.0    128.2  -362.6
 251.660      1.0    128.2  -362.6
 251.680      1.0    128.2  -362.6
 251.700      1.0    129.5  -364.4
 251.720      1.0    129.5  -364.4
 251.740     33.9    128.2  -364.4
 251.760     33.9    128.2  -364.4
 251.780     33.9    128.2  -364.4
 251.800      1.0    129.5  -366.2
 251.820      1.0    129.5  -366.2
 251.840      1.0    128.2  -364.4
 251.860      1.0    128.2  -364.4
 251.880      1.0    128.2  -364.4
 251.900      1.0    129.5  -366.2
 251.920      1.0    129.5  -366.2
 251.940      1.0    128.2  -366.2
 251.960      1.0    128.2  -366.2
 251.980     33.9    128.2  -366.2
 252.000     33.9    129.5  -368.0
 252.020     33.9    129.5  -368.0
 252.040      1.0    128.2  -366.2
 252.060      1.0    128.2  -366.2
 252.080      1.0    128.2  -366.2
 252.100      1.0    129.5  -368.0
 252.120      1.0    129.5  -368.0
 252.140      1.0    129.5  -366.2
 252.160      1.0    129.5  -366.2
 252.180     33.9    129.5  -366.2
 252.200     33.9    128.2  -368.0
 252.220     33.9    128.2  -368.0
 252.240      1.0    129.5  -368.0
 252.260      1.0    129.5  -368.0
 252.280     33.9    129.5  -368.0
 252.300     33.9    128.2  -368.0
 252.320     33.9    128.2  -368.0
 252.340      1.0    128.2  -368.0
 252.360      1.0    128.2  -368.0
 252.380      1.0    128.2  -368.0
 252.400      1.0    128.2  -368.0
 252.420      1.0    128.2  -368.0
 252.440     33.9    127.0  -369.7
 252.460     33.9    127.0  -369.7
 252.480      1.0    127.0  -369.7
 252.500      1.0    128.2  -369.7
 252.520      1.0    128.2  -369.7
 252.540      1.0    128.2  -369.7
 252.560      1.0    128.2  -369.7
 252.580      1.0    128.2  -369.7
 252.600      1.0    128.2  -369.7
 252.620      1.0    128.2  -369.7
 252.640      1.0    127.0  -369.7
 252.660      1.0    127.0  -369.7
 252.680      1.0    127.0  -369.7
 252.700      1.0    128.2  -371.5
 252.720      1.0    128.2  -371.5
 252.740      1.0    128.2  -371.5
 252.760      1.0    128.2  -371.5
 252.780      1.0    128.2  -371.5
 252.800      1.0    128.2  -369.7
 252.820      1.0    128.2  -369.7
 252.840      1.0    127.0  -371.5
 252.860      1.0    127.0  -371.5
 252.880     33.9    128.2  -371.5
 252.900     33.9    128.2  -371.5
 252.920     33.9    128.2  -371.5
 252.940      1.0    128.2  -371.5
 252.960      1.0    128.2  -371.5
 252.980      1.0    128.2  -369.7
 253.000      1.0    128.2  -369.7
 253.020      1.0    128.2  -369.7
 253.040      1.0    127.0  -369.7
 253.060      1.0    127.0  -369.7
 253.080      1.0    128.2  -369.7
 253.100      1.0    128.2  -369.7
 253.120      1.0    128.2  -369.7
 253.140      1.0    129.5  -369.7
 253.160      1.0    129.5  -369.7
 253.180      1.0    128.2  -369.7
 253.200      1.0    128.2  -369.7
 253.220      1.0    128.2  -369.7
 253.240     66.8    128.2  -369.7
 253.260     66.8    128.2  -369.7
 253.280      1.0    129.5  -369.7
 253.300      1.0    129.5  -369.7
 253.320      1.0    129.5  -369.7
 253.340      1.0    129.5  -368.0
