~Version Information
 VERS.                2.0:  CWLS LOG ASCII STANDARD -VERSION 2.0
 WRAP.                 NO:  ONE LINE PER DEPTH STEP
~WELL INFORMATION BLOCK
#MNEM.UNIT       DATA		            DESCRIPTION OF MNEMONIC
#---------    -------------            ------------------------
 STRT.FT  6.060                          :START DEPTH
 STOP.FT  525.860                        :STOP DEPTH
 STEP.FT  0.020                          :STEP    UP_HOLE  
 NULL.    -999.25                        :NULL VALUE
 COMP.    CARLETON GEO LOOP E-1          :COMPANY
 WELL.    278816                                                       :WELL
 FLD .    NORTHFIELD 71-B                :FIELD\LOCATION
 LOC .    31    112   19                 :LOCATION
 CNTY.    RICE                           :COUNTY
 STAT.    CADDDC                         :STATE
 CTRY.    USA                            :COUNTRY
 SRVC.    TRUCK                          :SERVICE COMPANY
 DATE.    08/15/2017                     :LOG DATE
 API .                                       :API NUMBER
 LIC .                                   :LICENSE NUMBER
~Curve Information Block
#MNEM.UNIT      API CODE     Curve Description
#---------    -------------  ------------------------
 DEPT     .FT        00 001 00 00          :  1  DEPTH   
 GAMMA    .API-GR    00 310 00 00          :  2  GAMMA RAY           
 RES      .OHM       00 000 00 00          :  3  SINGLE POINT RES    
 SP       .MV        00 010 00 00          :  4  SPON POTENTIAL      
~Parameter Information Block
#MNEM.UNIT   Information     Description
#---------- ---------------  ------------------------
 FILE.      PROCESSED          :File Type
 FIID.      9060A              :File Type Identifier
 VERS.      3.60Q              :System Version
 SER .      1                  :System Serial Number
 TRUK.      0.0                :Truck Calibration Number
 TOOL.         202             :Tool Serial Number
 TIME.      1341               :Time    HrHrMinMin
 LAT .                         :Latitude
 LON .                         :Longitude
 LMF .                         :Log Measured From
 DMF .                         :Driller Measured From
 PD  .                         :Permanent Data
 PDEV.FT                       :Elevation Permanent Data
 EKB .FT                       :Elevation Kelly Bushing
 ELEV.FT                       :Elevation DF
 EGL .FT    938                :Elevation Ground Level
 DRDP.FT    109                :Driller's Depth
 CASD.FT    6                  :Casing Diameter
 CASB.FT                       :Casing Bottom
 CASX.                         :Casing Type
 CAST.IN    0                  :Casing Thickness
 TNOC.                         :Time Circulation Stopped
 LOGU.                         :Logging Unit
 RECB.      PETTUS             :Recorded By
 OSR1.                         :Other Services
 OSR2.                         :Other Services
 OSR3.                         :Other Services
 BS  .IN           6           :Bit Size
 MST .F                        :Mean Surface Temperature
 TGRD.F     0                  :Temperature Gradiant
 MAGN.      0                  :Magnetic Declination
 MDEN.      2.84               :Density Matrix
 MATR.      DOLOMITE           :Neutron Matrix
 DTMT.      44                 :Delta T Matrix
 DTFL.                         :Delta T Fluid
 MUDS.      0                  :Mud Sample Source
 MRS .      0                  :Mud Resistivity
 MTP .      0                  :Mud Temperature
 MFRS.                         :Resistivity Mud Filtrate
 MFTP.                         :Temperature Mud Filtrate
 MCRS.      0                  :Resistivity Mud Cake
 MCTP.                         :Temperature Mud Cake
 FTYP.      0                  :Fluid Type
 FD  .LB/G     0               :Mud Weight
 DFV .S                        :Fluid Viscosity
 FPH .                         :Fuild PH
 ELCO.      2500               :Electron Cutoff
 CASL.IN    4                  :Casing Logger
 LOTD.FT                       :Logger TD
 ARTM.                         :Arrival Time
 DPTM.                         :Departure Time
 RIGN.                         :Rig Number
~Other Information
#MNEM.UNIT  Information      Description
#---------- ---------------  ------------------------
# -------------------------- 
~A DEPTH  GAMMA    RES      SP    
# ...
 523.580    198.5    100.0  -465.3
 523.600    165.6    103.9  -465.3
 523.620    165.6    103.9  -465.3
 523.640     99.7    105.1  -465.3
 523.660     99.7    105.1  -465.3
 523.680     99.7    105.1  -465.3
 523.700     99.7    106.4  -465.3
 523.720     99.7    106.4  -465.3
 523.740     99.7    109.0  -465.3
 523.760     99.7    109.0  -465.3
 523.780     33.9    109.0  -465.3
 523.800     33.9    111.6  -465.3
 523.820     66.8    111.6  -465.3
 523.840     66.8    115.4  -465.3
 523.860     33.9    115.4  -465.3
 523.880     33.9    118.0  -463.6
 523.900     33.9    118.0  -463.6
 523.920    231.4    118.0  -463.6
 523.940    231.4    121.8  -465.3
 523.960     66.8    121.8  -465.3
 523.980     66.8    127.0  -465.3
 524.000     99.7    127.0  -465.3
 524.020     99.7    127.0  -465.3
 524.040     33.9    129.5  -465.3
 524.060     33.9    129.5  -465.3
 524.080     33.9    133.4  -465.3
 524.100    198.5    133.4  -465.3
 524.120    198.5    137.2  -465.3
 524.140    132.7    137.2  -465.3
 524.160    132.7    137.2  -465.3
 524.180     33.9    141.1  -465.3
 524.200     33.9    141.1  -465.3
 524.220     99.7    147.5  -465.3
 524.240     99.7    147.5  -465.3
 524.260    165.6    153.9  -465.3
 524.280    165.6    153.9  -465.3
 524.300     33.9    153.9  -465.3
 524.320     33.9    160.3  -465.3
 524.340    132.7    160.3  -465.3
 524.360    132.7    166.7  -467.1
 524.380     33.9    166.7  -467.1
 524.400     33.9    171.9  -465.3
 524.420     33.9    171.9  -465.3
 524.440     33.9    174.4  -465.3
 524.460     66.8    174.4  -465.3
 524.480     66.8    174.4  -465.3
 524.500     33.9    178.3  -465.3
 524.520     33.9    178.3  -465.3
 524.540     99.7    179.6  -465.3
 524.560     99.7    179.6  -465.3
 524.580    198.5    179.6  -465.3
 524.600    198.5    179.6  -465.3
 524.620    198.5    179.6  -465.3
 524.640     33.9    179.6  -465.3
 524.660     99.7    179.6  -465.3
 524.680     99.7    177.0  -465.3
 524.700     33.9    177.0  -465.3
 524.720     99.7    177.0  -465.3
 524.740    231.4    177.0  -465.3
 524.760    231.4    174.4  -465.3
 524.780     66.8    174.4  -465.3
 524.800     33.9    174.4  -465.3
 524.820     33.9    173.2  -465.3
 524.840      1.0    173.2  -465.3
 524.860     66.8    171.9  -465.3
 524.880     99.7    171.9  -465.3
 524.900     66.8    168.0  -465.3
 524.920     83.3    168.0  -465.3
 524.940    165.6    165.5  -465.3
 524.960    107.2    165.5  -465.3
 524.980  -999.25    165.5  -465.3
 525.000  -999.25    164.2  -465.3
 525.020  -999.25    164.2  -465.3
 525.040  -999.25    162.9  -465.3
 525.060  -999.25    162.9  -465.3
 525.080  -999.25    160.3  -465.3
 525.100  -999.25    160.3  -465.3
 525.120  -999.25    156.5  -465.3
 525.140  -999.25    156.5  -465.3
 525.160  -999.25    153.9  -465.3
 525.180  -999.25    153.9  -465.3
 525.200  -999.25    150.1  -465.3
 525.220  -999.25    150.1  -465.3
 525.240  -999.25    148.8  -465.3
 525.260  -999.25    148.8  -465.3
 525.280  -999.25    146.2  -465.3
 525.300  -999.25    146.2  -465.3
 525.320  -999.25    142.4  -465.3
 525.340  -999.25    142.4  -465.3
 525.360  -999.25    142.4  -465.3
 525.380  -999.25    142.4  -465.3
 525.400  -999.25    141.1  -465.3
 525.420  -999.25    141.1  -465.3
 525.440  -999.25    139.8  -465.3
 525.460  -999.25    139.8  -465.3
 525.480  -999.25    139.8  -465.3
 525.500  -999.25    139.8  -465.3
 525.520  -999.25    139.8  -465.3
 525.540  -999.25    139.8  -465.3
 525.560  -999.25    139.8  -465.3
 525.580  -999.25    139.8  -465.3
 525.600  -999.25    138.5  -465.3
 525.620  -999.25    138.5  -465.3
 525.640  -999.25    138.5  -465.3
 525.660  -999.25    138.5  -465.3
 525.680  -999.25    138.5  -465.3
 525.700  -999.25    137.2  -465.3
 525.720  -999.25    138.5  -465.3
 525.740  -999.25    137.2  -465.3
 525.760  -999.25    137.2  -465.3
 525.780  -999.25    138.5  -465.3
 525.800  -999.25    137.2  -465.3
 525.820  -999.25    136.6  -465.3
 525.840  -999.25    137.2  -465.3
 525.860  -999.25    137.0  -465.3
