~Version Information
 VERS.                2.0:  CWLS LOG ASCII STANDARD -VERSION 2.0
 WRAP.                 NO:  ONE LINE PER DEPTH STEP
~WELL INFORMATION BLOCK
#MNEM.UNIT       DATA		            DESCRIPTION OF MNEMONIC
#---------    -------------            ------------------------
 STRT.FT  6.060                          :START DEPTH
 STOP.FT  525.860                        :STOP DEPTH
 STEP.FT  0.020                          :STEP    UP_HOLE  
 NULL.    -999.25                        :NULL VALUE
 COMP.    CARLETON GEO LOOP E-1          :COMPANY
 WELL.    278816                                                       :WELL
 FLD .    NORTHFIELD 71-B                :FIELD\LOCATION
 LOC .    31    112   19                 :LOCATION
 CNTY.    RICE                           :COUNTY
 STAT.    CADDDC                         :STATE
 CTRY.    USA                            :COUNTRY
 SRVC.    TRUCK                          :SERVICE COMPANY
 DATE.    08/15/2017                     :LOG DATE
 API .                                       :API NUMBER
 LIC .                                   :LICENSE NUMBER
~Curve Information Block
#MNEM.UNIT      API CODE     Curve Description
#---------    -------------  ------------------------
 DEPT     .FT        00 001 00 00          :  1  DEPTH   
 GAMMA    .API-GR    00 310 00 00          :  2  GAMMA RAY           
 RES      .OHM       00 000 00 00          :  3  SINGLE POINT RES    
 SP       .MV        00 010 00 00          :  4  SPON POTENTIAL      
~Parameter Information Block
#MNEM.UNIT   Information     Description
#---------- ---------------  ------------------------
 FILE.      PROCESSED          :File Type
 FIID.      9060A              :File Type Identifier
 VERS.      3.60Q              :System Version
 SER .      1                  :System Serial Number
 TRUK.      0.0                :Truck Calibration Number
 TOOL.         202             :Tool Serial Number
 TIME.      1341               :Time    HrHrMinMin
 LAT .                         :Latitude
 LON .                         :Longitude
 LMF .                         :Log Measured From
 DMF .                         :Driller Measured From
 PD  .                         :Permanent Data
 PDEV.FT                       :Elevation Permanent Data
 EKB .FT                       :Elevation Kelly Bushing
 ELEV.FT                       :Elevation DF
 EGL .FT    938                :Elevation Ground Level
 DRDP.FT    109                :Driller's Depth
 CASD.FT    6                  :Casing Diameter
 CASB.FT                       :Casing Bottom
 CASX.                         :Casing Type
 CAST.IN    0                  :Casing Thickness
 TNOC.                         :Time Circulation Stopped
 LOGU.                         :Logging Unit
 RECB.      PETTUS             :Recorded By
 OSR1.                         :Other Services
 OSR2.                         :Other Services
 OSR3.                         :Other Services
 BS  .IN           6           :Bit Size
 MST .F                        :Mean Surface Temperature
 TGRD.F     0                  :Temperature Gradiant
 MAGN.      0                  :Magnetic Declination
 MDEN.      2.84               :Density Matrix
 MATR.      DOLOMITE           :Neutron Matrix
 DTMT.      44                 :Delta T Matrix
 DTFL.                         :Delta T Fluid
 MUDS.      0                  :Mud Sample Source
 MRS .      0                  :Mud Resistivity
 MTP .      0                  :Mud Temperature
 MFRS.                         :Resistivity Mud Filtrate
 MFTP.                         :Temperature Mud Filtrate
 MCRS.      0                  :Resistivity Mud Cake
 MCTP.                         :Temperature Mud Cake
 FTYP.      0                  :Fluid Type
 FD  .LB/G     0               :Mud Weight
 DFV .S                        :Fluid Viscosity
 FPH .                         :Fuild PH
 ELCO.      2500               :Electron Cutoff
 CASL.IN    4                  :Casing Logger
 LOTD.FT                       :Logger TD
 ARTM.                         :Arrival Time
 DPTM.                         :Departure Time
 RIGN.                         :Rig Number
~Other Information
#MNEM.UNIT  Information      Description
#---------- ---------------  ------------------------
# -------------------------- 
~A DEPTH  GAMMA    RES      SP    
   6.060     22.9  -999.25  -999.25
   6.080      1.0  -999.25  -999.25
   6.100     17.5  -999.25  -999.25
   6.120      1.0  -999.25  -999.25
   6.140     17.5  -999.25  -999.25
   6.160     33.9  -999.25  -999.25
   6.180     17.5  -999.25  -999.25
   6.200     17.5  -999.25  -999.25
   6.220     17.5  -999.25  -999.25
   6.240      1.0  -999.25  -999.25
   6.260     17.5  -999.25  -999.25
   6.280      1.0  -999.25  -999.25
   6.300      1.0  -999.25  -999.25
   6.320     17.5  -999.25  -999.25
   6.340     33.9  -999.25  -999.25
   6.360     17.5  -999.25  -999.25
   6.380     17.5  -999.25  -999.25
   6.400     66.8  -999.25  -999.25
   6.420     33.9  -999.25  -999.25
   6.440      1.0  -999.25  -999.25
   6.460     33.9  -999.25  -999.25
   6.480      1.0  -999.25  -999.25
   6.500     17.5  -999.25  -999.25
   6.520      1.0  -999.25  -999.25
   6.540     33.9  -999.25  -999.25
   6.560     17.5  -999.25  -999.25
   6.580      1.0  -999.25  -999.25
   6.600      1.0  -999.25  -999.25
   6.620      1.0  -999.25  -999.25
   6.640      1.0  -999.25  -999.25
   6.660     17.5  -999.25  -999.25
   6.680     33.9  -999.25  -999.25
   6.700      1.0  -999.25  -999.25
   6.720      1.0  -999.25  -465.3
   6.740     66.8  -999.25  -464.5
   6.760      1.0  -999.25  -465.3
   6.780     33.9  -999.25  -465.3
   6.800      1.0  -999.25  -465.3
   6.820     33.9  -999.25  -465.3
   6.840      1.0  -999.25  -465.3
   6.860      1.0  -999.25  -465.3
   6.880     66.8  -999.25  -464.7
   6.900      1.0  -999.25  -465.3
   6.920     66.8  -999.25  -465.3
   6.940     33.9  -999.25  -465.3
   6.960      1.0  -999.25  -465.3
   6.980     66.8  -999.25  -465.3
   7.000     33.9  -999.25  -465.3
   7.020      1.0  -999.25  -464.5
   7.040     33.9  -999.25  -465.3
   7.060      1.0  -999.25  -465.3
   7.080     33.9  -999.25  -465.3
   7.100     33.9  -999.25  -465.3
   7.120      1.0  -999.25  -465.3
   7.140      1.0  -999.25  -465.3
   7.160      1.0  -999.25  -465.3
   7.180      1.0  -999.25  -464.5
   7.200      1.0  -999.25  -465.3
   7.220      1.0  -999.25  -465.3
   7.240     33.9  -999.25  -465.3
   7.260     33.9  -999.25  -465.3
   7.280      1.0  -999.25  -465.3
   7.300     33.9  -999.25  -465.3
   7.320      1.0  -999.25  -465.3
   7.340      1.0  -999.25  -464.5
   7.360      1.0  -999.25  -465.3
   7.380      1.0  -999.25  -465.3
   7.400      1.0  -999.25  -465.3
   7.420      1.0  -999.25  -465.3
   7.440      1.0  -999.25  -465.3
   7.460     66.8  -999.25  -465.3
   7.480      1.0  -999.25  -465.3
   7.500     66.8  -999.25  -465.3
   7.520     33.9  -999.25  -464.5
   7.540     66.8  -999.25  -465.3
   7.560     66.8  -999.25  -465.3
   7.580     33.9  -999.25  -465.3
   7.600     66.8  -999.25  -465.3
   7.620     66.8  -999.25  -465.3
   7.640     66.8  -999.25  -465.3
   7.660     33.9  -999.25  -465.3
   7.680      1.0  -999.25  -465.3
   7.700     33.9  -999.25  -465.3
   7.720     33.9  -999.25  -465.3
   7.740     33.9  -999.25  -465.3
   7.760      1.0  -999.25  -465.3
   7.780     33.9  -999.25  -465.3
   7.800      1.0  -999.25  -463.6
   7.820      1.0  -999.25  -465.3
   7.840     33.9  -999.25  -465.3
   7.860      1.0  -999.25  -465.3
   7.880      1.0  -999.25  -465.3
   7.900     66.8  -999.25  -465.3
   7.920     66.8  -999.25  -465.3
   7.940      1.0  -999.25  -465.3
   7.960      1.0  -999.25  -465.3
   7.980      1.0  -999.25  -465.3
   8.000      1.0  -999.25  -465.3
   8.020     33.9  -999.25  -465.3
   8.040     33.9  -999.25  -465.3
   8.060      1.0  -999.25  -465.3
   8.080      1.0  -999.25  -465.3
   8.100     33.9  -999.25  -465.3
   8.120     33.9  -999.25  -463.6
   8.140     33.9  -999.25  -465.3
   8.160      1.0  -999.25  -465.3
   8.180      1.0  -999.25  -465.3
   8.200     33.9  -999.25  -465.3
   8.220      1.0  -999.25  -465.3
   8.240     33.9  -999.25  -465.3
   8.260     33.9  -999.25  -465.3
   8.280      1.0  -999.25  -465.3
   8.300      1.0  -999.25  -465.3
   8.320      1.0  -999.25  -465.3
   8.340      1.0  -999.25  -465.3
   8.360     33.9  -999.25  -465.3
   8.380     33.9  -999.25  -465.3
   8.400     33.9  -999.25  -465.3
   8.420     66.8  -999.25  -465.3
   8.440     66.8  -999.25  -463.6
   8.460      1.0  -999.25  -463.6
   8.480     33.9  -999.25  -465.3
   8.500      1.0  -999.25  -465.3
   8.520     66.8  -999.25  -465.3
   8.540     66.8  -999.25  -465.3
   8.560     33.9  -999.25  -465.3
   8.580      1.0  -999.25  -465.3
   8.600      1.0  -999.25  -465.3
   8.620      1.0  -999.25  -465.3
   8.640      1.0  -999.25  -465.3
   8.660     66.8  -999.25  -465.3
   8.680     66.8  -999.25  -465.3
   8.700     33.9  -999.25  -465.3
   8.720      1.0  -999.25  -465.3
   8.740      1.0  -999.25  -465.3
   8.760    132.7  -999.25  -465.3
   8.780      1.0  -999.25  -465.3
   8.800      1.0  -999.25  -465.3
   8.820     66.8  -999.25  -465.3
   8.840      1.0  -999.25  -463.6
   8.860      1.0  -999.25  -465.3
   8.880      1.0  -999.25  -465.3
   8.900      1.0  -999.25  -465.3
   8.920      1.0  -999.25  -465.3
   8.940     66.8  -999.25  -465.3
   8.960     66.8  -999.25  -465.3
   8.980      1.0  -999.25  -465.3
   9.000      1.0  -999.25  -465.3
   9.020      1.0  -999.25  -465.3
   9.040     33.9  -999.25  -465.3
   9.060     66.8  -999.25  -465.3
   9.080     66.8  -999.25  -465.3
   9.100     33.9  -999.25  -465.3
   9.120     33.9  -999.25  -465.3
   9.140     33.9  -999.25  -465.3
   9.160     66.8  -999.25  -465.3
   9.180     66.8  -999.25  -463.6
   9.200     33.9  -999.25  -465.3
   9.220     33.9  -999.25  -465.3
   9.240     33.9  -999.25  -465.3
   9.260      1.0  -999.25  -465.3
   9.280     33.9  -999.25  -465.3
   9.300     33.9  -999.25  -465.3
   9.320      1.0  -999.25  -465.3
   9.340      1.0  -999.25  -465.3
   9.360      1.0  -999.25  -465.3
   9.380      1.0  -999.25  -465.3
   9.400      1.0  -999.25  -465.3
   9.420     33.9  -999.25  -465.3
   9.440     33.9  -999.25  -465.3
   9.460     33.9  -999.25  -465.3
   9.480      1.0  -999.25  -465.3
   9.500     33.9  -999.25  -465.3
   9.520     33.9  -999.25  -465.3
   9.540      1.0  -999.25  -463.6
   9.560      1.0  -999.25  -465.3
   9.580      1.0  -999.25  -465.3
   9.600     33.9  -999.25  -465.3
   9.620     33.9  -999.25  -465.3
   9.640      1.0  -999.25  -465.3
   9.660     66.8  -999.25  -465.3
   9.680     66.8  -999.25  -465.3
   9.700     33.9  -999.25  -465.3
   9.720      1.0  -999.25  -465.3
   9.740      1.0  -999.25  -465.3
   9.760      1.0  -999.25  -465.3
   9.780     33.9  -999.25  -465.3
   9.800     33.9  -999.25  -465.3
   9.820      1.0  -999.25  -465.3
   9.840      1.0  -999.25  -465.3
   9.860      1.0  -999.25  -465.3
   9.880      1.0  -999.25  -465.3
   9.900      1.0  -999.25  -465.3
   9.920     33.9  -999.25  -465.3
   9.940     33.9  -999.25  -465.3
   9.960     33.9  -999.25  -463.6
   9.980     33.9  -999.25  -463.6
  10.000      1.0  -999.25  -465.3
  10.020      1.0  -999.25  -465.3
  10.040      1.0  -999.25  -465.3
  10.060      1.0  -999.25  -465.3
  10.080      1.0  -999.25  -465.3
  10.100     33.9  -999.25  -465.3
  10.120     33.9  -999.25  -465.3
  10.140     33.9  -999.25  -465.3
  10.160     33.9  -999.25  -465.3
  10.180      1.0  -999.25  -465.3
  10.200      1.0  -999.25  -465.3
  10.220      1.0  -999.25  -465.3
  10.240     99.7  -999.25  -465.3
  10.260     33.9  -999.25  -465.3
  10.280     33.9  -999.25  -465.3
  10.300      1.0  -999.25  -465.3
  10.320      1.0  -999.25  -465.3
  10.340     99.7  -999.25  -465.3
  10.360      1.0  -999.25  -465.3
  10.380      1.0  -999.25  -465.3
  10.400     33.9  -999.25  -463.6
  10.420     33.9  -999.25  -463.6
  10.440      1.0  -999.25  -465.3
  10.460     33.9  -999.25  -465.3
  10.480     33.9  -999.25  -465.3
  10.500     33.9  -999.25  -465.3
  10.520     33.9  -999.25  -465.3
  10.540      1.0  -999.25  -465.3
  10.560      1.0  -999.25  -465.3
  10.580      1.0  -999.25  -465.3
  10.600      1.0  -999.25  -465.3
