~Version Information
 VERS.                2.0:  CWLS LOG ASCII STANDARD -VERSION 2.0
 WRAP.                 NO:  ONE LINE PER DEPTH STEP
~WELL INFORMATION BLOCK
#MNEM.UNIT       DATA		            DESCRIPTION OF MNEMONIC
#---------    -------------            ------------------------
 STRT.FT  6.060                          :START DEPTH
 STOP.FT  525.860                        :STOP DEPTH
 STEP.FT  0.020                          :STEP    UP_HOLE  
 NULL.    -999.25                        :NULL VALUE
 COMP.    CARLETON GEO LOOP E-1          :COMPANY
 WELL.    278816                                                       :WELL
 FLD .    NORTHFIELD 71-B                :FIELD\LOCATION
 LOC .    31    112   19                 :LOCATION
 CNTY.    RICE                           :COUNTY
 STAT.    CADDDC                         :STATE
 CTRY.    USA                            :COUNTRY
 SRVC.    TRUCK                          :SERVICE COMPANY
 DATE.    08/15/2017                     :LOG DATE
 API .                                       :API NUMBER
 LIC .                                   :LICENSE NUMBER
~Curve Information Block
#MNEM.UNIT      API CODE     Curve Description
#---------    -------------  ------------------------
 DEPT     .FT        00 001 00 00          :  1  DEPTH   
 GAMMA    .API-GR    00 310 00 00          :  2  GAMMA RAY           
 RES      .OHM       00 000 00 00          :  3  SINGLE POINT RES    
 SP       .MV        00 010 00 00          :  4  SPON POTENTIAL      
~Parameter Information Block
#MNEM.UNIT   Information     Description
#---------- ---------------  ------------------------
 FILE.      PROCESSED          :File Type
 FIID.      9060A              :File Type Identifier
 VERS.      3.60Q              :System Version
 SER .      1                  :System Serial Number
 TRUK.      0.0                :Truck Calibration Number
 TOOL.         202             :Tool Serial Number
 TIME.      1341               :Time    HrHrMinMin
 LAT .                         :Latitude
 LON .                         :Longitude
 LMF .                         :Log Measured From
 DMF .                         :Driller Measured From
 PD  .                         :Permanent Data
 PDEV.FT                       :Elevation Permanent Data
 EKB .FT                       :Elevation Kelly Bushing
 ELEV.FT                       :Elevation DF
 EGL .FT    938                :Elevation Ground Level
 DRDP.FT    109                :Driller's Depth
 CASD.FT    6                  :Casing Diameter
 CASB.FT                       :Casing Bottom
 CASX.                         :Casing Type
 CAST.IN    0                  :Casing Thickness
 TNOC.                         :Time Circulation Stopped
 LOGU.                         :Logging Unit
 RECB.      PETTUS             :Recorded By
 OSR1.                         :Other Services
 OSR2.                         :Other Services
 OSR3.                         :Other Services
 BS  .IN           6           :Bit Size
 MST .F                        :Mean Surface Temperature
 TGRD.F     0                  :Temperature Gradiant
 MAGN.      0                  :Magnetic Declination
 MDEN.      2.84               :Density Matrix
 MATR.      DOLOMITE           :Neutron Matrix
 DTMT.      44                 :Delta T Matrix
 DTFL.                         :Delta T Fluid
 MUDS.      0                  :Mud Sample Source
 MRS .      0                  :Mud Resistivity
 MTP .      0                  :Mud Temperature
 MFRS.                         :Resistivity Mud Filtrate
 MFTP.                         :Temperature Mud Filtrate
 MCRS.      0                  :Resistivity Mud Cake
 MCTP.                         :Temperature Mud Cake
 FTYP.      0                  :Fluid Type
 FD  .LB/G     0               :Mud Weight
 DFV .S                        :Fluid Viscosity
 FPH .                         :Fuild PH
 ELCO.      2500               :Electron Cutoff
 CASL.IN    4                  :Casing Logger
 LOTD.FT                       :Logger TD
 ARTM.                         :Arrival Time
 DPTM.                         :Departure Time
 RIGN.                         :Rig Number
~Other Information
#MNEM.UNIT  Information      Description
#---------- ---------------  ------------------------
# -------------------------- 
~A DEPTH  GAMMA    RES      SP    
# ...
  42.680      1.0     11.8  -465.3
  42.700      1.0     11.0  -465.3
  42.720      1.0     11.0  -465.3
  42.740      1.0     11.0  -465.3
  42.760      1.0     11.8  -465.3
  42.780      1.0     11.8  -465.3
  42.800      1.0     13.6  -463.6
  42.820      1.0     13.6  -463.6
  42.840      1.0     14.3  -465.3
  42.860      1.0     14.3  -465.3
  42.880      1.0     14.3  -465.3
  42.900     33.9     15.0  -465.3
  42.920     33.9     15.0  -465.3
  42.940     33.9     13.2  -465.3
  42.960     33.9     13.2  -465.3
  42.980     33.9     13.2  -465.3
  43.000     33.9     12.9  -465.3
  43.020     33.9     12.9  -465.3
  43.040      1.0     12.9  -465.3
  43.060      1.0     19.0  -465.3
  43.080      1.0     19.0  -465.3
  43.100      1.0     12.9  -465.3
  43.120      1.0     12.9  -465.3
  43.140     33.9     12.9  -465.3
  43.160     33.9     12.9  -465.3
  43.180     33.9     12.9  -465.3
  43.200      1.0     12.1  -465.3
  43.220      1.0     12.1  -465.3
  43.240     66.8     12.1  -463.6
  43.260     66.8     12.1  -463.6
  43.280     66.8     12.1  -463.6
  43.300      1.0     13.6  -465.3
  43.320      1.0     13.6  -465.3
  43.340      1.0     13.2  -465.3
  43.360      1.0     13.2  -465.3
  43.380      1.0     13.2  -465.3
  43.400     33.9     14.0  -465.3
  43.420     33.9     14.0  -465.3
  43.440      1.0     13.2  -465.3
  43.460      1.0     13.2  -465.3
  43.480      1.0     13.2  -465.3
  43.500     66.8     12.5  -465.3
  43.520     66.8     12.5  -465.3
  43.540      1.0     12.5  -465.3
  43.560      1.0     12.5  -465.3
  43.580      1.0     12.5  -465.3
  43.600      1.0     11.4  -465.3
  43.620      1.0     11.4  -465.3
  43.640     33.9     12.1  -465.3
  43.660     33.9     12.1  -465.3
  43.680     33.9     12.1  -465.3
  43.700      1.0     11.8  -463.6
  43.720      1.0     11.8  -463.6
  43.740     33.9     11.8  -465.3
  43.760     33.9     11.8  -465.3
  43.780     33.9     11.8  -465.3
  43.800      1.0     12.1  -465.3
  43.820      1.0     12.1  -465.3
  43.840      1.0     12.1  -465.3
  43.860      1.0     12.1  -465.3
  43.880      1.0     12.1  -465.3
  43.900     33.9     12.5  -465.3
  43.920     33.9     12.5  -465.3
  43.940      1.0     14.0  -465.3
  43.960      1.0     14.0  -465.3
  43.980      1.0     14.0  -465.3
  44.000      1.0     12.1  -465.3
  44.020      1.0     12.1  -465.3
  44.040      1.0     12.1  -465.3
  44.060      1.0     12.1  -465.3
  44.080      1.0     12.1  -465.3
  44.100      1.0     15.8  -465.3
  44.120      1.0     15.8  -465.3
  44.140     66.8     11.4  -463.6
  44.160     66.8     11.4  -463.6
  44.180     66.8     11.4  -463.6
  44.200     33.9     10.7  -465.3
  44.220     33.9     10.7  -465.3
  44.240     33.9     10.3  -465.3
  44.260     33.9     10.3  -465.3
  44.280     33.9     10.3  -465.3
  44.300      1.0      9.7  -465.3
  44.320      1.0      9.7  -465.3
  44.340     33.9     11.0  -465.3
  44.360     33.9     11.0  -465.3
  44.380     33.9     11.0  -465.3
  44.400     66.8     10.0  -465.3
  44.420     66.8     10.0  -465.3
  44.440      1.0     11.0  -465.3
  44.460      1.0     11.0  -465.3
  44.480      1.0     11.0  -465.3
  44.500     66.8      9.7  -465.3
  44.520     66.8      9.7  -465.3
  44.540     33.9      9.4  -465.3
  44.560     33.9      9.4  -465.3
  44.580     33.9      9.4  -465.3
  44.600      1.0     10.0  -463.6
  44.620      1.0     10.0  -463.6
  44.640     66.8      9.7  -465.3
  44.660     66.8      9.7  -465.3
  44.680     66.8      9.7  -465.3
  44.700      1.0      9.7  -465.3
  44.720      1.0      9.7  -465.3
  44.740     33.9      9.1  -465.3
  44.760     33.9      9.1  -465.3
  44.780     33.9      9.1  -465.3
  44.800      1.0      9.4  -465.3
  44.820      1.0      9.4  -465.3
  44.840     33.9      9.4  -465.3
  44.860     33.9      9.4  -465.3
  44.880     33.9      9.4  -465.3
  44.900      1.0      8.8  -465.3
  44.920      1.0      8.8  -465.3
  44.940      1.0      8.8  -465.3
  44.960      1.0      8.8  -465.3
  44.980      1.0      8.8  -465.3
  45.000      1.0      7.9  -465.3
  45.020      1.0      7.9  -465.3
  45.040     33.9      7.6  -463.6
  45.060     33.9      7.6  -463.6
  45.080     33.9      7.6  -463.6
  45.100      1.0      7.0  -465.3
  45.120      1.0      7.0  -465.3
  45.140      1.0      8.5  -465.3
  45.160      1.0      8.5  -465.3
  45.180      1.0      8.5  -465.3
  45.200    132.7      9.1  -465.3
  45.220    132.7      9.1  -465.3
  45.240     33.9     11.0  -465.3
  45.260     33.9     11.0  -465.3
  45.280     33.9     11.0  -465.3
  45.300     33.9     11.4  -465.3
  45.320     33.9     11.4  -465.3
  45.340      1.0     10.0  -465.3
  45.360      1.0     10.0  -465.3
  45.380      1.0     10.0  -465.3
  45.400      1.0     10.3  -465.3
  45.420      1.0     10.3  -465.3
  45.440      1.0      7.9  -465.3
  45.460      1.0      7.9  -465.3
  45.480    132.7      7.9  -465.3
  45.500    132.7      8.5  -463.6
  45.520    132.7      8.5  -463.6
  45.540      1.0      8.2  -465.3
  45.560      1.0      8.2  -465.3
  45.580      1.0      8.2  -465.3
  45.600      1.0     10.0  -465.3
  45.620      1.0     10.0  -465.3
  45.640      1.0     10.0  -465.3
  45.660      1.0     10.0  -465.3
  45.680      1.0     10.0  -465.3
  45.700      1.0     11.4  -465.3
  45.720      1.0     11.4  -465.3
  45.740     33.9     11.0  -465.3
  45.760     33.9     11.0  -465.3
  45.780     33.9     11.0  -465.3
  45.800     33.9     11.8  -465.3
  45.820     33.9     11.8  -465.3
  45.840      1.0     11.0  -465.3
  45.860      1.0     11.0  -465.3
  45.880      1.0     11.0  -465.3
  45.900      1.0     14.3  -465.3
  45.920      1.0     14.3  -465.3
  45.940     33.9     12.9  -463.6
  45.960     33.9     12.9  -463.6
  45.980      1.0     12.9  -463.6
  46.000      1.0     11.0  -465.3
  46.020      1.0     11.0  -465.3
  46.040      1.0     10.3  -465.3
  46.060      1.0     10.3  -465.3
  46.080      1.0     10.3  -465.3
  46.100      1.0     11.4  -465.3
  46.120      1.0     11.4  -465.3
  46.140      1.0     12.1  -465.3
  46.160      1.0     12.1  -465.3
  46.180     99.7     12.1  -465.3
  46.200     99.7     13.2  -465.3
  46.220     99.7     13.2  -465.3
  46.240     33.9     16.9  -465.3
  46.260     33.9     16.9  -465.3
  46.280     66.8     16.9  -465.3
  46.300     66.8     15.4  -465.3
  46.320     33.9     15.4  -465.3
  46.340     33.9     12.5  -465.3
  46.360     33.9     12.5  -465.3
  46.380      1.0     12.5  -463.6
  46.400      1.0     12.5  -463.6
  46.420      1.0     12.5  -463.6
  46.440      1.0     12.1  -465.3
  46.460      1.0     12.1  -465.3
  46.480      1.0     12.9  -465.3
  46.500      1.0     12.9  -465.3
  46.520     66.8     12.9  -465.3
  46.540     66.8     15.8  -465.3
  46.560     66.8     15.8  -465.3
  46.580      1.0     12.1  -465.3
  46.600      1.0     12.1  -465.3
  46.620      1.0     12.1  -465.3
  46.640      1.0     15.8  -465.3
  46.660      1.0     15.8  -465.3
  46.680     33.9     11.4  -465.3
  46.700     33.9     11.4  -465.3
  46.720     33.9     11.4  -465.3
  46.740     33.9     10.7  -465.3
  46.760     33.9     10.7  -465.3
  46.780     33.9     11.4  -465.3
  46.800     33.9     11.4  -465.3
  46.820     66.8     11.4  -465.3
  46.840     66.8     10.7  -463.6
  46.860     66.8     10.7  -463.6
  46.880      1.0     10.7  -465.3
  46.900      1.0     10.7  -465.3
  46.920      1.0     10.7  -465.3
  46.940      1.0     11.0  -465.3
  46.960      1.0     11.0  -465.3
  46.980      1.0     12.9  -465.3
  47.000      1.0     12.9  -465.3
  47.020     33.9     12.9  -465.3
  47.040     33.9     12.9  -465.3
  47.060     33.9     12.9  -465.3
  47.080      1.0     16.9  -465.3
  47.100      1.0     16.9  -465.3
  47.120     66.8     16.9  -465.3
  47.140     66.8     15.0  -465.3
  47.160     66.8     15.0  -465.3
  47.180      1.0     14.0  -465.3
  47.200      1.0     14.0  -465.3
  47.220     33.9     13.6  -465.3
  47.240     33.9     13.6  -465.3
