~Version Information
 VERS.                2.0:  CWLS LOG ASCII STANDARD -VERSION 2.0
 WRAP.                 NO:  ONE LINE PER DEPTH STEP
~WELL INFORMATION BLOCK
#MNEM.UNIT       DATA		            DESCRIPTION OF MNEMONIC
#---------    -------------            ------------------------
 STRT.FT  6.060                          :START DEPTH
 STOP.FT  525.860                        :STOP DEPTH
 STEP.FT  0.020                          :STEP    UP_HOLE  
 NULL.    -999.25                        :NULL VALUE
 COMP.    CARLETON GEO LOOP E-1          :COMPANY
 WELL.    278816                                                       :WELL
 FLD .    NORTHFIELD 71-B                :FIELD\LOCATION
 LOC .    31    112   19                 :LOCATION
 CNTY.    RICE                           :COUNTY
 STAT.    CADDDC                         :STATE
 CTRY.    USA                            :COUNTRY
 SRVC.    TRUCK                          :SERVICE COMPANY
 DATE.    08/15/2017                     :LOG DATE
 API .                                       :API NUMBER
 LIC .                                   :LICENSE NUMBER
~Curve Information Block
#MNEM.UNIT      API CODE     Curve Description
#---------    -------------  ------------------------
 DEPT     .FT        00 001 00 00          :  1  DEPTH   
 GAMMA    .API-GR    00 310 00 00          :  2  GAMMA RAY           
 RES      .OHM       00 000 00 00          :  3  SINGLE POINT RES    
 SP       .MV        00 010 00 00          :  4  SPON POTENTIAL      
~Parameter Information Block
#MNEM.UNIT   Information     Description
#---------- ---------------  ------------------------
 FILE.      PROCESSED          :File Type
 FIID.      9060A              :File Type Identifier
 VERS.      3.60Q              :System Version
 SER .      1                  :System Serial Number
 TRUK.      0.0                :Truck Calibration Number
 TOOL.         202             :Tool Serial Number
 TIME.      1341               :Time    HrHrMinMin
 LAT .                         :Latitude
 LON .                         :Longitude
 LMF .                         :Log Measured From
 DMF .                         :Driller Measured From
 PD  .                         :Permanent Data
 PDEV.FT                       :Elevation Permanent Data
 EKB .FT                       :Elevation Kelly Bushing
 ELEV.FT                       :Elevation DF
 EGL .FT    938                :Elevation Ground Level
 DRDP.FT    109                :Driller's Depth
 CASD.FT    6                  :Casing Diameter
 CASB.FT                       :Casing Bottom
 CASX.                         :Casing Type
 CAST.IN    0                  :Casing Thickness
 TNOC.                         :Time Circulation Stopped
 LOGU.                         :Logging Unit
 RECB.      PETTUS             :Recorded By
 OSR1.                         :Other Services
 OSR2.                         :Other Services
 OSR3.                         :Other Services
 BS  .IN           6           :Bit Size
 MST .F                        :Mean Surface Temperature
 TGRD.F     0                  :Temperature Gradiant
 MAGN.      0                  :Magnetic Declination
 MDEN.      2.84               :Density Matrix
 MATR.      DOLOMITE           :Neutron Matrix
 DTMT.      44                 :Delta T Matrix
 DTFL.                         :Delta T Fluid
 MUDS.      0                  :Mud Sample Source
 MRS .      0                  :Mud Resistivity
 MTP .      0                  :Mud Temperature
 MFRS.                         :Resistivity Mud Filtrate
 MFTP.                         :Temperature Mud Filtrate
 MCRS.      0                  :Resistivity Mud Cake
 MCTP.                         :Temperature Mud Cake
 FTYP.      0                  :Fluid Type
 FD  .LB/G     0               :Mud Weight
 DFV .S                        :Fluid Viscosity
 FPH .                         :Fuild PH
 ELCO.      2500               :Electron Cutoff
 CASL.IN    4                  :Casing Logger
 LOTD.FT                       :Logger TD
 ARTM.                         :Arrival Time
 DPTM.                         :Departure Time
 RIGN.                         :Rig Number
~Other Information
#MNEM.UNIT  Information      Description
#---------- ---------------  ------------------------
# -------------------------- 
~A DEPTH  GAMMA    RES      SP    
# ...
 386.180     66.8    129.5  -463.6
 386.200     66.8    127.0  -463.6
 386.220     66.8    127.0  -463.6
 386.240     66.8    128.2  -463.6
 386.260     66.8    128.2  -463.6
 386.280     33.9    128.2  -463.6
 386.300     33.9    127.0  -463.6
 386.320     33.9    127.0  -463.6
 386.340     99.7    127.0  -463.6
 386.360     99.7    127.0  -463.6
 386.380      1.0    127.0  -463.6
 386.400      1.0    127.0  -463.6
 386.420      1.0    127.0  -463.6
 386.440     33.9    127.0  -463.6
 386.460     33.9    127.0  -463.6
 386.480     33.9    127.0  -463.6
 386.500     33.9    127.0  -463.6
 386.520      1.0    127.0  -463.6
 386.540      1.0    125.7  -463.6
 386.560      1.0    125.7  -463.6
 386.580      1.0    127.0  -463.6
 386.600      1.0    127.0  -463.6
 386.620     66.8    127.0  -463.6
 386.640     66.8    125.7  -463.6
 386.660     66.8    125.7  -463.6
 386.680     33.9    124.4  -463.6
 386.700     33.9    124.4  -463.6
 386.720     66.8    124.4  -463.6
 386.740     66.8    125.7  -463.6
 386.760     66.8    125.7  -463.6
 386.780      1.0    124.4  -463.6
 386.800      1.0    124.4  -463.6
 386.820     33.9    124.4  -463.6
 386.840     33.9    123.1  -463.6
 386.860     33.9    123.1  -463.6
 386.880     66.8    123.1  -463.6
 386.900     66.8    123.1  -463.6
 386.920     33.9    123.1  -463.6
 386.940     33.9    123.1  -463.6
 386.960     33.9    123.1  -463.6
 386.980     33.9    123.1  -463.6
 387.000     33.9    123.1  -463.6
 387.020     99.7    123.1  -463.6
 387.040     99.7    123.1  -463.6
 387.060     99.7    123.1  -463.6
 387.080     66.8    123.1  -463.6
 387.100     66.8    123.1  -463.6
 387.120     33.9    123.1  -463.6
 387.140     33.9    121.8  -463.6
 387.160     33.9    121.8  -463.6
 387.180     33.9    121.8  -463.6
 387.200     33.9    121.8  -463.6
 387.220     66.8    121.8  -463.6
 387.240     66.8    123.1  -463.6
 387.260     66.8    123.1  -463.6
 387.280     66.8    121.8  -463.6
 387.300     66.8    121.8  -463.6
 387.320     33.9    121.8  -463.6
 387.340     33.9    121.8  -463.6
 387.360    198.5    121.8  -463.6
 387.380    198.5    123.1  -463.6
 387.400    198.5    123.1  -463.6
 387.420     33.9    121.8  -463.6
 387.440     33.9    121.8  -463.6
 387.460      1.0    121.8  -463.6
 387.480      1.0    121.8  -463.6
 387.500      1.0    121.8  -463.6
 387.520     66.8    123.1  -463.6
 387.540     66.8    123.1  -463.6
 387.560     66.8    123.1  -463.6
 387.580     66.8    123.1  -465.3
 387.600     66.8    123.1  -465.3
 387.620     66.8    123.1  -463.6
 387.640     66.8    123.1  -463.6
 387.660     66.8    123.1  -463.6
 387.680     66.8    123.1  -463.6
 387.700     66.8    123.1  -463.6
 387.720     66.8    124.4  -463.6
 387.740     66.8    124.4  -463.6
 387.760     33.9    124.4  -463.6
 387.780     33.9    125.7  -463.6
 387.800     33.9    125.7  -463.6
 387.820    132.7    125.7  -463.6
 387.840    132.7    125.7  -463.6
 387.860     66.8    125.7  -463.6
 387.880     66.8    125.7  -463.6
 387.900     66.8    125.7  -463.6
 387.920      1.0    125.7  -463.6
 387.940      1.0    125.7  -463.6
 387.960     66.8    125.7  -463.6
 387.980     66.8    127.0  -463.6
 388.000     66.8    127.0  -463.6
 388.020     66.8    128.2  -463.6
 388.040     66.8    128.2  -463.6
 388.060     33.9    128.2  -463.6
 388.080     33.9    127.0  -461.8
 388.100     33.9    127.0  -461.8
 388.120     66.8    129.5  -463.6
 388.140     66.8    129.5  -463.6
 388.160     99.7    129.5  -463.6
 388.180     99.7    129.5  -463.6
 388.200      1.0    129.5  -463.6
 388.220      1.0    130.8  -463.6
 388.240      1.0    130.8  -463.6
 388.260     33.9    130.8  -463.6
 388.280     33.9    130.8  -463.6
 388.300      1.0    130.8  -463.6
 388.320      1.0    130.8  -463.6
 388.340      1.0    130.8  -463.6
 388.360      1.0    133.4  -463.6
 388.380      1.0    133.4  -463.6
 388.400     66.8    133.4  -463.6
 388.420     66.8    133.4  -463.6
 388.440     66.8    133.4  -463.6
 388.460     99.7    134.7  -463.6
 388.480     99.7    134.7  -463.6
 388.500    132.7    134.7  -463.6
 388.520    132.7    135.9  -463.6
 388.540    132.7    135.9  -463.6
 388.560     99.7    137.2  -463.6
 388.580     99.7    137.2  -463.6
 388.600    132.7    137.2  -463.6
 388.620    132.7    137.2  -463.6
 388.640    132.7    137.2  -463.6
 388.660     66.8    138.5  -461.8
 388.680     66.8    138.5  -461.8
 388.700     33.9    138.5  -461.8
 388.720     33.9    139.8  -463.6
 388.740     33.9    139.8  -463.6
 388.760     33.9    141.1  -463.6
 388.780     33.9    141.1  -463.6
 388.800     66.8    141.1  -463.6
 388.820     66.8    142.4  -463.6
 388.840    132.7    142.4  -463.6
 388.860    132.7    143.6  -463.6
 388.880    132.7    143.6  -463.6
 388.900      1.0    143.6  -463.6
 388.920      1.0    143.6  -463.6
 388.940      1.0    143.6  -463.6
 388.960      1.0    146.2  -461.8
 388.980      1.0    146.2  -461.8
 389.000     33.9    146.2  -461.8
 389.020     33.9    146.2  -463.6
 389.040     66.8    146.2  -463.6
 389.060     66.8    147.5  -463.6
 389.080     66.8    147.5  -463.6
 389.100    165.6    148.8  -461.8
 389.120    165.6    148.8  -461.8
 389.140      1.0    148.8  -461.8
 389.160      1.0    148.8  -463.6
 389.180      1.0    148.8  -463.6
 389.200     33.9    150.1  -463.6
 389.220     33.9    150.1  -463.6
 389.240     99.7    150.1  -463.6
 389.260     99.7    151.3  -463.6
 389.280     99.7    151.3  -463.6
 389.300    165.6    151.3  -461.8
 389.320    165.6    151.3  -461.8
 389.340    132.7    151.3  -461.8
 389.360    132.7    151.3  -463.6
 389.380    132.7    151.3  -463.6
 389.400     33.9    153.9  -463.6
 389.420     33.9    153.9  -463.6
 389.440    132.7    153.9  -463.6
 389.460    132.7    152.6  -461.8
 389.480    132.7    152.6  -461.8
 389.500     66.8    155.2  -463.6
 389.520     66.8    155.2  -463.6
 389.540    132.7    155.2  -463.6
 389.560    132.7    153.9  -463.6
 389.580    132.7    153.9  -463.6
 389.600     66.8    155.2  -461.8
 389.620     66.8    155.2  -461.8
 389.640      1.0    155.2  -461.8
 389.660      1.0    155.2  -463.6
 389.680      1.0    155.2  -463.6
 389.700     33.9    156.5  -463.6
 389.720     33.9    156.5  -463.6
 389.740     66.8    156.5  -461.8
 389.760     66.8    156.5  -461.8
 389.780     66.8    156.5  -461.8
 389.800     66.8    156.5  -463.6
 389.820     66.8    156.5  -463.6
 389.840     66.8    156.5  -463.6
 389.860     66.8    156.5  -463.6
 389.880      1.0    156.5  -463.6
 389.900      1.0    157.8  -461.8
 389.920      1.0    157.8  -461.8
 389.940    132.7    157.8  -463.6
 389.960    132.7    157.8  -463.6
 389.980      1.0    157.8  -463.6
 390.000      1.0    157.8  -463.6
 390.020      1.0    157.8  -463.6
 390.040     33.9    157.8  -461.8
 390.060     33.9    157.8  -461.8
 390.080    165.6    157.8  -461.8
 390.100    165.6    157.8  -463.6
 390.120    165.6    157.8  -463.6
 390.140     66.8    156.5  -461.8
 390.160     66.8    156.5  -461.8
 390.180     33.9    156.5  -461.8
 390.200     33.9    157.8  -463.6
 390.220     33.9    157.8  -463.6
 390.240     33.9    157.8  -463.6
 390.260     33.9    157.8  -463.6
 390.280      1.0    157.8  -463.6
 390.300      1.0    157.8  -461.8
 390.320      1.0    157.8  -461.8
 390.340    132.7    157.8  -463.6
 390.360    132.7    157.8  -463.6
 390.380      1.0    157.8  -463.6
 390.400      1.0    156.5  -463.6
 390.420      1.0    156.5  -463.6
 390.440     99.7    157.8  -461.8
 390.460     99.7    157.8  -461.8
 390.480     66.8    157.8  -461.8
 390.500     66.8    156.5  -463.6
 390.520      1.0    156.5  -463.6
 390.540      1.0    156.5  -461.8
 390.560      1.0    156.5  -461.8
 390.580     66.8    156.5  -461.8
 390.600     66.8    156.5  -463.6
 390.620     33.9    156.5  -463.6
 390.640     33.9    155.2  -463.6
 390.660     33.9    155.2  -463.6
 390.680      1.0    155.2  -461.8
 390.700      1.0    155.2  -461.8
 390.720    198.5    155.2  -461.8
 390.740    198.5    155.2  -463.6
