~Version Information
 VERS.                2.0:  CWLS LOG ASCII STANDARD -VERSION 2.0
 WRAP.                 NO:  ONE LINE PER DEPTH STEP
~WELL INFORMATION BLOCK
#MNEM.UNIT       DATA		            DESCRIPTION OF MNEMONIC
#---------    -------------            ------------------------
 STRT.FT  6.060                          :START DEPTH
 STOP.FT  525.860                        :STOP DEPTH
 STEP.FT  0.020                          :STEP    UP_HOLE  
 NULL.    -999.25                        :NULL VALUE
 COMP.    CARLETON GEO LOOP E-1          :COMPANY
 WELL.    278816                                                       :WELL
 FLD .    NORTHFIELD 71-B                :FIELD\LOCATION
 LOC .    31    112   19                 :LOCATION
 CNTY.    RICE                           :COUNTY
 STAT.    CADDDC                         :STATE
 CTRY.    USA                            :COUNTRY
 SRVC.    TRUCK                          :SERVICE COMPANY
 DATE.    08/15/2017                     :LOG DATE
 API .                                       :API NUMBER
 LIC .                                   :LICENSE NUMBER
~Curve Information Block
#MNEM.UNIT      API CODE     Curve Description
#---------    -------------  ------------------------
 DEPT     .FT        00 001 00 00          :  1  DEPTH   
 GAMMA    .API-GR    00 310 00 00          :  2  GAMMA RAY           
 RES      .OHM       00 000 00 00          :  3  SINGLE POINT RES    
 SP       .MV        00 010 00 00          :  4  SPON POTENTIAL      
~Parameter Information Block
#MNEM.UNIT   Information     Description
#---------- ---------------  ------------------------
 FILE.      PROCESSED          :File Type
 FIID.      9060A              :File Type Identifier
 VERS.      3.60Q              :System Version
 SER .      1                  :System Serial Number
 TRUK.      0.0                :Truck Calibration Number
 TOOL.         202             :Tool Serial Number
 TIME.      1341               :Time    HrHrMinMin
 LAT .                         :Latitude
 LON .                         :Longitude
 LMF .                         :Log Measured From
 DMF .                         :Driller Measured From
 PD  .                         :Permanent Data
 PDEV.FT                       :Elevation Permanent Data
 EKB .FT                       :Elevation Kelly Bushing
 ELEV.FT                       :Elevation DF
 EGL .FT    938                :Elevation Ground Level
 DRDP.FT    109                :Driller's Depth
 CASD.FT    6                  :Casing Diameter
 CASB.FT                       :Casing Bottom
 CASX.                         :Casing Type
 CAST.IN    0                  :Casing Thickness
 TNOC.                         :Time Circulation Stopped
 LOGU.                         :Logging Unit
 RECB.      PETTUS             :Recorded By
 OSR1.                         :Other Services
 OSR2.                         :Other Services
 OSR3.                         :Other Services
 BS  .IN           6           :Bit Size
 MST .F                        :Mean Surface Temperature
 TGRD.F     0                  :Temperature Gradiant
 MAGN.      0                  :Magnetic Declination
 MDEN.      2.84               :Density Matrix
 MATR.      DOLOMITE           :Neutron Matrix
 DTMT.      44                 :Delta T Matrix
 DTFL.                         :Delta T Fluid
 MUDS.      0                  :Mud Sample Source
 MRS .      0                  :Mud Resistivity
 MTP .      0                  :Mud Temperature
 MFRS.                         :Resistivity Mud Filtrate
 MFTP.                         :Temperature Mud Filtrate
 MCRS.      0                  :Resistivity Mud Cake
 MCTP.                         :Temperature Mud Cake
 FTYP.      0                  :Fluid Type
 FD  .LB/G     0               :Mud Weight
 DFV .S                        :Fluid Viscosity
 FPH .                         :Fuild PH
 ELCO.      2500               :Electron Cutoff
 CASL.IN    4                  :Casing Logger
 LOTD.FT                       :Logger TD
 ARTM.                         :Arrival Time
 DPTM.                         :Departure Time
 RIGN.                         :Rig Number
~Other Information
#MNEM.UNIT  Information      Description
#---------- ---------------  ------------------------
# -------------------------- 
~A DEPTH  GAMMA    RES      SP    
# ...
 418.240     33.9    162.9  -463.6
 418.260     33.9    162.9  -463.6
 418.280     33.9    162.9  -463.6
 418.300     33.9    162.9  -465.3
 418.320     33.9    162.9  -465.3
 418.340      1.0    162.9  -465.3
 418.360      1.0    164.2  -463.6
 418.380     33.9    164.2  -463.6
 418.400     33.9    165.5  -463.6
 418.420     33.9    165.5  -463.6
 418.440     99.7    165.5  -463.6
 418.460     99.7    168.0  -463.6
 418.480     66.8    168.0  -463.6
 418.500     66.8    168.0  -463.6
 418.520     66.8    168.0  -463.6
 418.540     66.8    168.0  -463.6
 418.560     66.8    170.6  -463.6
 418.580     66.8    170.6  -463.6
 418.600     66.8    171.9  -463.6
 418.620     66.8    171.9  -463.6
 418.640     66.8    171.9  -463.6
 418.660     66.8    173.2  -463.6
 418.680     33.9    173.2  -463.6
 418.700     33.9    177.0  -463.6
 418.720     33.9    177.0  -463.6
 418.740     33.9    177.0  -463.6
 418.760     33.9    178.3  -463.6
 418.780    165.6    178.3  -463.6
 418.800    165.6    180.9  -463.6
 418.820    165.6    180.9  -463.6
 418.840      1.0    183.4  -461.8
 418.860      1.0    183.4  -461.8
 418.880     33.9    183.4  -461.8
 418.900     33.9    184.7  -463.6
 418.920     33.9    184.7  -463.6
 418.940     99.7    187.3  -463.6
 418.960     99.7    187.3  -463.6
 418.980     66.8    187.3  -463.6
 419.000     66.8    189.8  -463.6
 419.020     66.8    189.8  -463.6
 419.040     33.9    191.1  -463.6
 419.060     33.9    191.1  -463.6
 419.080      1.0    191.1  -463.6
 419.100      1.0    193.7  -461.8
 419.120      1.0    193.7  -461.8
 419.140      1.0    193.7  -463.6
 419.160      1.0    193.7  -463.6
 419.180     33.9    193.7  -463.6
 419.200     33.9    195.0  -463.6
 419.220     99.7    195.0  -463.6
 419.240     99.7    196.3  -461.8
 419.260     99.7    196.3  -461.8
 419.280     33.9    197.5  -463.6
 419.300     33.9    197.5  -463.6
 419.320      1.0    197.5  -463.6
 419.340      1.0    196.3  -463.6
 419.360      1.0    196.3  -463.6
 419.380     66.8    197.5  -461.8
 419.400     66.8    197.5  -461.8
 419.420      1.0    197.5  -461.8
 419.440      1.0    198.8  -463.6
 419.460      1.0    198.8  -463.6
 419.480      1.0    197.5  -463.6
 419.500      1.0    197.5  -463.6
 419.520      1.0    197.5  -463.6
 419.540      1.0    198.8  -463.6
 419.560      1.0    198.8  -463.6
 419.580      1.0    197.5  -461.8
 419.600      1.0    197.5  -461.8
 419.620     33.9    197.5  -461.8
 419.640     33.9    197.5  -463.6
 419.660     33.9    197.5  -463.6
 419.680      1.0    196.3  -463.6
 419.700      1.0    196.3  -463.6
 419.720     66.8    196.3  -463.6
 419.740     66.8    195.0  -463.6
 419.760      1.0    195.0  -463.6
 419.780      1.0    195.0  -463.6
 419.800      1.0    195.0  -463.6
 419.820      1.0    195.0  -463.6
 419.840      1.0    193.7  -461.8
 419.860     66.8    193.7  -461.8
 419.880     66.8    192.4  -463.6
 419.900     66.8    192.4  -463.6
 419.920      1.0    192.4  -463.6
 419.940      1.0    189.8  -463.6
 419.960     66.8    189.8  -463.6
 419.980     66.8    188.6  -463.6
 420.000     66.8    188.6  -463.6
 420.020     33.9    186.0  -463.6
 420.040     33.9    186.0  -463.6
 420.060     99.7    186.0  -463.6
 420.080     99.7    184.7  -463.6
 420.100     99.7    184.7  -463.6
 420.120     33.9    180.9  -463.6
 420.140     33.9    180.9  -463.6
 420.160     33.9    180.9  -463.6
 420.180     33.9    178.3  -463.6
 420.200     33.9    178.3  -463.6
 420.220     33.9    175.7  -465.3
 420.240     33.9    175.7  -465.3
 420.260     33.9    175.7  -465.3
 420.280     33.9    173.2  -463.6
 420.300     33.9    173.2  -463.6
 420.320     33.9    171.9  -463.6
 420.340     33.9    171.9  -463.6
 420.360      1.0    171.9  -463.6
 420.380      1.0    169.3  -463.6
 420.400      1.0    169.3  -463.6
 420.420      1.0    168.0  -463.6
 420.440      1.0    168.0  -463.6
 420.460     33.9    168.0  -463.6
 420.480     33.9    165.5  -463.6
 420.500      1.0    165.5  -463.6
 420.520      1.0    162.9  -465.3
 420.540      1.0    162.9  -465.3
 420.560     33.9    162.9  -465.3
 420.580     33.9    161.6  -463.6
 420.600     66.8    161.6  -463.6
 420.620     66.8    159.0  -463.6
 420.640     66.8    159.0  -463.6
 420.660     66.8    159.0  -463.6
 420.680     66.8    159.0  -463.6
 420.700     33.9    159.0  -463.6
 420.720     33.9    156.5  -465.3
 420.740     33.9    156.5  -465.3
 420.760      1.0    156.5  -463.6
 420.780      1.0    156.5  -463.6
 420.800     66.8    156.5  -463.6
 420.820     66.8    155.2  -463.6
 420.840     66.8    155.2  -463.6
 420.860     66.8    153.9  -465.3
 420.880     66.8    153.9  -465.3
 420.900      1.0    153.9  -465.3
 420.920      1.0    152.6  -463.6
 420.940      1.0    152.6  -463.6
 420.960     99.7    152.6  -463.6
 420.980     99.7    152.6  -463.6
 421.000    132.7    152.6  -463.6
 421.020    132.7    151.3  -465.3
 421.040     33.9    151.3  -465.3
 421.060     33.9    151.3  -463.6
 421.080     33.9    151.3  -463.6
 421.100     66.8    151.3  -463.6
 421.120     66.8    150.1  -463.6
 421.140     33.9    150.1  -463.6
 421.160     33.9    151.3  -465.3
 421.180     33.9    151.3  -465.3
 421.200     66.8    151.3  -465.3
 421.220     66.8    150.1  -463.6
 421.240      1.0    150.1  -463.6
 421.260      1.0    151.3  -463.6
 421.280      1.0    151.3  -463.6
 421.300     33.9    150.1  -465.3
 421.320     33.9    150.1  -465.3
 421.340     33.9    150.1  -465.3
 421.360     33.9    151.3  -463.6
 421.380     33.9    151.3  -463.6
 421.400     33.9    151.3  -463.6
 421.420     33.9    151.3  -463.6
 421.440     66.8    151.3  -463.6
 421.460     66.8    151.3  -465.3
 421.480     66.8    151.3  -465.3
 421.500      1.0    151.3  -463.6
 421.520      1.0    151.3  -463.6
 421.540     33.9    151.3  -463.6
 421.560     33.9    151.3  -463.6
 421.580     99.7    151.3  -463.6
 421.600     99.7    151.3  -465.3
 421.620     99.7    151.3  -465.3
 421.640     99.7    151.3  -465.3
 421.660     99.7    151.3  -463.6
 421.680     33.9    151.3  -463.6
 421.700     33.9    151.3  -465.3
 421.720     33.9    151.3  -465.3
 421.740      1.0    151.3  -465.3
 421.760      1.0    151.3  -463.6
 421.780      1.0    151.3  -463.6
 421.800      1.0    151.3  -463.6
 421.820      1.0    151.3  -463.6
 421.840     33.9    151.3  -463.6
 421.860     33.9    151.3  -465.3
 421.880      1.0    151.3  -465.3
 421.900      1.0    152.6  -463.6
 421.920      1.0    152.6  -463.6
 421.940     66.8    150.1  -463.6
 421.960     66.8    150.1  -463.6
 421.980     33.9    150.1  -463.6
 422.000     33.9    151.3  -465.3
 422.020     33.9    151.3  -465.3
 422.040      1.0    148.8  -463.6
 422.060      1.0    148.8  -463.6
 422.080     33.9    148.8  -463.6
 422.100     33.9    148.8  -465.3
 422.120     33.9    148.8  -465.3
 422.140     66.8    147.5  -463.6
 422.160     66.8    147.5  -463.6
 422.180      1.0    147.5  -463.6
 422.200      1.0    147.5  -465.3
 422.220      1.0    147.5  -465.3
 422.240     66.8    147.5  -463.6
 422.260     66.8    147.5  -463.6
 422.280     33.9    147.5  -463.6
 422.300     33.9    144.9  -465.3
 422.320     33.9    144.9  -465.3
 422.340     33.9    144.9  -463.6
 422.360     33.9    144.9  -463.6
 422.380    165.6    144.9  -463.6
 422.400    165.6    143.6  -463.6
 422.420     99.7    143.6  -463.6
 422.440     99.7    143.6  -465.3
 422.460     99.7    143.6  -465.3
 422.480      1.0    142.4  -463.6
 422.500      1.0    142.4  -463.6
 422.520     66.8    142.4  -463.6
 422.540     66.8    141.1  -465.3
 422.560     66.8    141.1  -465.3
 422.580     66.8    139.8  -463.6
 422.600     66.8    139.8  -463.6
 422.620     33.9    139.8  -463.6
 422.640     33.9    139.8  -465.3
 422.660     33.9    139.8  -465.3
 422.680     33.9    138.5  -463.6
 422.700     33.9    138.5  -463.6
 422.720     33.9    138.5  -463.6
 422.740     33.9    135.9  -465.3
 422.760     33.9    135.9  -465.3
 422.780     66.8    134.7  -463.6
 422.800     66.8    134.7  -463.6
