~Version Information
 VERS.                2.0:  CWLS LOG ASCII STANDARD -VERSION 2.0
 WRAP.                 NO:  ONE LINE PER DEPTH STEP
~WELL INFORMATION BLOCK
#MNEM.UNIT       DATA		            DESCRIPTION OF MNEMONIC
#---------    -------------            ------------------------
 STRT.FT  6.060                          :START DEPTH
 STOP.FT  525.860                        :STOP DEPTH
 STEP.FT  0.020                          :STEP    UP_HOLE  
 NULL.    -999.25                        :NULL VALUE
 COMP.    CARLETON GEO LOOP E-1          :COMPANY
 WELL.    278816                                                       :WELL
 FLD .    NORTHFIELD 71-B                :FIELD\LOCATION
 LOC .    31    112   19                 :LOCATION
 CNTY.    RICE                           :COUNTY
 STAT.    CADDDC                         :STATE
 CTRY.    USA                            :COUNTRY
 SRVC.    TRUCK                          :SERVICE COMPANY
 DATE.    08/15/2017                     :LOG DATE
 API .                                       :API NUMBER
 LIC .                                   :LICENSE NUMBER
~Curve Information Block
#MNEM.UNIT      API CODE     Curve Description
#---------    -------------  ------------------------
 DEPT     .FT        00 001 00 00          :  1  DEPTH   
 GAMMA    .API-GR    00 310 00 00          :  2  GAMMA RAY           
 RES      .OHM       00 000 00 00          :  3  SINGLE POINT RES    
 SP       .MV        00 010 00 00          :  4  SPON POTENTIAL      
~Parameter Information Block
#MNEM.UNIT   Information     Description
#---------- ---------------  ------------------------
 FILE.      PROCESSED          :File Type
 FIID.      9060A              :File Type Identifier
 VERS.      3.60Q              :System Version
 SER .      1                  :System Serial Number
 TRUK.      0.0                :Truck Calibration Number
 TOOL.         202             :Tool Serial Number
 TIME.      1341               :Time    HrHrMinMin
 LAT .                         :Latitude
 LON .                         :Longitude
 LMF .                         :Log Measured From
 DMF .                         :Driller Measured From
 PD  .                         :Permanent Data
 PDEV.FT                       :Elevation Permanent Data
 EKB .FT                       :Elevation Kelly Bushing
 ELEV.FT                       :Elevation DF
 EGL .FT    938                :Elevation Ground Level
 DRDP.FT    109                :Driller's Depth
 CASD.FT    6                  :Casing Diameter
 CASB.FT                       :Casing Bottom
 CASX.                         :Casing Type
 CAST.IN    0                  :Casing Thickness
 TNOC.                         :Time Circulation Stopped
 LOGU.                         :Logging Unit
 RECB.      PETTUS             :Recorded By
 OSR1.                         :Other Services
 OSR2.                         :Other Services
 OSR3.                         :Other Services
 BS  .IN           6           :Bit Size
 MST .F                        :Mean Surface Temperature
 TGRD.F     0                  :Temperature Gradiant
 MAGN.      0                  :Magnetic Declination
 MDEN.      2.84               :Density Matrix
 MATR.      DOLOMITE           :Neutron Matrix
 DTMT.      44                 :Delta T Matrix
 DTFL.                         :Delta T Fluid
 MUDS.      0                  :Mud Sample Source
 MRS .      0                  :Mud Resistivity
 MTP .      0                  :Mud Temperature
 MFRS.                         :Resistivity Mud Filtrate
 MFTP.                         :Temperature Mud Filtrate
 MCRS.      0                  :Resistivity Mud Cake
 MCTP.                         :Temperature Mud Cake
 FTYP.      0                  :Fluid Type
 FD  .LB/G     0               :Mud Weight
 DFV .S                        :Fluid Viscosity
 FPH .                         :Fuild PH
 ELCO.      2500               :Electron Cutoff
 CASL.IN    4                  :Casing Logger
 LOTD.FT                       :Logger TD
 ARTM.                         :Arrival Time
 DPTM.                         :Departure Time
 RIGN.                         :Rig Number
~Other Information
#MNEM.UNIT  Information      Description
#---------- ---------------  ------------------------
# -------------------------- 
~A DEPTH  GAMMA    RES      SP    
# ...
 212.140     99.7    243.7  -254.6
 212.160     99.7    243.7  -254.6
 212.180     99.7    243.7  -254.6
 212.200     99.7    242.5  -254.6
 212.220     99.7    242.5  -254.6
 212.240     33.9    243.7  -256.4
 212.260     33.9    243.7  -256.4
 212.280     33.9    243.7  -256.4
 212.300      1.0    241.2  -256.4
 212.320      1.0    241.2  -256.4
 212.340      1.0    239.9  -256.4
 212.360      1.0    239.9  -256.4
 212.380      1.0    239.9  -256.4
 212.400     33.9    239.9  -256.4
 212.420     33.9    239.9  -256.4
 212.440     33.9    239.9  -256.4
 212.460     33.9    239.9  -256.4
 212.480     33.9    239.9  -256.4
 212.500     66.8    239.9  -256.4
 212.520     66.8    239.9  -256.4
 212.540      1.0    238.6  -256.4
 212.560      1.0    238.6  -256.4
 212.580      1.0    238.6  -256.4
 212.600     33.9    239.9  -258.2
 212.620     33.9    239.9  -258.2
 212.640      1.0    239.9  -256.4
 212.660      1.0    239.9  -256.4
 212.680      1.0    239.9  -256.4
 212.700     99.7    241.2  -258.2
 212.720     99.7    241.2  -258.2
 212.740     99.7    239.9  -258.2
 212.760     99.7    239.9  -258.2
 212.780     99.7    239.9  -258.2
 212.800     33.9    238.6  -258.2
 212.820     33.9    238.6  -258.2
 212.840     33.9    239.9  -258.2
 212.860     33.9    239.9  -258.2
 212.880     33.9    239.9  -258.2
 212.900      1.0    239.9  -256.4
 212.920      1.0    239.9  -256.4
 212.940      1.0    238.6  -258.2
 212.960      1.0    238.6  -258.2
 212.980      1.0    238.6  -258.2
 213.000      1.0    238.6  -259.9
 213.020      1.0    238.6  -259.9
 213.040    132.7    238.6  -258.2
 213.060    132.7    238.6  -258.2
 213.080    132.7    238.6  -258.2
 213.100      1.0    238.6  -258.2
 213.120      1.0    238.6  -258.2
 213.140     99.7    237.3  -258.2
 213.160     99.7    237.3  -258.2
 213.180     99.7    237.3  -258.2
 213.200     33.9    238.6  -258.2
 213.220     33.9    238.6  -258.2
 213.240      1.0    237.3  -258.2
 213.260      1.0    237.3  -258.2
 213.280      1.0    237.3  -258.2
 213.300     33.9    237.3  -256.4
 213.320     33.9    237.3  -256.4
 213.340      1.0    237.3  -256.4
 213.360      1.0    237.3  -256.4
 213.380      1.0    237.3  -256.4
 213.400     33.9    236.0  -258.2
 213.420     33.9    236.0  -258.2
 213.440     66.8    237.3  -256.4
 213.460     66.8    237.3  -256.4
 213.480     66.8    237.3  -256.4
 213.500      1.0    237.3  -258.2
 213.520      1.0    237.3  -258.2
 213.540     33.9    237.3  -256.4
 213.560     33.9    237.3  -256.4
 213.580     33.9    237.3  -256.4
 213.600      1.0    238.6  -258.2
 213.620      1.0    238.6  -258.2
 213.640     33.9    236.0  -258.2
 213.660     33.9    236.0  -258.2
 213.680     33.9    236.0  -258.2
 213.700     66.8    234.8  -259.9
 213.720     66.8    234.8  -259.9
 213.740     66.8    234.8  -258.2
 213.760     66.8    234.8  -258.2
 213.780     66.8    234.8  -258.2
 213.800     33.9    234.8  -258.2
 213.820     33.9    234.8  -258.2
 213.840      1.0    233.5  -258.2
 213.860      1.0    233.5  -258.2
 213.880      1.0    233.5  -258.2
 213.900     33.9    233.5  -259.9
 213.920     33.9    233.5  -259.9
 213.940     33.9    232.2  -258.2
 213.960     33.9    232.2  -258.2
 213.980     33.9    232.2  -258.2
 214.000     33.9    230.9  -258.2
 214.020     33.9    230.9  -258.2
 214.040      1.0    229.6  -259.9
 214.060      1.0    229.6  -259.9
 214.080      1.0    229.6  -259.9
 214.100     33.9    229.6  -258.2
 214.120     33.9    229.6  -258.2
 214.140     33.9    228.3  -259.9
 214.160     33.9    228.3  -259.9
 214.180     33.9    228.3  -259.9
 214.200      1.0    228.3  -259.9
 214.220      1.0    228.3  -259.9
 214.240     66.8    228.3  -258.2
 214.260     66.8    228.3  -258.2
 214.280     66.8    228.3  -258.2
 214.300      1.0    225.8  -259.9
 214.320      1.0    225.8  -259.9
 214.340      1.0    227.1  -259.9
 214.360      1.0    227.1  -259.9
 214.380      1.0    227.1  -259.9
 214.400      1.0    225.8  -258.2
 214.420      1.0    225.8  -258.2
 214.440      1.0    224.5  -261.7
 214.460      1.0    224.5  -261.7
 214.480      1.0    224.5  -261.7
 214.500      1.0    225.8  -259.9
 214.520      1.0    225.8  -259.9
 214.540     33.9    224.5  -259.9
 214.560     33.9    224.5  -259.9
 214.580      1.0    224.5  -259.9
 214.600      1.0    224.5  -259.9
 214.620      1.0    224.5  -259.9
 214.640      1.0    223.2  -258.2
 214.660      1.0    223.2  -258.2
 214.680     33.9    223.2  -258.2
 214.700     33.9    224.5  -259.9
 214.720     33.9    224.5  -259.9
 214.740     33.9    224.5  -256.4
 214.760     33.9    224.5  -256.4
 214.780     66.8    224.5  -256.4
 214.800     66.8    223.2  -258.2
 214.820     66.8    223.2  -258.2
 214.840     33.9    224.5  -256.4
 214.860     33.9    224.5  -256.4
 214.880     33.9    224.5  -256.4
 214.900     33.9    223.2  -258.2
 214.920     33.9    223.2  -258.2
 214.940     33.9    224.5  -256.4
 214.960     33.9    224.5  -256.4
 214.980     33.9    224.5  -256.4
 215.000     33.9    224.5  -256.4
 215.020     33.9    224.5  -256.4
 215.040     66.8    224.5  -256.4
 215.060     66.8    224.5  -256.4
 215.080     33.9    224.5  -256.4
 215.100     33.9    224.5  -256.4
 215.120     33.9    224.5  -256.4
 215.140      1.0    225.8  -256.4
 215.160      1.0    225.8  -256.4
 215.180      1.0    225.8  -256.4
 215.200      1.0    224.5  -256.4
 215.220      1.0    224.5  -256.4
 215.240     33.9    225.8  -258.2
 215.260     33.9    225.8  -258.2
 215.280      1.0    225.8  -258.2
 215.300      1.0    225.8  -258.2
 215.320      1.0    225.8  -258.2
 215.340      1.0    227.1  -258.2
 215.360      1.0    227.1  -258.2
 215.380      1.0    225.8  -258.2
 215.400     33.9    225.8  -258.2
 215.420     33.9    225.8  -258.2
 215.440      1.0    227.1  -259.9
 215.460      1.0    227.1  -259.9
 215.480      1.0    227.1  -259.9
 215.500    132.7    227.1  -259.9
 215.520    132.7    227.1  -259.9
 215.540     33.9    227.1  -259.9
 215.560     33.9    227.1  -259.9
 215.580     33.9    227.1  -258.2
 215.600     33.9    227.1  -258.2
 215.620     33.9    227.1  -258.2
 215.640     33.9    228.3  -259.9
 215.660     33.9    228.3  -259.9
 215.680     33.9    228.3  -258.2
 215.700     66.8    228.3  -258.2
 215.720     66.8    228.3  -258.2
 215.740      1.0    228.3  -258.2
 215.760      1.0    228.3  -258.2
 215.780      1.0    229.6  -258.2
 215.800     66.8    229.6  -258.2
 215.820     66.8    229.6  -258.2
 215.840     66.8    229.6  -256.4
 215.860     66.8    229.6  -256.4
 215.880     66.8    229.6  -256.4
 215.900      1.0    229.6  -256.4
 215.920      1.0    229.6  -256.4
 215.940      1.0    229.6  -254.6
 215.960      1.0    229.6  -254.6
 215.980      1.0    230.9  -254.6
 216.000     66.8    230.9  -254.6
 216.020     66.8    230.9  -254.6
 216.040      1.0    230.9  -254.6
 216.060      1.0    230.9  -254.6
 216.080      1.0    232.2  -252.9
 216.100      1.0    232.2  -252.9
 216.120      1.0    232.2  -252.9
 216.140     33.9    230.9  -254.6
 216.160     33.9    230.9  -254.6
 216.180     33.9    232.2  -252.9
 216.200     33.9    232.2  -252.9
 216.220     33.9    232.2  -252.9
 216.240      1.0    232.2  -252.9
 216.260      1.0    232.2  -252.9
 216.280      1.0    232.2  -252.9
 216.300     33.9    232.2  -251.1
 216.320     33.9    232.2  -251.1
 216.340     33.9    233.5  -252.9
 216.360     66.8    233.5  -252.9
 216.380     66.8    233.5  -252.9
 216.400      1.0    232.2  -254.6
 216.420      1.0    232.2  -254.6
 216.440      1.0    233.5  -252.9
 216.460     33.9    233.5  -252.9
 216.480     33.9    233.5  -252.9
 216.500      1.0    232.2  -252.9
 216.520      1.0    232.2  -252.9
 216.540      1.0    233.5  -252.9
 216.560      1.0    233.5  -252.9
 216.580      1.0    233.5  -252.9
 216.600      1.0    233.5  -254.6
 216.620      1.0    233.5  -254.6
 216.640      1.0    233.5  -252.9
 216.660     66.8    233.5  -252.9
 216.680     66.8    233.5  -252.9
 216.700     33.9    233.5  -252.9
