~Version Information
 VERS.                2.0:  CWLS LOG ASCII STANDARD -VERSION 2.0
 WRAP.                 NO:  ONE LINE PER DEPTH STEP
~WELL INFORMATION BLOCK
#MNEM.UNIT       DATA		            DESCRIPTION OF MNEMONIC
#---------    -------------            ------------------------
 STRT.FT  6.060                          :START DEPTH
 STOP.FT  525.860                        :STOP DEPTH
 STEP.FT  0.020                          :STEP    UP_HOLE  
 NULL.    -999.25                        :NULL VALUE
 COMP.    CARLETON GEO LOOP E-1          :COMPANY
 WELL.    278816                                                       :WELL
 FLD .    NORTHFIELD 71-B                :FIELD\LOCATION
 LOC .    31    112   19                 :LOCATION
 CNTY.    RICE                           :COUNTY
 STAT.    CADDDC                         :STATE
 CTRY.    USA                            :COUNTRY
 SRVC.    TRUCK                          :SERVICE COMPANY
 DATE.    08/15/2017                     :LOG DATE
 API .                                       :API NUMBER
 LIC .                                   :LICENSE NUMBER
~Curve Information Block
#MNEM.UNIT      API CODE     Curve Description
#---------    -------------  ------------------------
 DEPT     .FT        00 001 00 00          :  1  DEPTH   
 GAMMA    .API-GR    00 310 00 00          :  2  GAMMA RAY           
 RES      .OHM       00 000 00 00          :  3  SINGLE POINT RES    
 SP       .MV        00 010 00 00          :  4  SPON POTENTIAL      
~Parameter Information Block
#MNEM.UNIT   Information     Description
#---------- ---------------  ------------------------
 FILE.      PROCESSED          :File Type
 FIID.      9060A              :File Type Identifier
 VERS.      3.60Q              :System Version
 SER .      1                  :System Serial Number
 TRUK.      0.0                :Truck Calibration Number
 TOOL.         202             :Tool Serial Number
 TIME.      1341               :Time    HrHrMinMin
 LAT .                         :Latitude
 LON .                         :Longitude
 LMF .                         :Log Measured From
 DMF .                         :Driller Measured From
 PD  .                         :Permanent Data
 PDEV.FT                       :Elevation Permanent Data
 EKB .FT                       :Elevation Kelly Bushing
 ELEV.FT                       :Elevation DF
 EGL .FT    938                :Elevation Ground Level
 DRDP.FT    109                :Driller's Depth
 CASD.FT    6                  :Casing Diameter
 CASB.FT                       :Casing Bottom
 CASX.                         :Casing Type
 CAST.IN    0                  :Casing Thickness
 TNOC.                         :Time Circulation Stopped
 LOGU.                         :Logging Unit
 RECB.      PETTUS             :Recorded By
 OSR1.                         :Other Services
 OSR2.                         :Other Services
 OSR3.                         :Other Services
 BS  .IN           6           :Bit Size
 MST .F                        :Mean Surface Temperature
 TGRD.F     0                  :Temperature Gradiant
 MAGN.      0                  :Magnetic Declination
 MDEN.      2.84               :Density Matrix
 MATR.      DOLOMITE           :Neutron Matrix
 DTMT.      44                 :Delta T Matrix
 DTFL.                         :Delta T Fluid
 MUDS.      0                  :Mud Sample Source
 MRS .      0                  :Mud Resistivity
 MTP .      0                  :Mud Temperature
 MFRS.                         :Resistivity Mud Filtrate
 MFTP.                         :Temperature Mud Filtrate
 MCRS.      0                  :Resistivity Mud Cake
 MCTP.                         :Temperature Mud Cake
 FTYP.      0                  :Fluid Type
 FD  .LB/G     0               :Mud Weight
 DFV .S                        :Fluid Viscosity
 FPH .                         :Fuild PH
 ELCO.      2500               :Electron Cutoff
 CASL.IN    4                  :Casing Logger
 LOTD.FT                       :Logger TD
 ARTM.                         :Arrival Time
 DPTM.                         :Departure Time
 RIGN.                         :Rig Number
~Other Information
#MNEM.UNIT  Information      Description
#---------- ---------------  ------------------------
# -------------------------- 
~A DEPTH  GAMMA    RES      SP    
# ...
 143.440     33.9    299.8  -376.8
 143.460     33.9    299.8  -378.6
 143.480     33.9    299.8  -378.6
 143.500     66.8    299.8  -378.6
 143.520     66.8    299.8  -378.6
 143.540     33.9    299.8  -378.6
 143.560     33.9    297.2  -378.6
 143.580      1.0    297.2  -378.6
 143.600      1.0    297.2  -378.6
 143.620      1.0    297.2  -378.6
 143.640      1.0    297.2  -378.6
 143.660      1.0    294.6  -378.6
 143.680     33.9    294.6  -378.6
 143.700     33.9    294.6  -378.6
 143.720     33.9    294.6  -378.6
 143.740      1.0    294.6  -378.6
 143.760      1.0    294.6  -378.6
 143.780      1.0    294.6  -378.6
 143.800      1.0    292.0  -380.3
 143.820      1.0    292.0  -380.3
 143.840     66.8    292.0  -380.3
 143.860     66.8    292.0  -378.6
 143.880    132.7    292.0  -378.6
 143.900    132.7    292.0  -382.1
 143.920    132.7    292.0  -382.1
 143.940      1.0    292.0  -382.1
 143.960      1.0    294.6  -383.9
 143.980     33.9    294.6  -383.9
 144.000     33.9    289.4  -385.7
 144.020     66.8    289.4  -385.7
 144.040     66.8    289.4  -385.7
 144.060     66.8    289.4  -391.0
 144.080     99.7    289.4  -391.0
 144.100     99.7    289.4  -392.7
 144.120      1.0    289.4  -392.7
 144.140      1.0    289.4  -396.3
 144.160      1.0    289.4  -396.3
 144.180     33.9    289.4  -396.3
 144.200     33.9    286.8  -396.3
 144.220     66.8    286.8  -396.3
 144.240     66.8    284.2  -396.3
 144.260     66.8    284.2  -396.3
 144.280      1.0    284.2  -396.3
 144.300      1.0    284.2  -394.5
 144.320      1.0    284.2  -394.5
 144.340      1.0    281.6  -392.7
 144.360      1.0    281.6  -392.7
 144.380      1.0    281.6  -392.7
 144.400      1.0    281.6  -392.7
 144.420      1.0    281.6  -392.7
 144.440      1.0    279.0  -392.7
 144.460      1.0    279.0  -392.7
 144.480      1.0    279.0  -394.5
 144.500      1.0    279.0  -394.5
 144.520     33.9    279.0  -394.5
 144.540     33.9    279.0  -392.7
 144.560     33.9    279.0  -392.7
 144.580     33.9    276.4  -394.5
 144.600     33.9    276.4  -394.5
 144.620     33.9    276.4  -394.5
 144.640     33.9    276.4  -394.5
 144.660     33.9    276.4  -394.5
 144.680     33.9    273.8  -396.3
 144.700     33.9    273.8  -396.3
 144.720      1.0    273.8  -396.3
 144.740      1.0    276.4  -394.5
 144.760     33.9    276.4  -394.5
 144.780     33.9    273.8  -396.3
 144.800     33.9    273.8  -396.3
 144.820      1.0    273.8  -396.3
 144.840      1.0    276.4  -396.3
 144.860     99.7    276.4  -396.3
 144.880     99.7    273.8  -396.3
 144.900     33.9    273.8  -396.3
 144.920     33.9    276.4  -398.1
 144.940     33.9    276.4  -398.1
 144.960      1.0    276.4  -398.1
 144.980      1.0    273.8  -398.1
 145.000      1.0    273.8  -398.1
 145.020      1.0    273.8  -399.8
 145.040      1.0    273.8  -399.8
 145.060      1.0    273.8  -399.8
 145.080      1.0    271.2  -399.8
 145.100     33.9    271.2  -399.8
 145.120     33.9    271.2  -401.6
 145.140     33.9    271.2  -401.6
 145.160      1.0    271.2  -401.6
 145.180      1.0    268.5  -401.6
 145.200      1.0    268.5  -401.6
 145.220      1.0    268.5  -401.6
 145.240      1.0    268.5  -401.6
 145.260      1.0    268.5  -401.6
 145.280      1.0    265.9  -405.1
 145.300      1.0    265.9  -405.1
 145.320      1.0    263.3  -403.4
 145.340     33.9    263.3  -403.4
 145.360     33.9    263.3  -406.9
 145.380     33.9    263.3  -406.9
 145.400     33.9    263.3  -406.9
 145.420     33.9    260.7  -406.9
 145.440      1.0    260.7  -406.9
 145.460      1.0    255.5  -410.4
 145.480      1.0    255.5  -410.4
 145.500      1.0    255.5  -410.4
 145.520      1.0    252.9  -408.7
 145.540     66.8    252.9  -408.7
 145.560     66.8    252.9  -412.2
 145.580     66.8    252.9  -412.2
 145.600     33.9    252.9  -412.2
 145.620     33.9    248.9  -412.2
 145.640      1.0    248.9  -412.2
 145.660      1.0    247.6  -414.0
 145.680     33.9    247.6  -414.0
 145.700     33.9    247.6  -414.0
 145.720     33.9    246.3  -414.0
 145.740      1.0    246.3  -414.0
 145.760      1.0    246.3  -415.8
 145.780      1.0    246.3  -415.8
 145.800      1.0    245.0  -417.5
 145.820      1.0    245.0  -417.5
 145.840      1.0    245.0  -417.5
 145.860      1.0    243.7  -417.5
 145.880     33.9    243.7  -417.5
 145.900     33.9    242.5  -419.3
 145.920     33.9    242.5  -419.3
 145.940     33.9    242.5  -419.3
 145.960     33.9    239.9  -419.3
 145.980      1.0    239.9  -419.3
 146.000      1.0    237.3  -421.1
 146.020      1.0    237.3  -421.1
 146.040     33.9    237.3  -421.1
 146.060     33.9    234.8  -421.1
 146.080      1.0    234.8  -421.1
 146.100      1.0    233.5  -422.8
 146.120     33.9    233.5  -422.8
 146.140     33.9    233.5  -422.8
 146.160     33.9    230.9  -422.8
 146.180     33.9    230.9  -422.8
 146.200     33.9    228.3  -422.8
 146.220      1.0    228.3  -422.8
 146.240      1.0    228.3  -426.4
 146.260      1.0    228.3  -426.4
 146.280      1.0    228.3  -426.4
 146.300      1.0    225.8  -424.6
 146.320     33.9    225.8  -424.6
 146.340     33.9    225.8  -428.2
 146.360     33.9    225.8  -428.2
 146.380      1.0    225.8  -428.2
 146.400      1.0    221.9  -428.2
 146.420      1.0    221.9  -428.2
 146.440      1.0    219.4  -429.9
 146.460      1.0    219.4  -429.9
 146.480      1.0    219.4  -429.9
 146.500      1.0    218.1  -429.9
 146.520      1.0    218.1  -429.9
 146.540      1.0    215.5  -431.7
 146.560      1.0    215.5  -431.7
 146.580      1.0    212.9  -433.5
 146.600      1.0    212.9  -433.5
 146.620      1.0    212.9  -433.5
 146.640      1.0    210.4  -435.2
 146.660      1.0    210.4  -435.2
 146.680      1.0    209.1  -437.0
 146.700      1.0    209.1  -437.0
 146.720      1.0    209.1  -437.0
 146.740      1.0    204.0  -437.0
 146.760     33.9    204.0  -437.0
 146.780     33.9    202.7  -438.8
 146.800     33.9    202.7  -438.8
 146.820      1.0    202.7  -438.8
 146.840      1.0    198.8  -440.5
 146.860      1.0    198.8  -440.5
 146.880      1.0    197.5  -438.8
 146.900      1.0    197.5  -438.8
 146.920      1.0    197.5  -438.8
 146.940      1.0    192.4  -442.3
 146.960     99.7    192.4  -442.3
 146.980     99.7    191.1  -440.5
 147.000      1.0    191.1  -440.5
 147.020      1.0    187.3  -440.5
 147.040      1.0    187.3  -440.5
 147.060      1.0    187.3  -440.5
 147.080      1.0    186.0  -440.5
 147.100     33.9    186.0  -440.5
 147.120     33.9    183.4  -440.5
 147.140     33.9    183.4  -440.5
 147.160      1.0    183.4  -440.5
 147.180      1.0    182.1  -438.8
 147.200     33.9    182.1  -438.8
 147.220     33.9    179.6  -437.0
 147.240     33.9    179.6  -437.0
 147.260     33.9    179.6  -437.0
 147.280     33.9    178.3  -437.0
 147.300      1.0    178.3  -437.0
 147.320      1.0    177.0  -435.2
 147.340      1.0    177.0  -435.2
 147.360      1.0    175.7  -431.7
 147.380      1.0    175.7  -431.7
 147.400     33.9    175.7  -431.7
 147.420     33.9    171.9  -431.7
 147.440      1.0    171.9  -431.7
 147.460      1.0    171.9  -429.9
 147.480      1.0    171.9  -429.9
 147.500      1.0    171.9  -429.9
 147.520      1.0    170.6  -429.9
 147.540      1.0    170.6  -429.9
 147.560      1.0    169.3  -429.9
 147.580      1.0    169.3  -429.9
 147.600      1.0    169.3  -429.9
 147.620      1.0    168.0  -429.9
 147.640     33.9    168.0  -429.9
 147.660     33.9    166.7  -431.7
 147.680     33.9    166.7  -431.7
 147.700     33.9    166.7  -431.7
 147.720     33.9    165.5  -433.5
 147.740      1.0    165.5  -433.5
 147.760      1.0    164.2  -433.5
 147.780      1.0    164.2  -433.5
 147.800      1.0    164.2  -435.2
 147.820      1.0    164.2  -435.2
 147.840      1.0    164.2  -435.2
 147.860      1.0    161.6  -437.0
 147.880     33.9    161.6  -437.0
 147.900     33.9    157.8  -437.0
 147.920     33.9    157.8  -437.0
 147.940     33.9    157.8  -437.0
 147.960     33.9    155.2  -438.8
 147.980      1.0    155.2  -438.8
 148.000      1.0    150.1  -438.8
