~Version Information
 VERS.                2.0:  CWLS LOG ASCII STANDARD -VERSION 2.0
 WRAP.                 NO:  ONE LINE PER DEPTH STEP
~WELL INFORMATION BLOCK
#MNEM.UNIT       DATA		            DESCRIPTION OF MNEMONIC
#---------    -------------            ------------------------
 STRT.FT  6.060                          :START DEPTH
 STOP.FT  525.860                        :STOP DEPTH
 STEP.FT  0.020                          :STEP    UP_HOLE  
 NULL.    -999.25                        :NULL VALUE
 COMP.    CARLETON GEO LOOP E-1          :COMPANY
 WELL.    278816                                                       :WELL
 FLD .    NORTHFIELD 71-B                :FIELD\LOCATION
 LOC .    31    112   19                 :LOCATION
 CNTY.    RICE                           :COUNTY
 STAT.    CADDDC                         :STATE
 CTRY.    USA                            :COUNTRY
 SRVC.    TRUCK                          :SERVICE COMPANY
 DATE.    08/15/2017                     :LOG DATE
 API .                                       :API NUMBER
 LIC .                                   :LICENSE NUMBER
~Curve Information Block
#MNEM.UNIT      API CODE     Curve Description
#---------    -------------  ------------------------
 DEPT     .FT        00 001 00 00          :  1  DEPTH   
 GAMMA    .API-GR    00 310 00 00          :  2  GAMMA RAY           
 RES      .OHM       00 000 00 00          :  3  SINGLE POINT RES    
 SP       .MV        00 010 00 00          :  4  SPON POTENTIAL      
~Parameter Information Block
#MNEM.UNIT   Information     Description
#---------- ---------------  ------------------------
 FILE.      PROCESSED          :File Type
 FIID.      9060A              :File Type Identifier
 VERS.      3.60Q              :System Version
 SER .      1                  :System Serial Number
 TRUK.      0.0                :Truck Calibration Number
 TOOL.         202             :Tool Serial Number
 TIME.      1341               :Time    HrHrMinMin
 LAT .                         :Latitude
 LON .                         :Longitude
 LMF .                         :Log Measured From
 DMF .                         :Driller Measured From
 PD  .                         :Permanent Data
 PDEV.FT                       :Elevation Permanent Data
 EKB .FT                       :Elevation Kelly Bushing
 ELEV.FT                       :Elevation DF
 EGL .FT    938                :Elevation Ground Level
 DRDP.FT    109                :Driller's Depth
 CASD.FT    6                  :Casing Diameter
 CASB.FT                       :Casing Bottom
 CASX.                         :Casing Type
 CAST.IN    0                  :Casing Thickness
 TNOC.                         :Time Circulation Stopped
 LOGU.                         :Logging Unit
 RECB.      PETTUS             :Recorded By
 OSR1.                         :Other Services
 OSR2.                         :Other Services
 OSR3.                         :Other Services
 BS  .IN           6           :Bit Size
 MST .F                        :Mean Surface Temperature
 TGRD.F     0                  :Temperature Gradiant
 MAGN.      0                  :Magnetic Declination
 MDEN.      2.84               :Density Matrix
 MATR.      DOLOMITE           :Neutron Matrix
 DTMT.      44                 :Delta T Matrix
 DTFL.                         :Delta T Fluid
 MUDS.      0                  :Mud Sample Source
 MRS .      0                  :Mud Resistivity
 MTP .      0                  :Mud Temperature
 MFRS.                         :Resistivity Mud Filtrate
 MFTP.                         :Temperature Mud Filtrate
 MCRS.      0                  :Resistivity Mud Cake
 MCTP.                         :Temperature Mud Cake
 FTYP.      0                  :Fluid Type
 FD  .LB/G     0               :Mud Weight
 DFV .S                        :Fluid Viscosity
 FPH .                         :Fuild PH
 ELCO.      2500               :Electron Cutoff
 CASL.IN    4                  :Casing Logger
 LOTD.FT                       :Logger TD
 ARTM.                         :Arrival Time
 DPTM.                         :Departure Time
 RIGN.                         :Rig Number
~Other Information
#MNEM.UNIT  Information      Description
#---------- ---------------  ------------------------
# -------------------------- 
~A DEPTH  GAMMA    RES      SP    
# ...
 349.540     33.9    161.6  -463.6
 349.560     33.9    161.6  -463.6
 349.580     33.9    161.6  -463.6
 349.600     99.7    160.3  -463.6
 349.620     99.7    160.3  -463.6
 349.640     99.7    160.3  -463.6
 349.660      1.0    160.3  -463.6
 349.680      1.0    160.3  -463.6
 349.700    132.7    160.3  -461.8
 349.720    132.7    160.3  -461.8
 349.740    132.7    159.0  -463.6
 349.760     33.9    159.0  -463.6
 349.780     33.9    159.0  -463.6
 349.800    132.7    159.0  -463.6
 349.820    132.7    159.0  -463.6
 349.840    132.7    157.8  -463.6
 349.860      1.0    157.8  -463.6
 349.880      1.0    157.8  -463.6
 349.900     33.9    157.8  -463.6
 349.920     33.9    157.8  -463.6
 349.940     33.9    157.8  -463.6
 349.960      1.0    157.8  -463.6
 349.980      1.0    157.8  -463.6
 350.000     99.7    157.8  -463.6
 350.020     99.7    157.8  -463.6
 350.040     99.7    156.5  -463.6
 350.060     99.7    156.5  -463.6
 350.080     99.7    156.5  -463.6
 350.100     66.8    155.2  -461.8
 350.120     66.8    155.2  -461.8
 350.140     66.8    155.2  -463.6
 350.160    132.7    155.2  -463.6
 350.180    132.7    155.2  -463.6
 350.200     33.9    153.9  -463.6
 350.220     33.9    153.9  -463.6
 350.240     33.9    153.9  -463.6
 350.260    132.7    153.9  -463.6
 350.280    132.7    153.9  -463.6
 350.300     66.8    152.6  -463.6
 350.320     66.8    152.6  -463.6
 350.340     66.8    151.3  -463.6
 350.360     33.9    151.3  -463.6
 350.380     33.9    151.3  -463.6
 350.400     33.9    150.1  -463.6
 350.420     33.9    150.1  -463.6
 350.440     33.9    148.8  -463.6
 350.460      1.0    148.8  -463.6
 350.480      1.0    148.8  -463.6
 350.500     99.7    147.5  -463.6
 350.520     99.7    147.5  -463.6
 350.540     99.7    147.5  -463.6
 350.560     33.9    147.5  -463.6
 350.580     33.9    147.5  -463.6
 350.600     66.8    146.2  -465.3
 350.620     66.8    146.2  -465.3
 350.640     66.8    146.2  -465.3
 350.660     33.9    144.9  -463.6
 350.680     33.9    144.9  -463.6
 350.700     99.7    143.6  -463.6
 350.720     99.7    143.6  -463.6
 350.740     99.7    143.6  -463.6
 350.760     66.8    141.1  -463.6
 350.780     66.8    141.1  -463.6
 350.800     99.7    141.1  -463.6
 350.820     99.7    141.1  -463.6
 350.840     99.7    141.1  -463.6
 350.860     33.9    139.8  -463.6
 350.880     33.9    139.8  -463.6
 350.900    132.7    138.5  -463.6
 350.920    132.7    138.5  -463.6
 350.940    132.7    138.5  -463.6
 350.960     99.7    137.2  -463.6
 350.980     99.7    137.2  -463.6
 351.000     33.9    135.9  -463.6
 351.020     33.9    135.9  -463.6
 351.040     33.9    135.9  -463.6
 351.060     33.9    135.9  -463.6
 351.080     33.9    135.9  -463.6
 351.100     33.9    134.7  -463.6
 351.120     66.8    134.7  -463.6
 351.140     66.8    134.7  -463.6
 351.160     66.8    134.7  -463.6
 351.180     66.8    134.7  -463.6
 351.200     66.8    133.4  -465.3
 351.220     33.9    133.4  -465.3
 351.240     33.9    133.4  -465.3
 351.260    198.5    132.1  -463.6
 351.280    198.5    132.1  -463.6
 351.300    198.5    133.4  -463.6
 351.320     99.7    133.4  -463.6
 351.340     99.7    133.4  -463.6
 351.360     99.7    132.1  -463.6
 351.380     99.7    132.1  -463.6
 351.400     99.7    132.1  -463.6
 351.420     66.8    132.1  -463.6
 351.440     66.8    132.1  -463.6
 351.460     66.8    132.1  -463.6
 351.480     66.8    132.1  -463.6
 351.500     66.8    132.1  -463.6
 351.520    132.7    132.1  -463.6
 351.540    132.7    132.1  -463.6
 351.560     99.7    132.1  -463.6
 351.580     99.7    132.1  -463.6
 351.600     99.7    132.1  -463.6
 351.620     66.8    132.1  -463.6
 351.640     66.8    132.1  -463.6
 351.660     66.8    130.8  -463.6
 351.680     66.8    130.8  -463.6
 351.700     66.8    132.1  -463.6
 351.720     33.9    132.1  -463.6
 351.740     33.9    132.1  -463.6
 351.760    132.7    132.1  -465.3
 351.780    132.7    132.1  -465.3
 351.800    132.7    130.8  -463.6
 351.820     66.8    130.8  -463.6
 351.840     66.8    130.8  -463.6
 351.860      1.0    132.1  -463.6
 351.880      1.0    132.1  -463.6
 351.900      1.0    132.1  -463.6
 351.920     99.7    132.1  -463.6
 351.940     99.7    132.1  -463.6
 351.960     33.9    132.1  -463.6
 351.980     33.9    132.1  -463.6
 352.000     33.9    132.1  -463.6
 352.020     33.9    132.1  -463.6
 352.040     33.9    132.1  -463.6
 352.060     66.8    133.4  -463.6
 352.080     66.8    133.4  -463.6
 352.100     66.8    133.4  -463.6
 352.120    132.7    132.1  -463.6
 352.140    132.7    132.1  -463.6
 352.160    132.7    133.4  -463.6
 352.180    132.7    133.4  -463.6
 352.200    132.7    133.4  -463.6
 352.220    132.7    133.4  -465.3
 352.240    132.7    133.4  -465.3
 352.260     66.8    134.7  -463.6
 352.280     66.8    134.7  -463.6
 352.300     66.8    134.7  -463.6
 352.320     66.8    133.4  -463.6
 352.340     66.8    133.4  -463.6
 352.360     99.7    133.4  -463.6
 352.380     99.7    133.4  -463.6
 352.400     33.9    133.4  -463.6
 352.420     33.9    134.7  -463.6
 352.440     33.9    134.7  -463.6
 352.460     33.9    133.4  -463.6
 352.480     33.9    133.4  -463.6
 352.500      1.0    133.4  -463.6
 352.520      1.0    133.4  -463.6
 352.540      1.0    133.4  -463.6
 352.560     33.9    133.4  -463.6
 352.580     33.9    133.4  -463.6
 352.600     66.8    133.4  -463.6
 352.620     66.8    132.1  -463.6
 352.640     66.8    132.1  -463.6
 352.660     33.9    130.8  -463.6
 352.680     33.9    130.8  -463.6
 352.700     66.8    130.8  -463.6
 352.720     66.8    130.8  -463.6
 352.740     66.8    130.8  -463.6
 352.760     66.8    128.2  -463.6
 352.780     66.8    128.2  -463.6
 352.800     66.8    128.2  -463.6
 352.820     66.8    128.2  -463.6
 352.840     66.8    128.2  -463.6
 352.860     66.8    129.5  -465.3
 352.880     66.8    129.5  -465.3
 352.900     66.8    129.5  -465.3
 352.920     66.8    128.2  -463.6
 352.940     66.8    128.2  -463.6
 352.960     33.9    128.2  -463.6
 352.980     33.9    128.2  -463.6
 353.000     33.9    128.2  -463.6
 353.020     33.9    128.2  -463.6
 353.040     33.9    128.2  -463.6
 353.060     66.8    129.5  -463.6
 353.080     66.8    129.5  -463.6
 353.100     66.8    129.5  -463.6
 353.120      1.0    130.8  -463.6
 353.140      1.0    130.8  -463.6
 353.160     99.7    130.8  -463.6
 353.180     99.7    130.8  -463.6
 353.200     99.7    130.8  -463.6
 353.220     99.7    132.1  -463.6
 353.240     99.7    132.1  -463.6
 353.260    165.6    132.1  -463.6
 353.280    165.6    132.1  -463.6
 353.300    165.6    133.4  -463.6
 353.320    165.6    133.4  -463.6
 353.340    165.6    133.4  -463.6
 353.360    165.6    133.4  -465.3
 353.380    165.6    133.4  -465.3
 353.400    165.6    135.9  -463.6
 353.420    132.7    135.9  -463.6
 353.440    132.7    135.9  -463.6
 353.460      1.0    134.7  -463.6
 353.480      1.0    134.7  -463.6
 353.500      1.0    134.7  -463.6
 353.520    132.7    134.7  -463.6
 353.540    132.7    134.7  -463.6
 353.560     66.8    134.7  -463.6
 353.580     66.8    134.7  -463.6
 353.600     66.8    133.4  -463.6
 353.620      1.0    133.4  -463.6
 353.640      1.0    133.4  -463.6
 353.660     33.9    133.4  -463.6
 353.680     33.9    133.4  -463.6
 353.700     33.9    132.1  -463.6
 353.720    132.7    132.1  -463.6
 353.740    132.7    132.1  -463.6
 353.760      1.0    130.8  -463.6
 353.780      1.0    130.8  -463.6
 353.800      1.0    130.8  -463.6
 353.820     66.8    128.2  -465.3
 353.840     66.8    128.2  -465.3
 353.860     99.7    128.2  -463.6
 353.880     99.7    128.2  -463.6
 353.900     99.7    128.2  -463.6
 353.920    165.6    127.0  -463.6
 353.940    165.6    127.0  -463.6
 353.960     66.8    124.4  -463.6
 353.980     66.8    124.4  -463.6
 354.000     66.8    124.4  -463.6
 354.020     33.9    124.4  -463.6
 354.040     33.9    124.4  -463.6
 354.060     33.9    123.1  -463.6
 354.080     33.9    123.1  -463.6
 354.100     33.9    123.1  -463.6
