~Version Information
 VERS.                2.0:  CWLS LOG ASCII STANDARD -VERSION 2.0
 WRAP.                 NO:  ONE LINE PER DEPTH STEP
~WELL INFORMATION BLOCK
#MNEM.UNIT       DATA		            DESCRIPTION OF MNEMONIC
#---------    -------------            ------------------------
 STRT.FT  6.060                          :START DEPTH
 STOP.FT  525.860                        :STOP DEPTH
 STEP.FT  0.020                          :STEP    UP_HOLE  
 NULL.    -999.25                        :NULL VALUE
 COMP.    CARLETON GEO LOOP E-1          :COMPANY
 WELL.    278816                                                       :WELL
 FLD .    NORTHFIELD 71-B                :FIELD\LOCATION
 LOC .    31    112   19                 :LOCATION
 CNTY.    RICE                           :COUNTY
 STAT.    CADDDC                         :STATE
 CTRY.    USA                            :COUNTRY
 SRVC.    TRUCK                          :SERVICE COMPANY
 DATE.    08/15/2017                     :LOG DATE
 API .                                       :API NUMBER
 LIC .                                   :LICENSE NUMBER
~Curve Information Block
#MNEM.UNIT      API CODE     Curve Description
#---------    -------------  ------------------------
 DEPT     .FT        00 001 00 00          :  1  DEPTH   
 GAMMA    .API-GR    00 310 00 00          :  2  GAMMA RAY           
 RES      .OHM       00 000 00 00          :  3  SINGLE POINT RES    
 SP       .MV        00 010 00 00          :  4  SPON POTENTIAL      
~Parameter Information Block
#MNEM.UNIT   Information     Description
#---------- ---------------  ------------------------
 FILE.      PROCESSED          :File Type
 FIID.      9060A              :File Type Identifier
 VERS.      3.60Q              :System Version
 SER .      1                  :System Serial Number
 TRUK.      0.0                :Truck Calibration Number
 TOOL.         202             :Tool Serial Number
 TIME.      1341               :Time    HrHrMinMin
 LAT .                         :Latitude
 LON .                         :Longitude
 LMF .                         :Log Measured From
 DMF .                         :Driller Measured From
 PD  .                         :Permanent Data
 PDEV.FT                       :Elevation Permanent Data
 EKB .FT                       :Elevation Kelly Bushing
 ELEV.FT                       :Elevation DF
 EGL .FT    938                :Elevation Ground Level
 DRDP.FT    109                :Driller's Depth
 CASD.FT    6                  :Casing Diameter
 CASB.FT                       :Casing Bottom
 CASX.                         :Casing Type
 CAST.IN    0                  :Casing Thickness
 TNOC.                         :Time Circulation Stopped
 LOGU.                         :Logging Unit
 RECB.      PETTUS             :Recorded By
 OSR1.                         :Other Services
 OSR2.                         :Other Services
 OSR3.                         :Other Services
 BS  .IN           6           :Bit Size
 MST .F                        :Mean Surface Temperature
 TGRD.F     0                  :Temperature Gradiant
 MAGN.      0                  :Magnetic Declination
 MDEN.      2.84               :Density Matrix
 MATR.      DOLOMITE           :Neutron Matrix
 DTMT.      44                 :Delta T Matrix
 DTFL.                         :Delta T Fluid
 MUDS.      0                  :Mud Sample Source
 MRS .      0                  :Mud Resistivity
 MTP .      0                  :Mud Temperature
 MFRS.                         :Resistivity Mud Filtrate
 MFTP.                         :Temperature Mud Filtrate
 MCRS.      0                  :Resistivity Mud Cake
 MCTP.                         :Temperature Mud Cake
 FTYP.      0                  :Fluid Type
 FD  .LB/G     0               :Mud Weight
 DFV .S                        :Fluid Viscosity
 FPH .                         :Fuild PH
 ELCO.      2500               :Electron Cutoff
 CASL.IN    4                  :Casing Logger
 LOTD.FT                       :Logger TD
 ARTM.                         :Arrival Time
 DPTM.                         :Departure Time
 RIGN.                         :Rig Number
~Other Information
#MNEM.UNIT  Information      Description
#---------- ---------------  ------------------------
# -------------------------- 
~A DEPTH  GAMMA    RES      SP    
# ...
 317.480      1.0    116.7  -460.0
 317.500     33.9    116.7  -461.8
 317.520     33.9    116.7  -461.8
 317.540      1.0    116.7  -461.8
 317.560      1.0    116.7  -460.0
 317.580      1.0    116.7  -460.0
 317.600      1.0    116.7  -461.8
 317.620      1.0    116.7  -461.8
 317.640      1.0    116.7  -461.8
 317.660      1.0    116.7  -461.8
 317.680      1.0    116.7  -461.8
 317.700      1.0    115.4  -460.0
 317.720      1.0    115.4  -460.0
 317.740      1.0    115.4  -460.0
 317.760      1.0    116.7  -461.8
 317.780     33.9    116.7  -461.8
 317.800     33.9    116.7  -461.8
 317.820     33.9    116.7  -461.8
 317.840      1.0    116.7  -461.8
 317.860      1.0    116.7  -460.0
 317.880      1.0    116.7  -460.0
 317.900      1.0    115.4  -461.8
 317.920      1.0    115.4  -461.8
 317.940      1.0    116.7  -460.0
 317.960      1.0    116.7  -460.0
 317.980      1.0    116.7  -460.0
 318.000      1.0    115.4  -461.8
 318.020      1.0    115.4  -461.8
 318.040      1.0    116.7  -461.8
 318.060      1.0    116.7  -461.8
 318.080      1.0    116.7  -461.8
 318.100      1.0    115.4  -460.0
 318.120      1.0    115.4  -460.0
 318.140      1.0    115.4  -461.8
 318.160      1.0    115.4  -461.8
 318.180      1.0    115.4  -461.8
 318.200      1.0    115.4  -461.8
 318.220      1.0    115.4  -461.8
 318.240      1.0    115.4  -460.0
 318.260      1.0    115.4  -460.0
 318.280     33.9    115.4  -460.0
 318.300     33.9    114.1  -461.8
 318.320     33.9    114.1  -461.8
 318.340     66.8    115.4  -460.0
 318.360     66.8    115.4  -460.0
 318.380      1.0    115.4  -460.0
 318.400      1.0    115.4  -461.8
 318.420     33.9    115.4  -461.8
 318.440     33.9    115.4  -460.0
 318.460     33.9    115.4  -460.0
 318.480      1.0    115.4  -460.0
 318.500      1.0    115.4  -461.8
 318.520     33.9    115.4  -461.8
 318.540     33.9    115.4  -461.8
 318.560     33.9    115.4  -461.8
 318.580      1.0    115.4  -461.8
 318.600      1.0    115.4  -460.0
 318.620     33.9    115.4  -460.0
 318.640     33.9    115.4  -461.8
 318.660     33.9    115.4  -461.8
 318.680      1.0    115.4  -461.8
 318.700      1.0    115.4  -461.8
 318.720      1.0    115.4  -461.8
 318.740      1.0    115.4  -460.0
 318.760      1.0    115.4  -460.0
 318.780     33.9    115.4  -461.8
 318.800     33.9    115.4  -461.8
 318.820      1.0    115.4  -461.8
 318.840      1.0    115.4  -461.8
 318.860      1.0    115.4  -461.8
 318.880     66.8    115.4  -461.8
 318.900     66.8    115.4  -461.8
 318.920      1.0    115.4  -461.8
 318.940      1.0    115.4  -460.0
 318.960      1.0    115.4  -460.0
 318.980     33.9    115.4  -461.8
 319.000     33.9    115.4  -461.8
 319.020      1.0    115.4  -461.8
 319.040      1.0    115.4  -461.8
 319.060      1.0    115.4  -461.8
 319.080      1.0    115.4  -461.8
 319.100      1.0    115.4  -461.8
 319.120      1.0    115.4  -461.8
 319.140      1.0    115.4  -461.8
 319.160      1.0    115.4  -461.8
 319.180      1.0    115.4  -461.8
 319.200      1.0    115.4  -461.8
 319.220      1.0    115.4  -461.8
 319.240      1.0    115.4  -460.0
 319.260      1.0    115.4  -460.0
 319.280     33.9    115.4  -461.8
 319.300     33.9    115.4  -461.8
 319.320      1.0    115.4  -461.8
 319.340      1.0    115.4  -461.8
 319.360      1.0    115.4  -461.8
 319.380      1.0    114.1  -461.8
 319.400      1.0    114.1  -461.8
 319.420      1.0    115.4  -461.8
 319.440      1.0    115.4  -461.8
 319.460     66.8    115.4  -461.8
 319.480     66.8    115.4  -461.8
 319.500     66.8    115.4  -461.8
 319.520      1.0    114.1  -461.8
 319.540      1.0    114.1  -461.8
 319.560     33.9    114.1  -461.8
 319.580     33.9    115.4  -461.8
 319.600     33.9    115.4  -461.8
 319.620      1.0    115.4  -461.8
 319.640      1.0    115.4  -461.8
 319.660     66.8    115.4  -461.8
 319.680     66.8    115.4  -461.8
 319.700     66.8    115.4  -461.8
 319.720      1.0    115.4  -461.8
 319.740      1.0    115.4  -461.8
 319.760      1.0    115.4  -461.8
 319.780      1.0    115.4  -461.8
 319.800      1.0    115.4  -461.8
 319.820     33.9    115.4  -461.8
 319.840     33.9    115.4  -461.8
 319.860      1.0    115.4  -461.8
 319.880      1.0    115.4  -461.8
 319.900      1.0    115.4  -461.8
 319.920     33.9    116.7  -461.8
 319.940     33.9    116.7  -461.8
 319.960     33.9    116.7  -461.8
 319.980     33.9    115.4  -461.8
 320.000     33.9    115.4  -461.8
 320.020      1.0    116.7  -461.8
 320.040      1.0    116.7  -461.8
 320.060      1.0    116.7  -461.8
 320.080      1.0    116.7  -461.8
 320.100      1.0    116.7  -461.8
 320.120     33.9    115.4  -461.8
 320.140     33.9    115.4  -461.8
 320.160      1.0    115.4  -461.8
 320.180      1.0    116.7  -463.6
 320.200      1.0    116.7  -463.6
 320.220      1.0    116.7  -461.8
 320.240      1.0    116.7  -461.8
 320.260      1.0    116.7  -461.8
 320.280      1.0    116.7  -461.8
 320.300     33.9    116.7  -461.8
 320.320     33.9    115.4  -461.8
 320.340     33.9    115.4  -461.8
 320.360      1.0    116.7  -461.8
 320.380      1.0    116.7  -461.8
 320.400      1.0    116.7  -461.8
 320.420      1.0    115.4  -461.8
 320.440      1.0    115.4  -461.8
 320.460      1.0    115.4  -461.8
 320.480      1.0    115.4  -461.8
 320.500      1.0    115.4  -461.8
 320.520      1.0    116.7  -461.8
 320.540      1.0    116.7  -461.8
 320.560     33.9    115.4  -461.8
 320.580     33.9    115.4  -461.8
 320.600     66.8    115.4  -461.8
 320.620     66.8    115.4  -461.8
 320.640     66.8    115.4  -461.8
 320.660      1.0    115.4  -461.8
 320.680      1.0    115.4  -461.8
 320.700     33.9    115.4  -461.8
 320.720     33.9    115.4  -461.8
 320.740     33.9    115.4  -461.8
 320.760     66.8    115.4  -461.8
 320.780     66.8    115.4  -461.8
 320.800      1.0    115.4  -461.8
 320.820      1.0    115.4  -461.8
 320.840      1.0    115.4  -461.8
 320.860      1.0    115.4  -461.8
 320.880      1.0    115.4  -461.8
 320.900      1.0    115.4  -461.8
 320.920      1.0    115.4  -461.8
 320.940     33.9    115.4  -461.8
 320.960     33.9    115.4  -461.8
 320.980     33.9    115.4  -461.8
 321.000      1.0    115.4  -461.8
 321.020      1.0    114.1  -461.8
 321.040      1.0    114.1  -461.8
 321.060      1.0    115.4  -461.8
 321.080      1.0    115.4  -461.8
 321.100      1.0    115.4  -461.8
 321.120      1.0    115.4  -461.8
 321.140      1.0    115.4  -461.8
 321.160      1.0    115.4  -461.8
 321.180      1.0    115.4  -461.8
 321.200      1.0    115.4  -461.8
 321.220      1.0    115.4  -461.8
 321.240     66.8    115.4  -461.8
 321.260     66.8    116.7  -461.8
 321.280     66.8    116.7  -461.8
 321.300      1.0    115.4  -461.8
 321.320      1.0    115.4  -461.8
 321.340      1.0    115.4  -461.8
 321.360      1.0    116.7  -461.8
 321.380      1.0    116.7  -461.8
 321.400      1.0    118.0  -461.8
 321.420      1.0    118.0  -461.8
 321.440      1.0    118.0  -461.8
 321.460      1.0    116.7  -461.8
 321.480      1.0    116.7  -461.8
 321.500     33.9    118.0  -461.8
 321.520     33.9    118.0  -461.8
 321.540      1.0    118.0  -461.8
 321.560      1.0    116.7  -461.8
 321.580      1.0    116.7  -461.8
 321.600      1.0    118.0  -461.8
 321.620      1.0    118.0  -461.8
 321.640      1.0    118.0  -461.8
 321.660      1.0    118.0  -461.8
 321.680      1.0    118.0  -461.8
 321.700      1.0    116.7  -461.8
 321.720      1.0    116.7  -461.8
 321.740      1.0    116.7  -461.8
 321.760      1.0    116.7  -461.8
 321.780     33.9    116.7  -461.8
 321.800     33.9    118.0  -461.8
 321.820     33.9    118.0  -461.8
 321.840     66.8    116.7  -461.8
 321.860     66.8    116.7  -461.8
 321.880      1.0    116.7  -461.8
 321.900      1.0    116.7  -461.8
 321.920      1.0    116.7  -461.8
 321.940     33.9    116.7  -461.8
 321.960     33.9    116.7  -461.8
 321.980      1.0    116.7  -461.8
 322.000      1.0    116.7  -461.8
 322.020      1.0    116.7  -461.8
 322.040      1.0    116.7  -461.8
