~Version Information
 VERS.                2.0:  CWLS LOG ASCII STANDARD -VERSION 2.0
 WRAP.                 NO:  ONE LINE PER DEPTH STEP
~WELL INFORMATION BLOCK
#MNEM.UNIT       DATA		            DESCRIPTION OF MNEMONIC
#---------    -------------            ------------------------
 STRT.FT  6.060                          :START DEPTH
 STOP.FT  525.860                        :STOP DEPTH
 STEP.FT  0.020                          :STEP    UP_HOLE  
 NULL.    -999.25                        :NULL VALUE
 COMP.    CARLETON GEO LOOP E-1          :COMPANY
 WELL.    278816                                                       :WELL
 FLD .    NORTHFIELD 71-B                :FIELD\LOCATION
 LOC .    31    112   19                 :LOCATION
 CNTY.    RICE                           :COUNTY
 STAT.    CADDDC                         :STATE
 CTRY.    USA                            :COUNTRY
 SRVC.    TRUCK                          :SERVICE COMPANY
 DATE.    08/15/2017                     :LOG DATE
 API .                                       :API NUMBER
 LIC .                                   :LICENSE NUMBER
~Curve Information Block
#MNEM.UNIT      API CODE     Curve Description
#---------    -------------  ------------------------
 DEPT     .FT        00 001 00 00          :  1  DEPTH   
 GAMMA    .API-GR    00 310 00 00          :  2  GAMMA RAY           
 RES      .OHM       00 000 00 00          :  3  SINGLE POINT RES    
 SP       .MV        00 010 00 00          :  4  SPON POTENTIAL      
~Parameter Information Block
#MNEM.UNIT   Information     Description
#---------- ---------------  ------------------------
 FILE.      PROCESSED          :File Type
 FIID.      9060A              :File Type Identifier
 VERS.      3.60Q              :System Version
 SER .      1                  :System Serial Number
 TRUK.      0.0                :Truck Calibration Number
 TOOL.         202             :Tool Serial Number
 TIME.      1341               :Time    HrHrMinMin
 LAT .                         :Latitude
 LON .                         :Longitude
 LMF .                         :Log Measured From
 DMF .                         :Driller Measured From
 PD  .                         :Permanent Data
 PDEV.FT                       :Elevation Permanent Data
 EKB .FT                       :Elevation Kelly Bushing
 ELEV.FT                       :Elevation DF
 EGL .FT    938                :Elevation Ground Level
 DRDP.FT    109                :Driller's Depth
 CASD.FT    6                  :Casing Diameter
 CASB.FT                       :Casing Bottom
 CASX.                         :Casing Type
 CAST.IN    0                  :Casing Thickness
 TNOC.                         :Time Circulation Stopped
 LOGU.                         :Logging Unit
 RECB.      PETTUS             :Recorded By
 OSR1.                         :Other Services
 OSR2.                         :Other Services
 OSR3.                         :Other Services
 BS  .IN           6           :Bit Size
 MST .F                        :Mean Surface Temperature
 TGRD.F     0                  :Temperature Gradiant
 MAGN.      0                  :Magnetic Declination
 MDEN.      2.84               :Density Matrix
 MATR.      DOLOMITE           :Neutron Matrix
 DTMT.      44                 :Delta T Matrix
 DTFL.                         :Delta T Fluid
 MUDS.      0                  :Mud Sample Source
 MRS .      0                  :Mud Resistivity
 MTP .      0                  :Mud Temperature
 MFRS.                         :Resistivity Mud Filtrate
 MFTP.                         :Temperature Mud Filtrate
 MCRS.      0                  :Resistivity Mud Cake
 MCTP.                         :Temperature Mud Cake
 FTYP.      0                  :Fluid Type
 FD  .LB/G     0               :Mud Weight
 DFV .S                        :Fluid Viscosity
 FPH .                         :Fuild PH
 ELCO.      2500               :Electron Cutoff
 CASL.IN    4                  :Casing Logger
 LOTD.FT                       :Logger TD
 ARTM.                         :Arrival Time
 DPTM.                         :Departure Time
 RIGN.                         :Rig Number
~Other Information
#MNEM.UNIT  Information      Description
#---------- ---------------  ------------------------
# -------------------------- 
~A DEPTH  GAMMA    RES      SP    
# ...
 486.940     33.9    107.7  -465.3
 486.960     33.9    107.7  -465.3
 486.980     33.9    107.7  -465.3
 487.000     33.9    107.7  -465.3
 487.020     33.9    107.7  -465.3
 487.040    132.7    107.7  -465.3
 487.060    132.7    107.7  -465.3
 487.080    132.7    106.4  -463.6
 487.100    132.7    106.4  -463.6
 487.120    132.7    106.4  -463.6
 487.140    132.7    107.7  -465.3
 487.160    132.7    107.7  -465.3
 487.180    165.6    107.7  -465.3
 487.200    165.6    107.7  -465.3
 487.220    165.6    107.7  -465.3
 487.240    165.6    107.7  -465.3
 487.260    165.6    107.7  -465.3
 487.280     33.9    109.0  -465.3
 487.300     33.9    109.0  -465.3
 487.320     33.9    109.0  -465.3
 487.340      1.0    109.0  -465.3
 487.360      1.0    109.0  -465.3
 487.380     33.9    109.0  -465.3
 487.400     33.9    109.0  -465.3
 487.420     33.9    109.0  -465.3
 487.440     33.9    109.0  -465.3
 487.460     33.9    109.0  -465.3
 487.480    132.7    110.3  -463.6
 487.500    132.7    110.3  -463.6
 487.520    132.7    110.3  -465.3
 487.540    132.7    110.3  -465.3
 487.560    132.7    110.3  -465.3
 487.580    132.7    111.6  -465.3
 487.600    132.7    111.6  -465.3
 487.620    132.7    112.8  -465.3
 487.640    132.7    112.8  -465.3
 487.660    132.7    112.8  -465.3
 487.680    132.7    111.6  -465.3
 487.700    132.7    111.6  -465.3
 487.720     99.7    112.8  -465.3
 487.740     99.7    112.8  -465.3
 487.760     99.7    112.8  -465.3
 487.780    198.5    114.1  -465.3
 487.800    198.5    114.1  -465.3
 487.820    231.4    114.1  -465.3
 487.840    231.4    112.8  -463.6
 487.860    231.4    112.8  -463.6
 487.880     66.8    112.8  -465.3
 487.900     66.8    112.8  -465.3
 487.920    264.3    112.8  -465.3
 487.940    264.3    112.8  -465.3
 487.960    264.3    112.8  -465.3
 487.980    198.5    112.8  -465.3
 488.000    198.5    112.8  -465.3
 488.020    165.6    112.8  -465.3
 488.040    165.6    112.8  -465.3
 488.060    165.6    112.8  -465.3
 488.080    165.6    112.8  -465.3
 488.100    165.6    112.8  -465.3
 488.120     99.7    112.8  -465.3
 488.140     99.7    112.8  -465.3
 488.160     99.7    112.8  -465.3
 488.180    165.6    112.8  -463.6
 488.200    165.6    112.8  -463.6
 488.220     99.7    112.8  -463.6
 488.240     99.7    112.8  -465.3
 488.260     99.7    112.8  -465.3
 488.280    165.6    111.6  -465.3
 488.300    165.6    111.6  -465.3
 488.320    132.7    111.6  -465.3
 488.340    132.7    111.6  -465.3
 488.360    132.7    111.6  -465.3
 488.380     99.7    110.3  -465.3
 488.400     99.7    110.3  -465.3
 488.420    132.7    110.3  -465.3
 488.440    132.7    110.3  -465.3
 488.460    132.7    110.3  -465.3
 488.480    198.5    110.3  -465.3
 488.500    198.5    110.3  -465.3
 488.520      1.0    110.3  -463.6
 488.540      1.0    110.3  -463.6
 488.560      1.0    110.3  -463.6
 488.580     99.7    109.0  -465.3
 488.600     99.7    109.0  -465.3
 488.620    198.5    109.0  -465.3
 488.640    198.5    109.0  -465.3
 488.660    198.5    109.0  -465.3
 488.680    132.7    110.3  -465.3
 488.700    132.7    110.3  -465.3
 488.720     33.9    109.0  -465.3
 488.740     33.9    109.0  -465.3
 488.760     33.9    109.0  -465.3
 488.780     66.8    109.0  -465.3
 488.800     66.8    109.0  -465.3
 488.820    297.2    109.0  -465.3
 488.840    297.2    109.0  -465.3
 488.860    165.6    109.0  -465.3
 488.880    165.6    107.7  -465.3
 488.900    165.6    107.7  -465.3
 488.920    165.6    107.7  -463.6
 488.940    165.6    107.7  -463.6
 488.960    165.6    107.7  -463.6
 488.980    165.6    107.7  -465.3
 489.000    165.6    107.7  -465.3
 489.020    132.7    107.7  -465.3
 489.040    132.7    107.7  -465.3
 489.060    132.7    107.7  -465.3
 489.080    198.5    106.4  -465.3
 489.100    198.5    106.4  -465.3
 489.120    165.6    106.4  -465.3
 489.140    165.6    106.4  -465.3
 489.160    165.6    106.4  -465.3
 489.180    165.6    106.4  -465.3
 489.200    165.6    106.4  -465.3
 489.220    165.6    106.4  -465.3
 489.240    165.6    106.4  -465.3
 489.260    165.6    106.4  -465.3
 489.280     33.9    106.4  -465.3
 489.300     33.9    106.4  -465.3
 489.320     99.7    105.1  -465.3
 489.340     99.7    105.1  -465.3
 489.360     99.7    105.1  -465.3
 489.380    132.7    106.4  -463.6
 489.400    132.7    106.4  -463.6
 489.420     99.7    106.4  -465.3
 489.440     99.7    106.4  -465.3
 489.460     99.7    106.4  -465.3
 489.480     99.7    106.4  -465.3
 489.500     99.7    106.4  -465.3
 489.520     99.7    106.4  -465.3
 489.540     99.7    106.4  -465.3
 489.560     99.7    106.4  -465.3
 489.580     99.7    106.4  -465.3
 489.600     99.7    106.4  -465.3
 489.620    198.5    107.7  -465.3
 489.640    198.5    107.7  -465.3
 489.660    198.5    107.7  -465.3
 489.680     99.7    106.4  -465.3
 489.700     99.7    106.4  -465.3
 489.720     33.9    105.1  -465.3
 489.740     33.9    105.1  -465.3
 489.760     33.9    106.4  -465.3
 489.780    132.7    106.4  -465.3
 489.800    132.7    106.4  -465.3
 489.820    132.7    105.1  -463.6
 489.840    132.7    105.1  -463.6
 489.860    132.7    106.4  -465.3
 489.880     66.8    106.4  -465.3
 489.900     66.8    106.4  -465.3
 489.920     66.8    103.9  -465.3
 489.940     66.8    103.9  -465.3
 489.960    132.7    103.9  -465.3
 489.980    132.7    103.9  -465.3
 490.000    132.7    103.9  -465.3
 490.020     33.9    100.0  -465.3
 490.040     33.9    100.0  -465.3
 490.060     33.9    100.0  -465.3
 490.080    165.6     99.3  -465.3
 490.100    165.6     99.3  -465.3
 490.120     33.9     97.9  -465.3
 490.140     33.9     97.9  -465.3
 490.160     33.9     97.9  -465.3
 490.180     99.7     96.5  -465.3
 490.200     99.7     96.5  -465.3
 490.220     33.9     95.8  -465.3
 490.240     33.9     95.8  -465.3
 490.260     33.9     95.8  -465.3
 490.280     99.7     93.7  -465.3
 490.300     99.7     93.7  -465.3
 490.320    132.7     93.7  -465.3
 490.340    132.7     93.7  -465.3
 490.360    132.7     93.7  -465.3
 490.380     66.8     92.3  -465.3
 490.400     66.8     92.3  -465.3
 490.420    198.5     90.8  -465.3
 490.440    198.5     90.8  -465.3
 490.460    198.5     90.8  -465.3
 490.480     99.7     91.6  -465.3
 490.500     99.7     91.6  -465.3
 490.520    165.6     90.1  -463.6
 490.540    165.6     90.1  -463.6
 490.560    165.6     90.1  -463.6
 490.580     99.7     90.8  -465.3
 490.600     99.7     90.8  -465.3
 490.620    165.6     89.4  -465.3
 490.640    165.6     89.4  -465.3
 490.660    165.6     89.4  -465.3
 490.680    198.5     90.8  -465.3
 490.700    198.5     90.8  -465.3
 490.720    231.4     90.8  -465.3
 490.740    231.4     90.8  -465.3
 490.760    231.4     90.8  -465.3
 490.780    132.7     90.8  -465.3
 490.800    132.7     90.8  -465.3
 490.820      1.0     92.3  -465.3
 490.840      1.0     92.3  -465.3
 490.860      1.0     92.3  -465.3
 490.880    264.3     92.3  -465.3
 490.900    264.3     92.3  -465.3
 490.920     66.8     93.7  -465.3
 490.940     66.8     93.7  -465.3
 490.960     66.8     93.7  -465.3
 490.980     99.7     94.4  -465.3
 491.000     99.7     94.4  -465.3
 491.020     33.9     95.1  -465.3
 491.040     33.9     95.1  -465.3
 491.060     33.9     95.1  -465.3
 491.080    165.6     95.8  -465.3
 491.100    165.6     95.8  -465.3
 491.120     66.8     97.2  -465.3
 491.140     66.8     97.2  -465.3
 491.160     66.8     97.2  -465.3
 491.180    165.6     98.6  -465.3
 491.200    165.6     98.6  -465.3
 491.220      1.0     99.3  -465.3
 491.240      1.0     99.3  -465.3
 491.260      1.0     99.3  -465.3
 491.280    132.7    101.3  -465.3
 491.300    132.7    101.3  -465.3
 491.320    231.4    101.3  -465.3
 491.340    231.4    101.3  -465.3
 491.360    231.4    101.3  -465.3
 491.380     66.8    103.9  -465.3
 491.400     66.8    103.9  -465.3
 491.420     66.8    103.9  -465.3
 491.440     66.8    103.9  -465.3
 491.460     66.8    103.9  -465.3
 491.480    231.4    105.1  -465.3
 491.500    231.4    105.1  -465.3
