~Version Information
 VERS.                2.0:  CWLS LOG ASCII STANDARD -VERSION 2.0
 WRAP.                 NO:  ONE LINE PER DEPTH STEP
~WELL INFORMATION BLOCK
#MNEM.UNIT       DATA		            DESCRIPTION OF MNEMONIC
#---------    -------------            ------------------------
 STRT.FT  9.050                          :START DEPTH
 STOP.FT  527.030                        :STOP DEPTH
 STEP.FT  0.020                          :STEP    UP_HOLE  
 NULL.    -999.25                        :NULL VALUE
 COMP.    CARLETON HL  F-18  - GAMMA     :COMPANY
 WELL.    279454                                                       :WELL
 FLD .    NORTHFIELD 71-B                :FIELD\LOCATION
 LOC .    31    112   19                 :LOCATION
 CNTY.    RICE                           :COUNTY
 STAT.    CACCDA                         :STATE
 CTRY.    USA                            :COUNTRY
 SRVC.    TRUCK                          :SERVICE COMPANY
 DATE.    08/31/2018                     :LOG DATE
 API .                                       :API NUMBER
 LIC .                                   :LICENSE NUMBER
~Curve Information Block
#MNEM.UNIT      API CODE     Curve Description
#---------    -------------  ------------------------
 DEPT     .FT        00 001 00 00          :  1  DEPTH   
 GAMMA    .API-GR    00 310 00 00          :  2  GAMMA RAY           
 RES      .OHM       00 000 00 00          :  3  SINGLE POINT RES    
 SP       .MV        00 010 00 00          :  4  SPON POTENTIAL      
~Parameter Information Block
#MNEM.UNIT   Information     Description
#---------- ---------------  ------------------------
 FILE.      PROCESSED          :File Type
 FIID.      9060A              :File Type Identifier
 VERS.      3.60Q              :System Version
 SER .      1                  :System Serial Number
 TRUK.      0.0                :Truck Calibration Number
 TOOL.         202             :Tool Serial Number
 TIME.      1019               :Time    HrHrMinMin
 LAT .                         :Latitude
 LON .                         :Longitude
 LMF .                         :Log Measured From
 DMF .                         :Driller Measured From
 PD  .                         :Permanent Data
 PDEV.FT                       :Elevation Permanent Data
 EKB .FT                       :Elevation Kelly Bushing
 ELEV.FT                       :Elevation DF
 EGL .FT     941.16            :Elevation Ground Level
 DRDP.FT    25                 :Driller's Depth
 CASD.FT    6                  :Casing Diameter
 CASB.FT    25                 :Casing Bottom
 CASX.                         :Casing Type
 CAST.IN    0                  :Casing Thickness
 TNOC.                         :Time Circulation Stopped
 LOGU.                         :Logging Unit
 RECB.      TIPPING            :Recorded By
 OSR1.                         :Other Services
 OSR2.                         :Other Services
 OSR3.                         :Other Services
 BS  .IN           6           :Bit Size
 MST .F                        :Mean Surface Temperature
 TGRD.F     0                  :Temperature Gradiant
 MAGN.      0                  :Magnetic Declination
 MDEN.      2.84               :Density Matrix
 MATR.      DOLOMITE           :Neutron Matrix
 DTMT.      44                 :Delta T Matrix
 DTFL.                         :Delta T Fluid
 MUDS.      0                  :Mud Sample Source
 MRS .      0                  :Mud Resistivity
 MTP .      0                  :Mud Temperature
 MFRS.                         :Resistivity Mud Filtrate
 MFTP.                         :Temperature Mud Filtrate
 MCRS.      0                  :Resistivity Mud Cake
 MCTP.                         :Temperature Mud Cake
 FTYP.      0                  :Fluid Type
 FD  .LB/G     0               :Mud Weight
 DFV .S                        :Fluid Viscosity
 FPH .                         :Fuild PH
 ELCO.      2500               :Electron Cutoff
 CASL.IN    4                  :Casing Logger
 LOTD.FT                       :Logger TD
 ARTM.                         :Arrival Time
 DPTM.                         :Departure Time
 RIGN.                         :Rig Number
~Other Information
#MNEM.UNIT  Information      Description
#---------- ---------------  ------------------------
# -------------------------- 
~A DEPTH  GAMMA    RES      SP    
# ...
 521.990     99.7    178.3  168.6 
 522.010    165.6    178.3  168.6 
 522.030    165.6    178.3  168.6 
 522.050     33.9    177.0  170.3 
 522.070     33.9    177.0  170.3 
 522.090     66.8    174.4  170.3 
 522.110     99.7    174.4  170.3 
 522.130     99.7    173.2  172.1 
 522.150     99.7    173.2  170.3 
 522.170     99.7    173.2  170.3 
 522.190      1.0    169.3  172.1 
 522.210    198.5    169.3  172.1 
 522.230    198.5    168.0  172.1 
 522.250     33.9    168.0  172.1 
 522.270     33.9    166.7  172.1 
 522.290     99.7    164.2  172.1 
 522.310     99.7    164.2  172.1 
 522.330    165.6    161.6  172.1 
 522.350     33.9    161.6  172.1 
 522.370     33.9    161.6  173.9 
 522.390     66.8    159.0  173.9 
 522.410     66.8    159.0  173.9 
 522.430     99.7    159.0  173.9 
 522.450     33.9    159.0  173.9 
 522.470     33.9    156.5  173.9 
 522.490     99.7    153.9  173.9 
 522.510     99.7    153.9  173.9 
 522.530     66.8    153.9  173.9 
 522.550    132.7    153.9  173.9 
 522.570    132.7    152.6  175.7 
 522.590      1.0    152.6  175.7 
 522.610      1.0    151.3  173.9 
 522.630    198.5    152.6  175.7 
 522.650    198.5    152.6  175.7 
 522.670    132.7    152.6  175.7 
 522.690     33.9    152.6  175.7 
 522.710     33.9    152.6  175.7 
 522.730     33.9    152.6  175.7 
 522.750     33.9    152.6  175.7 
 522.770     66.8    153.9  175.7 
 522.790     99.7    153.9  175.7 
 522.810     99.7    153.9  175.7 
 522.830     33.9    153.9  175.7 
 522.850     33.9    155.2  173.9 
 522.870     33.9    153.9  175.7 
 522.890    198.5    153.9  175.7 
 522.910    198.5    156.5  173.9 
 522.930     33.9    156.5  173.9 
 522.950     33.9    156.5  175.7 
 522.970     33.9    156.5  175.7 
 522.990     33.9    157.8  173.9 
 523.010     99.7    157.8  173.9 
 523.030     99.7    157.8  173.9 
 523.050     99.7    160.3  172.1 
 523.070     66.8    160.3  172.1 
 523.090     66.8    160.3  173.9 
 523.110      1.0    161.6  172.1 
 523.130      1.0    161.6  172.1 
 523.150     66.8    162.9  173.9 
 523.170     99.7    162.9  173.9 
 523.190     99.7    164.2  172.1 
 523.210     99.7    164.2  172.1 
 523.230     99.7    165.5  172.1 
 523.250     66.8    166.7  172.1 
 523.270     33.9    166.7  172.1 
 523.290     33.9    165.5  172.1 
 523.310     66.8    165.5  172.1 
 523.330     66.8    166.7  172.1 
 523.350    264.3    166.7  172.1 
 523.370    264.3    166.7  172.1 
 523.390     66.8    166.7  170.3 
 523.410     66.8    166.7  170.3 
 523.430     66.8    166.7  172.1 
 523.450    165.6    169.3  168.6 
 523.470    165.6    169.3  168.6 
 523.490     33.9    169.3  170.3 
 523.510     33.9    169.3  170.3 
 523.530     66.8    170.6  168.6 
 523.550     33.9    170.6  168.6 
 523.570     33.9    171.9  166.8 
 523.590    132.7    171.9  168.6 
 523.610    132.7    171.9  168.6 
 523.630     99.7    173.2  166.8 
 523.650     33.9    173.2  166.8 
 523.670     33.9    175.7  168.6 
 523.690    198.5    174.4  166.8 
 523.710    198.5    174.4  166.8 
 523.730     99.7    177.0  166.8 
 523.750    165.6    177.0  166.8 
 523.770    165.6    175.7  166.8 
 523.790     99.7    174.4  166.8 
 523.810     99.7    174.4  166.8 
 523.830    132.7    173.2  166.8 
 523.850    132.7    173.2  166.8 
 523.870     66.8    171.9  165.0 
 523.890    165.6    171.9  165.0 
 523.910    165.6    170.6  165.0 
 523.930     33.9    170.6  165.0 
 523.950     33.9    170.6  165.0 
 523.970     66.8    169.3  165.0 
 523.990     33.9    169.3  165.0 
 524.010     33.9    169.3  165.0 
 524.030     66.8    169.3  165.0 
 524.050     66.8    168.0  163.3 
 524.070      1.0    169.3  163.3 
 524.090    132.7    169.3  163.3 
 524.110    132.7    168.0  163.3 
 524.130     99.7    168.0  163.3 
 524.150     99.7    169.3  161.5 
 524.170     66.8    170.6  159.7 
 524.190    132.7    170.6  159.7 
 524.210    132.7    171.9  161.5 
 524.230     99.7    171.9  161.5 
 524.250     99.7    173.2  159.7 
 524.270     99.7    173.2  159.7 
 524.290     66.8    173.2  159.7 
 524.310     66.8    174.4  157.9 
 524.330     33.9    174.4  157.9 
 524.350     33.9    175.7  159.7 
 524.370     66.8    175.7  159.7 
 524.390     66.8    178.3  157.9 
 524.410     66.8    178.3  157.9 
 524.430     99.7    178.3  159.7 
 524.450     33.9    179.6  159.7 
 524.470     33.9    179.6  159.7 
 524.490      1.0    179.6  159.7 
 524.510     33.9    179.6  159.7 
 524.530     33.9    180.9  159.7 
 524.550     33.9    180.9  161.5 
 524.570      1.0    180.9  161.5 
 524.590      1.0    179.6  159.7 
 524.610    132.7    179.6  159.7 
 524.630    132.7    179.6  161.5 
 524.650    165.6    180.9  159.7 
 524.670    198.5    180.9  159.7 
 524.690    198.5    179.6  159.7 
 524.710     33.9    179.6  159.7 
 524.730     66.8    180.9  159.7 
 524.750     66.8    180.9  159.7 
 524.770     66.8    179.6  159.7 
 524.790    132.7    179.6  157.9 
 524.810    132.7    179.6  157.9 
 524.830    132.7    180.9  157.9 
 524.850     66.8    180.9  157.9 
 524.870     66.8    179.6  156.2 
 524.890    132.7    179.6  157.9 
 524.910     33.9    179.6  157.9 
 524.930     33.9    179.6  156.2 
 524.950    132.7    179.6  156.2 
 524.970     99.7    180.9  157.9 
 524.990     99.7    180.9  157.9 
 525.010    132.7    180.9  157.9 
 525.030     99.7    180.9  157.9 
 525.050    231.4    180.9  157.9 
 525.070    231.4    180.9  161.5 
 525.090     33.9    180.9  161.5 
 525.110     99.7    180.9  161.5 
 525.130     99.7    180.9  165.0 
 525.150     66.8    180.9  165.0 
 525.170     33.9    182.1  165.0 
 525.190    165.6    182.1  168.6 
 525.210    165.6    182.1  168.6 
 525.230     66.8    182.1  172.1 
 525.250     66.8    182.1  172.1 
 525.270    132.7    183.4  170.3 
 525.290    132.7    186.0  173.9 
 525.310    132.7    186.0  173.9 
 525.330    132.7    187.3  172.1 
 525.350     66.8    188.6  173.9 
 525.370     66.8    188.6  173.9 
 525.390     66.8    188.6  172.1 
 525.410     99.7    189.8  172.1 
 525.430    165.6    189.8  172.1 
 525.450    165.6    188.6  172.1 
 525.470     66.8    189.8  172.1 
 525.490     33.9    189.8  172.1 
 525.510    165.6    188.6  172.1 
 525.530    165.6    188.6  172.1 
 525.550     33.9    189.8  172.1 
 525.570     99.7    188.6  172.1 
 525.590     66.8    188.6  172.1 
 525.610     99.7    189.8  172.1 
 525.630     99.7    188.6  173.9 
 525.650    132.7    188.6  173.9 
 525.670    116.2    189.8  173.9 
 525.690    132.7    188.6  173.9 
 525.710     99.7    188.6  173.9 
 525.730     99.7    188.6  173.9 
 525.750     66.8    189.8  173.9 
 525.770    165.6    189.8  173.9 
 525.790      1.0    188.6  175.7 
 525.810    264.3    189.8  173.9 
 525.830     50.4    189.8  173.9 
 525.850    132.7    188.6  173.9 
 525.870     99.7    189.8  173.9 
 525.890     99.7    189.8  173.9 
 525.910     99.7    188.6  173.9 
 525.930     50.4    189.8  173.9 
 525.950      1.0    188.6  172.1 
 525.970     33.9    188.6  172.1 
 525.990     66.8    189.8  173.9 
 526.010    132.7    188.6  172.1 
 526.030    132.7    188.6  172.1 
 526.050    149.1    189.8  170.3 
 526.070     33.9    188.6  172.1 
 526.090     33.9    188.6  172.1 
 526.110    132.7    188.6  172.1 
 526.130     91.5    189.8  170.3 
 526.150  -999.25    188.6  170.3 
 526.170  -999.25    189.8  172.1 
 526.190  -999.25    189.8  172.1 
 526.210  -999.25    188.6  170.3 
 526.230  -999.25    189.8  172.1 
 526.250  -999.25    188.6  170.3 
 526.270  -999.25    188.6  170.3 
 526.290  -999.25    189.8  172.1 
 526.310  -999.25    188.6  172.1 
 526.330  -999.25    189.8  172.1 
 526.350  -999.25    189.8  172.1 
 526.370  -999.25    188.6  172.1 
 526.390  -999.25    189.8  173.9 
 526.410  -999.25    188.6  172.1 
 526.430  -999.25    188.6  172.1 
 526.450  -999.25    188.6  172.1 
 526.470  -999.25    189.8  173.9 
 526.490  -999.25    188.6  172.1 
 526.510  -999.25    189.8  172.1 
 526.530  -999.25    189.8  172.1 
 526.550  -999.25    188.6  172.1 
