~Version Information
 VERS.                2.0:  CWLS LOG ASCII STANDARD -VERSION 2.0
 WRAP.                 NO:  ONE LINE PER DEPTH STEP
~WELL INFORMATION BLOCK
#MNEM.UNIT       DATA		            DESCRIPTION OF MNEMONIC
#---------    -------------            ------------------------
 STRT.FT  9.050                          :START DEPTH
 STOP.FT  527.030                        :STOP DEPTH
 STEP.FT  0.020                          :STEP    UP_HOLE  
 NULL.    -999.25                        :NULL VALUE
 COMP.    CARLETON HL  F-18  - GAMMA     :COMPANY
 WELL.    279454                                                       :WELL
 FLD .    NORTHFIELD 71-B                :FIELD\LOCATION
 LOC .    31    112   19                 :LOCATION
 CNTY.    RICE                           :COUNTY
 STAT.    CACCDA                         :STATE
 CTRY.    USA                            :COUNTRY
 SRVC.    TRUCK                          :SERVICE COMPANY
 DATE.    08/31/2018                     :LOG DATE
 API .                                       :API NUMBER
 LIC .                                   :LICENSE NUMBER
~Curve Information Block
#MNEM.UNIT      API CODE     Curve Description
#---------    -------------  ------------------------
 DEPT     .FT        00 001 00 00          :  1  DEPTH   
 GAMMA    .API-GR    00 310 00 00          :  2  GAMMA RAY           
 RES      .OHM       00 000 00 00          :  3  SINGLE POINT RES    
 SP       .MV        00 010 00 00          :  4  SPON POTENTIAL      
~Parameter Information Block
#MNEM.UNIT   Information     Description
#---------- ---------------  ------------------------
 FILE.      PROCESSED          :File Type
 FIID.      9060A              :File Type Identifier
 VERS.      3.60Q              :System Version
 SER .      1                  :System Serial Number
 TRUK.      0.0                :Truck Calibration Number
 TOOL.         202             :Tool Serial Number
 TIME.      1019               :Time    HrHrMinMin
 LAT .                         :Latitude
 LON .                         :Longitude
 LMF .                         :Log Measured From
 DMF .                         :Driller Measured From
 PD  .                         :Permanent Data
 PDEV.FT                       :Elevation Permanent Data
 EKB .FT                       :Elevation Kelly Bushing
 ELEV.FT                       :Elevation DF
 EGL .FT     941.16            :Elevation Ground Level
 DRDP.FT    25                 :Driller's Depth
 CASD.FT    6                  :Casing Diameter
 CASB.FT    25                 :Casing Bottom
 CASX.                         :Casing Type
 CAST.IN    0                  :Casing Thickness
 TNOC.                         :Time Circulation Stopped
 LOGU.                         :Logging Unit
 RECB.      TIPPING            :Recorded By
 OSR1.                         :Other Services
 OSR2.                         :Other Services
 OSR3.                         :Other Services
 BS  .IN           6           :Bit Size
 MST .F                        :Mean Surface Temperature
 TGRD.F     0                  :Temperature Gradiant
 MAGN.      0                  :Magnetic Declination
 MDEN.      2.84               :Density Matrix
 MATR.      DOLOMITE           :Neutron Matrix
 DTMT.      44                 :Delta T Matrix
 DTFL.                         :Delta T Fluid
 MUDS.      0                  :Mud Sample Source
 MRS .      0                  :Mud Resistivity
 MTP .      0                  :Mud Temperature
 MFRS.                         :Resistivity Mud Filtrate
 MFTP.                         :Temperature Mud Filtrate
 MCRS.      0                  :Resistivity Mud Cake
 MCTP.                         :Temperature Mud Cake
 FTYP.      0                  :Fluid Type
 FD  .LB/G     0               :Mud Weight
 DFV .S                        :Fluid Viscosity
 FPH .                         :Fuild PH
 ELCO.      2500               :Electron Cutoff
 CASL.IN    4                  :Casing Logger
 LOTD.FT                       :Logger TD
 ARTM.                         :Arrival Time
 DPTM.                         :Departure Time
 RIGN.                         :Rig Number
~Other Information
#MNEM.UNIT  Information      Description
#---------- ---------------  ------------------------
# -------------------------- 
~A DEPTH  GAMMA    RES      SP    
# ...
 247.190    132.7    286.8  110.1 
 247.210    132.7    286.8  110.1 
 247.230    132.7    286.8  110.1 
 247.250    132.7    286.8  110.1 
 247.270     66.8    289.4  110.1 
 247.290      1.0    289.4  110.1 
 247.310      1.0    292.0  108.4 
 247.330    165.6    289.4  110.1 
 247.350    165.6    289.4  110.1 
 247.370      1.0    292.0  108.4 
 247.390      1.0    292.0  108.4 
 247.410      1.0    292.0  110.1 
 247.430     66.8    292.0  110.1 
 247.450     66.8    292.0  108.4 
 247.470     66.8    292.0  108.4 
 247.490     66.8    292.0  108.4 
 247.510     33.9    294.6  110.1 
 247.530     33.9    294.6  110.1 
 247.550     99.7    294.6  108.4 
 247.570      1.0    294.6  108.4 
 247.590      1.0    294.6  108.4 
 247.610     66.8    294.6  108.4 
 247.630     66.8    294.6  110.1 
 247.650     66.8    294.6  110.1 
 247.670     66.8    294.6  108.4 
 247.690      1.0    294.6  108.4 
 247.710      1.0    294.6  108.4 
 247.730     33.9    294.6  110.1 
 247.750      1.0    294.6  110.1 
 247.770      1.0    294.6  110.1 
 247.790     66.8    294.6  110.1 
 247.810     66.8    294.6  108.4 
 247.830     66.8    294.6  110.1 
 247.850     66.8    294.6  110.1 
 247.870      1.0    294.6  108.4 
 247.890      1.0    294.6  108.4 
 247.910     66.8    294.6  110.1 
 247.930      1.0    294.6  110.1 
 247.950      1.0    294.6  110.1 
 247.970     66.8    294.6  110.1 
 247.990     66.8    294.6  108.4 
 248.010      1.0    294.6  110.1 
 248.030      1.0    294.6  110.1 
 248.050     33.9    294.6  110.1 
 248.070     33.9    294.6  110.1 
 248.090      1.0    292.0  108.4 
 248.110      1.0    292.0  108.4 
 248.130      1.0    294.6  110.1 
 248.150     33.9    294.6  110.1 
 248.170     33.9    292.0  108.4 
 248.190      1.0    292.0  110.1 
 248.210      1.0    292.0  110.1 
 248.230     33.9    294.6  110.1 
 248.250     33.9    294.6  110.1 
 248.270     33.9    292.0  110.1 
 248.290      1.0    292.0  110.1 
 248.310      1.0    292.0  110.1 
 248.330     33.9    292.0  110.1 
 248.350     33.9    292.0  110.1 
 248.370     66.8    292.0  110.1 
 248.390     66.8    292.0  110.1 
 248.410     33.9    292.0  110.1 
 248.430     33.9    292.0  110.1 
 248.450      1.0    292.0  110.1 
 248.470     33.9    292.0  111.9 
 248.490     33.9    292.0  111.9 
 248.510      1.0    289.4  110.1 
 248.530      1.0    289.4  110.1 
 248.550     33.9    289.4  110.1 
 248.570     33.9    289.4  110.1 
 248.590     33.9    289.4  111.9 
 248.610      1.0    289.4  111.9 
 248.630      1.0    286.8  110.1 
 248.650     33.9    289.4  111.9 
 248.670     33.9    289.4  111.9 
 248.690    132.7    286.8  110.1 
 248.710    132.7    286.8  110.1 
 248.730     33.9    284.2  111.9 
 248.750     33.9    284.2  111.9 
 248.770     33.9    286.8  110.1 
 248.790     33.9    286.8  110.1 
 248.810     33.9    284.2  111.9 
 248.830     66.8    281.6  110.1 
 248.850     66.8    281.6  110.1 
 248.870     66.8    284.2  111.9 
 248.890     66.8    284.2  111.9 
 248.910      1.0    284.2  111.9 
 248.930     33.9    284.2  111.9 
 248.950     33.9    281.6  110.1 
 248.970     66.8    281.6  110.1 
 248.990     66.8    284.2  111.9 
 249.010     66.8    281.6  111.9 
 249.030     66.8    281.6  111.9 
 249.050     33.9    281.6  111.9 
 249.070     33.9    281.6  111.9 
 249.090     33.9    279.0  111.9 
 249.110     99.7    279.0  111.9 
 249.130     99.7    279.0  111.9 
 249.150     33.9    279.0  111.9 
 249.170     33.9    279.0  113.7 
 249.190      1.0    276.4  111.9 
 249.210      1.0    276.4  111.9 
 249.230     33.9    279.0  113.7 
 249.250     33.9    279.0  113.7 
 249.270      1.0    273.8  111.9 
 249.290     33.9    273.8  111.9 
 249.310     33.9    273.8  113.7 
 249.330     33.9    273.8  113.7 
 249.350     33.9    276.4  113.7 
 249.370      1.0    271.2  113.7 
 249.390      1.0    271.2  113.7 
 249.410      1.0    273.8  111.9 
 249.430      1.0    273.8  111.9 
 249.450     33.9    273.8  113.7 
 249.470      1.0    273.8  113.7 
 249.490      1.0    273.8  113.7 
 249.510     66.8    271.2  113.7 
 249.530     66.8    271.2  113.7 
 249.550     99.7    273.8  111.9 
 249.570     99.7    273.8  111.9 
 249.590     66.8    271.2  111.9 
 249.610     66.8    271.2  111.9 
 249.630     66.8    273.8  111.9 
 249.650     33.9    273.8  111.9 
 249.670     33.9    271.2  113.7 
 249.690      1.0    271.2  111.9 
 249.710      1.0    271.2  111.9 
 249.730    132.7    273.8  111.9 
 249.750    132.7    273.8  111.9 
 249.770     99.7    271.2  111.9 
 249.790      1.0    271.2  111.9 
 249.810      1.0    273.8  110.1 
 249.830      1.0    273.8  111.9 
 249.850      1.0    273.8  111.9 
 249.870     99.7    276.4  110.1 
 249.890     99.7    276.4  110.1 
 249.910      1.0    276.4  110.1 
 249.930     66.8    276.4  110.1 
 249.950     66.8    276.4  111.9 
 249.970     66.8    276.4  111.9 
 249.990     66.8    276.4  110.1 
 250.010      1.0    279.0  108.4 
 250.030      1.0    279.0  108.4 
 250.050     66.8    279.0  110.1 
 250.070     66.8    279.0  110.1 
 250.090    132.7    279.0  110.1 
 250.110      1.0    279.0  110.1 
 250.130      1.0    281.6  108.4 
 250.150     33.9    281.6  108.4 
 250.170     33.9    281.6  110.1 
 250.190     66.8    281.6  108.4 
 250.210     66.8    281.6  108.4 
 250.230    132.7    284.2  108.4 
 250.250    132.7    284.2  108.4 
 250.270     99.7    284.2  108.4 
 250.290      1.0    284.2  108.4 
 250.310      1.0    284.2  106.6 
 250.330      1.0    284.2  106.6 
 250.350      1.0    284.2  108.4 
 250.370     99.7    284.2  106.6 
 250.390     99.7    284.2  106.6 
 250.410     66.8    284.2  108.4 
 250.430     66.8    284.2  108.4 
 250.450     33.9    286.8  106.6 
 250.470     33.9    286.8  106.6 
 250.490     33.9    284.2  106.6 
 250.510     33.9    284.2  106.6 
 250.530     33.9    286.8  108.4 
 250.550    132.7    284.2  106.6 
 250.570    132.7    284.2  106.6 
 250.590      1.0    286.8  106.6 
 250.610      1.0    286.8  106.6 
 250.630     33.9    284.2  106.6 
 250.650     66.8    284.2  106.6 
 250.670     66.8    286.8  108.4 
 250.690     33.9    284.2  106.6 
 250.710     33.9    284.2  106.6 
 250.730     33.9    284.2  106.6 
 250.750     33.9    284.2  106.6 
 250.770     33.9    286.8  106.6 
 250.790     33.9    286.8  106.6 
 250.810     33.9    284.2  106.6 
 250.830     33.9    284.2  106.6 
 250.850     33.9    284.2  106.6 
 250.870      1.0    286.8  106.6 
 250.890      1.0    286.8  106.6 
 250.910      1.0    284.2  106.6 
 250.930      1.0    284.2  106.6 
 250.950     66.8    284.2  106.6 
 250.970     66.8    284.2  106.6 
 250.990     33.9    284.2  106.6 
 251.010     66.8    284.2  106.6 
 251.030     66.8    284.2  106.6 
 251.050     33.9    284.2  106.6 
 251.070     33.9    284.2  106.6 
 251.090     99.7    284.2  106.6 
 251.110     99.7    284.2  106.6 
 251.130      1.0    284.2  104.8 
 251.150     33.9    284.2  104.8 
 251.170     33.9    284.2  106.6 
 251.190      1.0    281.6  106.6 
 251.210      1.0    281.6  106.6 
 251.230      1.0    284.2  106.6 
 251.250      1.0    284.2  106.6 
 251.270     66.8    279.0  108.4 
 251.290     66.8    279.0  108.4 
 251.310     66.8    281.6  108.4 
 251.330      1.0    281.6  108.4 
 251.350      1.0    279.0  108.4 
 251.370     66.8    281.6  110.1 
 251.390     66.8    281.6  110.1 
 251.410      1.0    279.0  110.1 
 251.430      1.0    279.0  110.1 
 251.450     66.8    281.6  111.9 
 251.470      1.0    281.6  111.9 
 251.490      1.0    279.0  113.7 
 251.510     33.9    279.0  113.7 
 251.530     33.9    279.0  113.7 
 251.550     33.9    276.4  117.2 
 251.570     33.9    276.4  117.2 
 251.590     33.9    276.4  117.2 
 251.610     33.9    276.4  117.2 
 251.630     33.9    273.8  119.0 
 251.650     33.9    273.8  119.0 
 251.670     33.9    271.2  119.0 
 251.690     33.9    271.2  119.0 
 251.710     33.9    271.2  120.8 
 251.730      1.0    271.2  122.5 
 251.750      1.0    271.2  122.5 
