~Version Information
 VERS.                2.0:  CWLS LOG ASCII STANDARD -VERSION 2.0
 WRAP.                 NO:  ONE LINE PER DEPTH STEP
~WELL INFORMATION BLOCK
#MNEM.UNIT       DATA		            DESCRIPTION OF MNEMONIC
#---------    -------------            ------------------------
 STRT.FT  9.050                          :START DEPTH
 STOP.FT  527.030                        :STOP DEPTH
 STEP.FT  0.020                          :STEP    UP_HOLE  
 NULL.    -999.25                        :NULL VALUE
 COMP.    CARLETON HL  F-18  - GAMMA     :COMPANY
 WELL.    279454                                                       :WELL
 FLD .    NORTHFIELD 71-B                :FIELD\LOCATION
 LOC .    31    112   19                 :LOCATION
 CNTY.    RICE                           :COUNTY
 STAT.    CACCDA                         :STATE
 CTRY.    USA                            :COUNTRY
 SRVC.    TRUCK                          :SERVICE COMPANY
 DATE.    08/31/2018                     :LOG DATE
 API .                                       :API NUMBER
 LIC .                                   :LICENSE NUMBER
~Curve Information Block
#MNEM.UNIT      API CODE     Curve Description
#---------    -------------  ------------------------
 DEPT     .FT        00 001 00 00          :  1  DEPTH   
 GAMMA    .API-GR    00 310 00 00          :  2  GAMMA RAY           
 RES      .OHM       00 000 00 00          :  3  SINGLE POINT RES    
 SP       .MV        00 010 00 00          :  4  SPON POTENTIAL      
~Parameter Information Block
#MNEM.UNIT   Information     Description
#---------- ---------------  ------------------------
 FILE.      PROCESSED          :File Type
 FIID.      9060A              :File Type Identifier
 VERS.      3.60Q              :System Version
 SER .      1                  :System Serial Number
 TRUK.      0.0                :Truck Calibration Number
 TOOL.         202             :Tool Serial Number
 TIME.      1019               :Time    HrHrMinMin
 LAT .                         :Latitude
 LON .                         :Longitude
 LMF .                         :Log Measured From
 DMF .                         :Driller Measured From
 PD  .                         :Permanent Data
 PDEV.FT                       :Elevation Permanent Data
 EKB .FT                       :Elevation Kelly Bushing
 ELEV.FT                       :Elevation DF
 EGL .FT     941.16            :Elevation Ground Level
 DRDP.FT    25                 :Driller's Depth
 CASD.FT    6                  :Casing Diameter
 CASB.FT    25                 :Casing Bottom
 CASX.                         :Casing Type
 CAST.IN    0                  :Casing Thickness
 TNOC.                         :Time Circulation Stopped
 LOGU.                         :Logging Unit
 RECB.      TIPPING            :Recorded By
 OSR1.                         :Other Services
 OSR2.                         :Other Services
 OSR3.                         :Other Services
 BS  .IN           6           :Bit Size
 MST .F                        :Mean Surface Temperature
 TGRD.F     0                  :Temperature Gradiant
 MAGN.      0                  :Magnetic Declination
 MDEN.      2.84               :Density Matrix
 MATR.      DOLOMITE           :Neutron Matrix
 DTMT.      44                 :Delta T Matrix
 DTFL.                         :Delta T Fluid
 MUDS.      0                  :Mud Sample Source
 MRS .      0                  :Mud Resistivity
 MTP .      0                  :Mud Temperature
 MFRS.                         :Resistivity Mud Filtrate
 MFTP.                         :Temperature Mud Filtrate
 MCRS.      0                  :Resistivity Mud Cake
 MCTP.                         :Temperature Mud Cake
 FTYP.      0                  :Fluid Type
 FD  .LB/G     0               :Mud Weight
 DFV .S                        :Fluid Viscosity
 FPH .                         :Fuild PH
 ELCO.      2500               :Electron Cutoff
 CASL.IN    4                  :Casing Logger
 LOTD.FT                       :Logger TD
 ARTM.                         :Arrival Time
 DPTM.                         :Departure Time
 RIGN.                         :Rig Number
~Other Information
#MNEM.UNIT  Information      Description
#---------- ---------------  ------------------------
# -------------------------- 
~A DEPTH  GAMMA    RES      SP    
# ...
 421.230     33.9    188.6  182.7 
 421.250      1.0    189.8  182.7 
 421.270      1.0    189.8  182.7 
 421.290     66.8    189.8  181.0 
 421.310     33.9    189.8  181.0 
 421.330     33.9    192.4  182.7 
 421.350     33.9    192.4  181.0 
 421.370     33.9    192.4  181.0 
 421.390     33.9    192.4  181.0 
 421.410     33.9    192.4  181.0 
 421.430     66.8    193.7  181.0 
 421.450     33.9    193.7  181.0 
 421.470     33.9    195.0  181.0 
 421.490     66.8    193.7  181.0 
 421.510     66.8    193.7  181.0 
 421.530     99.7    195.0  182.7 
 421.550     99.7    195.0  182.7 
 421.570    132.7    196.3  181.0 
 421.590     99.7    195.0  181.0 
 421.610     99.7    195.0  181.0 
 421.630     99.7    195.0  181.0 
 421.650     99.7    195.0  181.0 
 421.670     99.7    195.0  181.0 
 421.690     33.9    195.0  181.0 
 421.710     33.9    195.0  182.7 
 421.730     33.9    195.0  181.0 
 421.750     33.9    195.0  181.0 
 421.770     66.8    195.0  181.0 
 421.790     66.8    195.0  181.0 
 421.810      1.0    193.7  179.2 
 421.830     66.8    195.0  181.0 
 421.850     66.8    195.0  181.0 
 421.870      1.0    195.0  182.7 
 421.890      1.0    195.0  182.7 
 421.910     66.8    195.0  181.0 
 421.930     66.8    195.0  181.0 
 421.950     66.8    196.3  182.7 
 421.970      1.0    195.0  182.7 
 421.990      1.0    195.0  182.7 
 422.010      1.0    195.0  184.5 
 422.030     66.8    195.0  184.5 
 422.050     66.8    193.7  184.5 
 422.070      1.0    193.7  184.5 
 422.090      1.0    192.4  186.3 
 422.110      1.0    189.8  186.3 
 422.130      1.0    189.8  186.3 
 422.150      1.0    188.6  188.0 
 422.170    132.7    188.6  188.0 
 422.190    132.7    186.0  188.0 
 422.210     33.9    183.4  189.8 
 422.230     33.9    183.4  189.8 
 422.250     33.9    183.4  189.8 
 422.270     33.9    183.4  189.8 
 422.290     33.9    180.9  189.8 
 422.310     66.8    180.9  189.8 
 422.330     66.8    178.3  189.8 
 422.350     33.9    177.0  191.6 
 422.370     33.9    177.0  191.6 
 422.390      1.0    174.4  193.4 
 422.410     33.9    174.4  193.4 
 422.430     33.9    173.2  191.6 
 422.450    132.7    173.2  191.6 
 422.470    132.7    171.9  193.4 
 422.490     33.9    170.6  193.4 
 422.510     33.9    170.6  193.4 
 422.530     33.9    169.3  193.4 
 422.550     33.9    169.3  193.4 
 422.570     33.9    166.7  195.1 
 422.590      1.0    165.5  193.4 
 422.610      1.0    165.5  193.4 
 422.630     99.7    165.5  193.4 
 422.650     99.7    165.5  193.4 
 422.670     66.8    162.9  193.4 
 422.690     66.8    162.9  193.4 
 422.710     66.8    161.6  193.4 
 422.730     99.7    161.6  193.4 
 422.750     99.7    161.6  193.4 
 422.770     33.9    161.6  193.4 
 422.790     66.8    161.6  193.4 
 422.810     66.8    161.6  193.4 
 422.830     33.9    160.3  193.4 
 422.850     33.9    160.3  193.4 
 422.870     33.9    161.6  193.4 
 422.890     33.9    161.6  193.4 
 422.910      1.0    161.6  191.6 
 422.930     33.9    162.9  193.4 
 422.950     33.9    162.9  193.4 
 422.970     33.9    162.9  191.6 
 422.990     33.9    162.9  191.6 
 423.010     33.9    165.5  191.6 
 423.030      1.0    165.5  191.6 
 423.050      1.0    165.5  191.6 
 423.070     33.9    165.5  189.8 
 423.090     33.9    165.5  189.8 
 423.110      1.0    166.7  189.8 
 423.130     33.9    166.7  189.8 
 423.150     33.9    168.0  189.8 
 423.170      1.0    168.0  189.8 
 423.190      1.0    168.0  189.8 
 423.210    132.7    168.0  188.0 
 423.230    132.7    168.0  188.0 
 423.250      1.0    170.6  188.0 
 423.270      1.0    170.6  188.0 
 423.290      1.0    171.9  186.3 
 423.310     33.9    171.9  184.5 
 423.330     33.9    171.9  184.5 
 423.350     99.7    173.2  184.5 
 423.370     99.7    173.2  184.5 
 423.390     99.7    174.4  184.5 
 423.410      1.0    174.4  184.5 
 423.430      1.0    175.7  182.7 
 423.450    165.6    175.7  181.0 
 423.470    165.6    175.7  181.0 
 423.490      1.0    175.7  182.7 
 423.510     99.7    175.7  182.7 
 423.530     99.7    175.7  184.5 
 423.550    132.7    175.7  184.5 
 423.570    132.7    177.0  182.7 
 423.590      1.0    177.0  186.3 
 423.610      1.0    177.0  186.3 
 423.630      1.0    177.0  184.5 
 423.650      1.0    177.0  184.5 
 423.670      1.0    177.0  186.3 
 423.690     66.8    175.7  186.3 
 423.710     66.8    175.7  186.3 
 423.730     66.8    177.0  188.0 
 423.750     66.8    177.0  188.0 
 423.770      1.0    175.7  188.0 
 423.790     66.8    175.7  188.0 
 423.810     66.8    177.0  188.0 
 423.830     66.8    175.7  186.3 
 423.850     66.8    175.7  186.3 
 423.870     66.8    175.7  188.0 
 423.890     66.8    175.7  188.0 
 423.910     66.8    174.4  188.0 
 423.930      1.0    175.7  186.3 
 423.950      1.0    175.7  186.3 
 423.970    264.3    174.4  188.0 
 423.990    264.3    174.4  188.0 
 424.010     66.8    175.7  186.3 
 424.030     33.9    174.4  188.0 
 424.050     33.9    174.4  188.0 
 424.070      1.0    174.4  186.3 
 424.090      1.0    174.4  186.3 
 424.110      1.0    174.4  188.0 
 424.130     66.8    174.4  188.0 
 424.150     66.8    175.7  188.0 
 424.170    132.7    174.4  186.3 
 424.190    132.7    174.4  186.3 
 424.210     66.8    174.4  186.3 
 424.230     66.8    174.4  186.3 
 424.250     33.9    174.4  186.3 
 424.270     66.8    174.4  186.3 
 424.290     66.8    173.2  186.3 
 424.310     66.8    174.4  186.3 
 424.330     66.8    174.4  186.3 
 424.350    198.5    174.4  184.5 
 424.370    132.7    174.4  184.5 
 424.390    132.7    174.4  184.5 
 424.410      1.0    173.2  184.5 
 424.430      1.0    173.2  184.5 
 424.450     66.8    174.4  184.5 
 424.470     66.8    174.4  184.5 
 424.490     66.8    173.2  182.7 
 424.510     33.9    173.2  182.7 
 424.530     33.9    174.4  182.7 
 424.550    165.6    175.7  182.7 
 424.570    165.6    175.7  182.7 
 424.590     66.8    175.7  181.0 
 424.610     66.8    175.7  181.0 
 424.630     66.8    177.0  182.7 
 424.650     99.7    177.0  182.7 
 424.670     99.7    177.0  181.0 
 424.690    132.7    178.3  182.7 
 424.710    132.7    178.3  182.7 
 424.730     33.9    178.3  182.7 
 424.750     33.9    178.3  182.7 
 424.770     33.9    178.3  182.7 
 424.790     99.7    179.6  182.7 
 424.810     99.7    179.6  182.7 
 424.830     99.7    179.6  182.7 
 424.850     99.7    179.6  182.7 
 424.870     33.9    179.6  182.7 
 424.890     33.9    179.6  182.7 
 424.910     33.9    179.6  184.5 
 424.930     33.9    178.3  184.5 
 424.950     33.9    178.3  184.5 
 424.970     33.9    178.3  184.5 
 424.990      1.0    178.3  184.5 
 425.010      1.0    177.0  184.5 
 425.030     66.8    177.0  184.5 
 425.050     66.8    177.0  184.5 
 425.070     66.8    177.0  184.5 
 425.090     66.8    177.0  184.5 
 425.110     33.9    175.7  186.3 
 425.130    132.7    175.7  186.3 
 425.150    132.7    177.0  184.5 
 425.170    132.7    177.0  182.7 
 425.190    132.7    177.0  182.7 
 425.210      1.0    177.0  182.7 
 425.230     99.7    177.0  182.7 
 425.250     99.7    178.3  182.7 
 425.270     99.7    178.3  181.0 
 425.290     99.7    178.3  181.0 
 425.310    132.7    180.9  179.2 
 425.330    132.7    180.9  179.2 
 425.350     99.7    182.1  181.0 
 425.370     66.8    182.1  181.0 
 425.390     66.8    184.7  179.2 
 425.410     99.7    186.0  177.4 
 425.430     99.7    186.0  177.4 
 425.450      1.0    188.6  179.2 
 425.470     66.8    188.6  179.2 
 425.490     66.8    188.6  177.4 
 425.510     99.7    191.1  175.7 
 425.530     99.7    191.1  175.7 
 425.550     66.8    191.1  177.4 
 425.570     66.8    191.1  177.4 
 425.590     33.9    192.4  173.9 
 425.610     99.7    192.4  173.9 
 425.630     99.7    193.7  175.7 
 425.650     66.8    193.7  173.9 
 425.670     66.8    193.7  173.9 
 425.690     99.7    196.3  172.1 
 425.710    132.7    196.3  172.1 
 425.730    132.7    197.5  173.9 
 425.750     99.7    197.5  173.9 
 425.770     99.7    200.1  172.1 
 425.790      1.0    198.8  173.9 
