~Version Information
 VERS.                2.0:  CWLS LOG ASCII STANDARD -VERSION 2.0
 WRAP.                 NO:  ONE LINE PER DEPTH STEP
~WELL INFORMATION BLOCK
#MNEM.UNIT       DATA		            DESCRIPTION OF MNEMONIC
#---------    -------------            ------------------------
 STRT.FT  9.050                          :START DEPTH
 STOP.FT  527.030                        :STOP DEPTH
 STEP.FT  0.020                          :STEP    UP_HOLE  
 NULL.    -999.25                        :NULL VALUE
 COMP.    CARLETON HL  F-18  - GAMMA     :COMPANY
 WELL.    279454                                                       :WELL
 FLD .    NORTHFIELD 71-B                :FIELD\LOCATION
 LOC .    31    112   19                 :LOCATION
 CNTY.    RICE                           :COUNTY
 STAT.    CACCDA                         :STATE
 CTRY.    USA                            :COUNTRY
 SRVC.    TRUCK                          :SERVICE COMPANY
 DATE.    08/31/2018                     :LOG DATE
 API .                                       :API NUMBER
 LIC .                                   :LICENSE NUMBER
~Curve Information Block
#MNEM.UNIT      API CODE     Curve Description
#---------    -------------  ------------------------
 DEPT     .FT        00 001 00 00          :  1  DEPTH   
 GAMMA    .API-GR    00 310 00 00          :  2  GAMMA RAY           
 RES      .OHM       00 000 00 00          :  3  SINGLE POINT RES    
 SP       .MV        00 010 00 00          :  4  SPON POTENTIAL      
~Parameter Information Block
#MNEM.UNIT   Information     Description
#---------- ---------------  ------------------------
 FILE.      PROCESSED          :File Type
 FIID.      9060A              :File Type Identifier
 VERS.      3.60Q              :System Version
 SER .      1                  :System Serial Number
 TRUK.      0.0                :Truck Calibration Number
 TOOL.         202             :Tool Serial Number
 TIME.      1019               :Time    HrHrMinMin
 LAT .                         :Latitude
 LON .                         :Longitude
 LMF .                         :Log Measured From
 DMF .                         :Driller Measured From
 PD  .                         :Permanent Data
 PDEV.FT                       :Elevation Permanent Data
 EKB .FT                       :Elevation Kelly Bushing
 ELEV.FT                       :Elevation DF
 EGL .FT     941.16            :Elevation Ground Level
 DRDP.FT    25                 :Driller's Depth
 CASD.FT    6                  :Casing Diameter
 CASB.FT    25                 :Casing Bottom
 CASX.                         :Casing Type
 CAST.IN    0                  :Casing Thickness
 TNOC.                         :Time Circulation Stopped
 LOGU.                         :Logging Unit
 RECB.      TIPPING            :Recorded By
 OSR1.                         :Other Services
 OSR2.                         :Other Services
 OSR3.                         :Other Services
 BS  .IN           6           :Bit Size
 MST .F                        :Mean Surface Temperature
 TGRD.F     0                  :Temperature Gradiant
 MAGN.      0                  :Magnetic Declination
 MDEN.      2.84               :Density Matrix
 MATR.      DOLOMITE           :Neutron Matrix
 DTMT.      44                 :Delta T Matrix
 DTFL.                         :Delta T Fluid
 MUDS.      0                  :Mud Sample Source
 MRS .      0                  :Mud Resistivity
 MTP .      0                  :Mud Temperature
 MFRS.                         :Resistivity Mud Filtrate
 MFTP.                         :Temperature Mud Filtrate
 MCRS.      0                  :Resistivity Mud Cake
 MCTP.                         :Temperature Mud Cake
 FTYP.      0                  :Fluid Type
 FD  .LB/G     0               :Mud Weight
 DFV .S                        :Fluid Viscosity
 FPH .                         :Fuild PH
 ELCO.      2500               :Electron Cutoff
 CASL.IN    4                  :Casing Logger
 LOTD.FT                       :Logger TD
 ARTM.                         :Arrival Time
 DPTM.                         :Departure Time
 RIGN.                         :Rig Number
~Other Information
#MNEM.UNIT  Information      Description
#---------- ---------------  ------------------------
# -------------------------- 
~A DEPTH  GAMMA    RES      SP    
# ...
  41.090      1.0    246.3  138.5 
  41.110     33.9    246.3  138.5 
  41.130     33.9    245.0  136.7 
  41.150     33.9    245.0  136.7 
  41.170     33.9    246.3  138.5 
  41.190      1.0    246.3  138.5 
  41.210      1.0    245.0  138.5 
  41.230      1.0    245.0  138.5 
  41.250      1.0    245.0  138.5 
  41.270      1.0    245.0  138.5 
  41.290      1.0    245.0  136.7 
  41.310     33.9    245.0  136.7 
  41.330     33.9    245.0  138.5 
  41.350      1.0    245.0  138.5 
  41.370      1.0    245.0  138.5 
  41.390      1.0    245.0  138.5 
  41.410      1.0    245.0  136.7 
  41.430     99.7    245.0  136.7 
  41.450     99.7    245.0  136.7 
  41.470      1.0    245.0  136.7 
  41.490      1.0    245.0  138.5 
  41.510     33.9    245.0  138.5 
  41.530     33.9    245.0  136.7 
  41.550     66.8    245.0  136.7 
  41.570     66.8    246.3  136.7 
  41.590      1.0    246.3  136.7 
  41.610      1.0    245.0  136.7 
  41.630      1.0    245.0  136.7 
  41.650      1.0    246.3  134.9 
  41.670     66.8    246.3  134.9 
  41.690     66.8    247.6  136.7 
  41.710      1.0    247.6  136.7 
  41.730      1.0    246.3  134.9 
  41.750     33.9    246.3  134.9 
  41.770     33.9    247.6  134.9 
  41.790      1.0    247.6  134.9 
  41.810      1.0    248.9  133.2 
  41.830      1.0    248.9  133.2 
  41.850      1.0    247.6  134.9 
  41.870      1.0    247.6  134.9 
  41.890      1.0    248.9  133.2 
  41.910      1.0    248.9  133.2 
  41.930      1.0    250.3  131.4 
  41.950      1.0    250.3  131.4 
  41.970      1.0    250.3  133.2 
  41.990     33.9    250.3  133.2 
  42.010     33.9    252.9  131.4 
  42.030      1.0    252.9  131.4 
  42.050      1.0    252.9  131.4 
  42.070     33.9    252.9  131.4 
  42.090     33.9    252.9  131.4 
  42.110      1.0    252.9  131.4 
  42.130      1.0    255.5  129.6 
  42.150     33.9    255.5  129.6 
  42.170     33.9    258.1  131.4 
  42.190      1.0    258.1  131.4 
  42.210      1.0    258.1  129.6 
  42.230      1.0    258.1  129.6 
  42.250      1.0    258.1  129.6 
  42.270     66.8    258.1  129.6 
  42.290     66.8    258.1  129.6 
  42.310      1.0    258.1  129.6 
  42.330      1.0    260.7  129.6 
  42.350     33.9    260.7  129.6 
  42.370     33.9    260.7  129.6 
  42.390      1.0    260.7  129.6 
  42.410      1.0    258.1  129.6 
  42.430     66.8    258.1  129.6 
  42.450     66.8    260.7  127.8 
  42.470      1.0    260.7  127.8 
  42.490      1.0    260.7  129.6 
  42.510      1.0    260.7  129.6 
  42.530      1.0    258.1  131.4 
  42.550      1.0    258.1  131.4 
  42.570      1.0    258.1  129.6 
  42.590      1.0    258.1  129.6 
  42.610      1.0    258.1  129.6 
  42.630     33.9    258.1  129.6 
  42.650     33.9    260.7  129.6 
  42.670      1.0    260.7  129.6 
  42.690      1.0    258.1  131.4 
  42.710     33.9    258.1  131.4 
  42.730     33.9    255.5  129.6 
  42.750     33.9    255.5  129.6 
  42.770     33.9    255.5  131.4 
  42.790      1.0    255.5  131.4 
  42.810      1.0    255.5  131.4 
  42.830     33.9    255.5  131.4 
  42.850     33.9    250.3  129.6 
  42.870      1.0    250.3  129.6 
  42.890      1.0    250.3  131.4 
  42.910      1.0    250.3  131.4 
  42.930      1.0    248.9  131.4 
  42.950      1.0    248.9  131.4 
  42.970      1.0    248.9  133.2 
  42.990     66.8    248.9  133.2 
  43.010     66.8    248.9  131.4 
  43.030      1.0    248.9  131.4 
  43.050      1.0    250.3  133.2 
  43.070     33.9    250.3  133.2 
  43.090     33.9    247.6  131.4 
  43.110      1.0    247.6  131.4 
  43.130      1.0    247.6  133.2 
  43.150      1.0    247.6  133.2 
  43.170      1.0    247.6  134.9 
  43.190      1.0    247.6  134.9 
  43.210      1.0    246.3  133.2 
  43.230     33.9    246.3  133.2 
  43.250     33.9    247.6  133.2 
  43.270     33.9    247.6  133.2 
  43.290     33.9    246.3  134.9 
  43.310      1.0    246.3  134.9 
  43.330      1.0    245.0  134.9 
  43.350     33.9    245.0  134.9 
  43.370     33.9    243.7  133.2 
  43.390    132.7    243.7  133.2 
  43.410    132.7    241.2  134.9 
  43.430     33.9    241.2  134.9 
  43.450     33.9    242.5  134.9 
  43.470      1.0    242.5  134.9 
  43.490      1.0    239.9  134.9 
  43.510      1.0    239.9  134.9 
  43.530      1.0    241.2  134.9 
  43.550     66.8    241.2  134.9 
  43.570     66.8    239.9  136.7 
  43.590     33.9    239.9  136.7 
  43.610     33.9    239.9  134.9 
  43.630      1.0    239.9  134.9 
  43.650      1.0    239.9  136.7 
  43.670      1.0    239.9  136.7 
  43.690      1.0    238.6  134.9 
  43.710     33.9    238.6  134.9 
  43.730     33.9    238.6  136.7 
  43.750      1.0    238.6  136.7 
  43.770      1.0    238.6  136.7 
  43.790      1.0    238.6  136.7 
  43.810      1.0    238.6  136.7 
  43.830     33.9    238.6  136.7 
  43.850     33.9    237.3  136.7 
  43.870      1.0    237.3  136.7 
  43.890      1.0    237.3  136.7 
  43.910      1.0    237.3  136.7 
  43.930      1.0    237.3  138.5 
  43.950      1.0    237.3  138.5 
  43.970      1.0    237.3  136.7 
  43.990     33.9    237.3  136.7 
  44.010     33.9    236.0  136.7 
  44.030      1.0    236.0  136.7 
  44.050      1.0    236.0  136.7 
  44.070      1.0    236.0  136.7 
  44.090      1.0    236.0  138.5 
  44.110     33.9    236.0  138.5 
  44.130     33.9    236.0  136.7 
  44.150      1.0    236.0  136.7 
  44.170      1.0    236.0  136.7 
  44.190     33.9    236.0  136.7 
  44.210     33.9    234.8  136.7 
  44.230      1.0    234.8  136.7 
  44.250      1.0    236.0  136.7 
  44.270      1.0    236.0  136.7 
  44.290      1.0    237.3  136.7 
  44.310     33.9    237.3  136.7 
  44.330     33.9    236.0  136.7 
  44.350      1.0    236.0  136.7 
  44.370      1.0    236.0  134.9 
  44.390      1.0    236.0  134.9 
  44.410      1.0    237.3  136.7 
  44.430     66.8    237.3  136.7 
  44.450     66.8    237.3  134.9 
  44.470      1.0    237.3  134.9 
  44.490      1.0    237.3  133.2 
  44.510     33.9    237.3  133.2 
  44.530     33.9    237.3  134.9 
  44.550     33.9    237.3  134.9 
  44.570     33.9    238.6  133.2 
  44.590      1.0    238.6  133.2 
  44.610      1.0    238.6  133.2 
  44.630      1.0    238.6  133.2 
  44.650      1.0    238.6  133.2 
  44.670      1.0    238.6  133.2 
  44.690      1.0    241.2  133.2 
  44.710     33.9    241.2  133.2 
  44.730     33.9    241.2  133.2 
  44.750     33.9    241.2  133.2 
  44.770     33.9    242.5  131.4 
  44.790      1.0    242.5  131.4 
  44.810      1.0    243.7  133.2 
  44.830     33.9    243.7  133.2 
  44.850     33.9    243.7  133.2 
  44.870     33.9    243.7  133.2 
  44.890     33.9    246.3  134.9 
  44.910     33.9    246.3  134.9 
  44.930     33.9    242.5  133.2 
  44.950      1.0    242.5  133.2 
  44.970      1.0    241.2  134.9 
  44.990      1.0    241.2  134.9 
  45.010      1.0    248.9  136.7 
  45.030     33.9    248.9  136.7 
  45.050     33.9    239.9  134.9 
  45.070     33.9    239.9  134.9 
  45.090     33.9    241.2  136.7 
  45.110      1.0    241.2  136.7 
  45.130      1.0    238.6  136.7 
  45.150      1.0    238.6  136.7 
  45.170      1.0    237.3  136.7 
  45.190     33.9    237.3  136.7 
  45.210     33.9    238.6  136.7 
  45.230      1.0    238.6  136.7 
  45.250      1.0    237.3  138.5 
  45.270      1.0    237.3  138.5 
  45.290      1.0    236.0  136.7 
  45.310      1.0    236.0  136.7 
  45.330      1.0    234.8  138.5 
  45.350      1.0    234.8  138.5 
  45.370      1.0    236.0  136.7 
  45.390      1.0    236.0  136.7 
  45.410      1.0    236.0  136.7 
  45.430     66.8    236.0  136.7 
  45.450     66.8    236.0  136.7 
  45.470     33.9    236.0  136.7 
  45.490     33.9    236.0  138.5 
  45.510     33.9    236.0  138.5 
  45.530     33.9    236.0  136.7 
  45.550      1.0    236.0  136.7 
  45.570      1.0    236.0  136.7 
  45.590     33.9    236.0  136.7 
  45.610     33.9    236.0  136.7 
  45.630      1.0    236.0  136.7 
  45.650      1.0    236.0  134.9 
