~Version Information
 VERS.                2.0:  CWLS LOG ASCII STANDARD -VERSION 2.0
 WRAP.                 NO:  ONE LINE PER DEPTH STEP
~WELL INFORMATION BLOCK
#MNEM.UNIT       DATA		            DESCRIPTION OF MNEMONIC
#---------    -------------            ------------------------
 STRT.FT  9.050                          :START DEPTH
 STOP.FT  527.030                        :STOP DEPTH
 STEP.FT  0.020                          :STEP    UP_HOLE  
 NULL.    -999.25                        :NULL VALUE
 COMP.    CARLETON HL  F-18  - GAMMA     :COMPANY
 WELL.    279454                                                       :WELL
 FLD .    NORTHFIELD 71-B                :FIELD\LOCATION
 LOC .    31    112   19                 :LOCATION
 CNTY.    RICE                           :COUNTY
 STAT.    CACCDA                         :STATE
 CTRY.    USA                            :COUNTRY
 SRVC.    TRUCK                          :SERVICE COMPANY
 DATE.    08/31/2018                     :LOG DATE
 API .                                       :API NUMBER
 LIC .                                   :LICENSE NUMBER
~Curve Information Block
#MNEM.UNIT      API CODE     Curve Description
#---------    -------------  ------------------------
 DEPT     .FT        00 001 00 00          :  1  DEPTH   
 GAMMA    .API-GR    00 310 00 00          :  2  GAMMA RAY           
 RES      .OHM       00 000 00 00          :  3  SINGLE POINT RES    
 SP       .MV        00 010 00 00          :  4  SPON POTENTIAL      
~Parameter Information Block
#MNEM.UNIT   Information     Description
#---------- ---------------  ------------------------
 FILE.      PROCESSED          :File Type
 FIID.      9060A              :File Type Identifier
 VERS.      3.60Q              :System Version
 SER .      1                  :System Serial Number
 TRUK.      0.0                :Truck Calibration Number
 TOOL.         202             :Tool Serial Number
 TIME.      1019               :Time    HrHrMinMin
 LAT .                         :Latitude
 LON .                         :Longitude
 LMF .                         :Log Measured From
 DMF .                         :Driller Measured From
 PD  .                         :Permanent Data
 PDEV.FT                       :Elevation Permanent Data
 EKB .FT                       :Elevation Kelly Bushing
 ELEV.FT                       :Elevation DF
 EGL .FT     941.16            :Elevation Ground Level
 DRDP.FT    25                 :Driller's Depth
 CASD.FT    6                  :Casing Diameter
 CASB.FT    25                 :Casing Bottom
 CASX.                         :Casing Type
 CAST.IN    0                  :Casing Thickness
 TNOC.                         :Time Circulation Stopped
 LOGU.                         :Logging Unit
 RECB.      TIPPING            :Recorded By
 OSR1.                         :Other Services
 OSR2.                         :Other Services
 OSR3.                         :Other Services
 BS  .IN           6           :Bit Size
 MST .F                        :Mean Surface Temperature
 TGRD.F     0                  :Temperature Gradiant
 MAGN.      0                  :Magnetic Declination
 MDEN.      2.84               :Density Matrix
 MATR.      DOLOMITE           :Neutron Matrix
 DTMT.      44                 :Delta T Matrix
 DTFL.                         :Delta T Fluid
 MUDS.      0                  :Mud Sample Source
 MRS .      0                  :Mud Resistivity
 MTP .      0                  :Mud Temperature
 MFRS.                         :Resistivity Mud Filtrate
 MFTP.                         :Temperature Mud Filtrate
 MCRS.      0                  :Resistivity Mud Cake
 MCTP.                         :Temperature Mud Cake
 FTYP.      0                  :Fluid Type
 FD  .LB/G     0               :Mud Weight
 DFV .S                        :Fluid Viscosity
 FPH .                         :Fuild PH
 ELCO.      2500               :Electron Cutoff
 CASL.IN    4                  :Casing Logger
 LOTD.FT                       :Logger TD
 ARTM.                         :Arrival Time
 DPTM.                         :Departure Time
 RIGN.                         :Rig Number
~Other Information
#MNEM.UNIT  Information      Description
#---------- ---------------  ------------------------
# -------------------------- 
~A DEPTH  GAMMA    RES      SP    
# ...
 384.590     66.8    162.9  181.0 
 384.610     66.8    162.9  181.0 
 384.630     66.8    162.9  182.7 
 384.650     33.9    162.9  182.7 
 384.670     33.9    164.2  181.0 
 384.690     99.7    166.7  181.0 
 384.710     99.7    166.7  181.0 
 384.730    132.7    166.7  182.7 
 384.750    132.7    166.7  182.7 
 384.770     33.9    169.3  181.0 
 384.790     66.8    169.3  181.0 
 384.810     66.8    170.6  179.2 
 384.830     33.9    170.6  179.2 
 384.850     33.9    171.9  181.0 
 384.870     66.8    173.2  179.2 
 384.890     66.8    173.2  179.2 
 384.910     66.8    173.2  177.4 
 384.930     66.8    173.2  177.4 
 384.950     66.8    175.7  179.2 
 384.970     33.9    175.7  179.2 
 384.990     33.9    177.0  177.4 
 385.010      1.0    177.0  177.4 
 385.030      1.0    177.0  177.4 
 385.050      1.0    178.3  177.4 
 385.070      1.0    178.3  177.4 
 385.090     33.9    179.6  177.4 
 385.110      1.0    179.6  177.4 
 385.130      1.0    180.9  175.7 
 385.150     33.9    180.9  175.7 
 385.170     33.9    182.1  177.4 
 385.190     99.7    182.1  175.7 
 385.210     99.7    182.1  175.7 
 385.230     66.8    184.7  175.7 
 385.250      1.0    184.7  175.7 
 385.270      1.0    183.4  175.7 
 385.290    132.7    183.4  175.7 
 385.310    132.7    186.0  173.9 
 385.330     66.8    186.0  173.9 
 385.350     66.8    186.0  173.9 
 385.370     33.9    188.6  173.9 
 385.390     33.9    188.6  173.9 
 385.410    132.7    189.8  173.9 
 385.430     33.9    189.8  173.9 
 385.450     33.9    192.4  173.9 
 385.470     33.9    192.4  173.9 
 385.490     33.9    192.4  173.9 
 385.510     66.8    195.0  173.9 
 385.530     66.8    195.0  173.9 
 385.550     33.9    195.0  173.9 
 385.570     33.9    195.0  173.9 
 385.590     66.8    195.0  175.7 
 385.610    132.7    195.0  175.7 
 385.630    132.7    195.0  175.7 
 385.650     66.8    195.0  175.7 
 385.670     66.8    196.3  175.7 
 385.690     66.8    195.0  173.9 
 385.710     66.8    195.0  173.9 
 385.730     99.7    195.0  175.7 
 385.750      1.0    195.0  175.7 
 385.770      1.0    195.0  175.7 
 385.790      1.0    195.0  175.7 
 385.810      1.0    195.0  175.7 
 385.830     66.8    195.0  173.9 
 385.850     66.8    195.0  173.9 
 385.870      1.0    195.0  175.7 
 385.890      1.0    195.0  175.7 
 385.910     33.9    195.0  175.7 
 385.930    165.6    195.0  175.7 
 385.950    165.6    193.7  175.7 
 385.970     66.8    193.7  175.7 
 385.990     66.8    195.0  175.7 
 386.010    132.7    195.0  173.9 
 386.030    132.7    195.0  173.9 
 386.050     33.9    195.0  175.7 
 386.070     99.7    195.0  175.7 
 386.090     99.7    195.0  175.7 
 386.110     33.9    195.0  175.7 
 386.130     33.9    196.3  173.9 
 386.150     66.8    196.3  175.7 
 386.170     66.8    196.3  175.7 
 386.190     66.8    197.5  173.9 
 386.210     66.8    197.5  173.9 
 386.230    132.7    197.5  175.7 
 386.250     66.8    197.5  175.7 
 386.270     66.8    197.5  175.7 
 386.290     99.7    197.5  175.7 
 386.310     99.7    197.5  175.7 
 386.330     33.9    197.5  175.7 
 386.350     33.9    197.5  175.7 
 386.370     33.9    197.5  173.9 
 386.390     33.9    197.5  173.9 
 386.410     33.9    196.3  175.7 
 386.430     99.7    196.3  175.7 
 386.450     99.7    197.5  173.9 
 386.470      1.0    197.5  173.9 
 386.490      1.0    198.8  175.7 
 386.510     99.7    198.8  175.7 
 386.530     99.7    198.8  175.7 
 386.550     99.7    198.8  175.7 
 386.570      1.0    198.8  175.7 
 386.590      1.0    200.1  173.9 
 386.610     66.8    200.1  173.9 
 386.630     66.8    198.8  175.7 
 386.650      1.0    200.1  175.7 
 386.670      1.0    200.1  175.7 
 386.690     33.9    201.4  175.7 
 386.710     33.9    201.4  175.7 
 386.730     99.7    201.4  175.7 
 386.750     33.9    201.4  175.7 
 386.770     33.9    202.7  175.7 
 386.790     66.8    202.7  175.7 
 386.810     66.8    204.0  175.7 
 386.830    132.7    201.4  173.9 
 386.850    132.7    201.4  173.9 
 386.870     33.9    204.0  175.7 
 386.890     33.9    204.0  175.7 
 386.910     99.7    204.0  173.9 
 386.930     33.9    204.0  173.9 
 386.950     33.9    205.2  175.7 
 386.970     99.7    205.2  173.9 
 386.990     99.7    205.2  173.9 
 387.010     33.9    205.2  173.9 
 387.030     33.9    205.2  173.9 
 387.050    165.6    205.2  173.9 
 387.070     33.9    205.2  173.9 
 387.090     33.9    205.2  173.9 
 387.110     99.7    205.2  173.9 
 387.130     99.7    206.5  173.9 
 387.150     33.9    205.2  175.7 
 387.170     33.9    205.2  175.7 
 387.190     66.8    206.5  173.9 
 387.210     66.8    206.5  173.9 
 387.230     66.8    205.2  173.9 
 387.250     33.9    205.2  173.9 
 387.270     33.9    206.5  173.9 
 387.290     99.7    205.2  173.9 
 387.310     99.7    205.2  173.9 
 387.330    132.7    205.2  175.7 
 387.350    132.7    205.2  175.7 
 387.370     33.9    206.5  173.9 
 387.390     33.9    206.5  173.9 
 387.410     33.9    206.5  173.9 
 387.430     33.9    206.5  173.9 
 387.450     33.9    205.2  173.9 
 387.470      1.0    205.2  173.9 
 387.490      1.0    205.2  173.9 
 387.510      1.0    206.5  173.9 
 387.530     33.9    206.5  173.9 
 387.550     33.9    205.2  172.1 
 387.570     66.8    205.2  172.1 
 387.590     66.8    206.5  172.1 
 387.610     33.9    206.5  172.1 
 387.630     33.9    205.2  172.1 
 387.650     99.7    206.5  172.1 
 387.670     99.7    206.5  172.1 
 387.690     66.8    206.5  172.1 
 387.710      1.0    206.5  172.1 
 387.730      1.0    207.8  172.1 
 387.750     99.7    207.8  172.1 
 387.770     99.7    206.5  170.3 
 387.790     33.9    206.5  170.3 
 387.810     33.9    207.8  172.1 
 387.830     99.7    206.5  170.3 
 387.850     99.7    206.5  170.3 
 387.870     99.7    209.1  170.3 
 387.890     33.9    209.1  170.3 
 387.910     33.9    207.8  170.3 
 387.930      1.0    207.8  170.3 
 387.950      1.0    209.1  170.3 
 387.970     33.9    209.1  170.3 
 387.990     33.9    209.1  170.3 
 388.010     66.8    209.1  170.3 
 388.030     99.7    209.1  170.3 
 388.050     99.7    209.1  170.3 
 388.070      1.0    209.1  170.3 
 388.090      1.0    207.8  170.3 
 388.110     66.8    210.4  170.3 
 388.130     66.8    210.4  170.3 
 388.150     66.8    209.1  168.6 
 388.170     66.8    209.1  168.6 
 388.190     33.9    210.4  170.3 
 388.210     66.8    210.4  170.3 
 388.230     66.8    210.4  168.6 
 388.250     99.7    210.4  168.6 
 388.270     99.7    210.4  170.3 
 388.290     33.9    210.4  168.6 
 388.310     33.9    210.4  168.6 
 388.330     99.7    211.7  168.6 
 388.350     99.7    211.7  168.6 
 388.370     99.7    212.9  168.6 
 388.390    132.7    212.9  168.6 
 388.410    132.7    211.7  168.6 
 388.430     33.9    212.9  166.8 
 388.450     33.9    212.9  166.8 
 388.470    165.6    212.9  168.6 
 388.490     66.8    212.9  168.6 
 388.510     66.8    214.2  168.6 
 388.530     66.8    214.2  168.6 
 388.550     66.8    214.2  166.8 
 388.570     33.9    214.2  166.8 
 388.590     33.9    215.5  168.6 
 388.610     66.8    215.5  166.8 
 388.630     66.8    215.5  166.8 
 388.650     66.8    216.8  168.6 
 388.670     66.8    216.8  168.6 
 388.690     66.8    216.8  166.8 
 388.710     33.9    216.8  166.8 
 388.730     33.9    216.8  166.8 
 388.750    132.7    216.8  166.8 
 388.770    132.7    216.8  168.6 
 388.790     33.9    216.8  166.8 
 388.810     33.9    216.8  166.8 
 388.830      1.0    216.8  166.8 
 388.850     66.8    216.8  166.8 
 388.870     66.8    216.8  166.8 
 388.890     66.8    216.8  166.8 
 388.910     66.8    216.8  168.6 
 388.930     33.9    215.5  168.6 
 388.950     33.9    215.5  168.6 
 388.970     99.7    215.5  168.6 
 388.990     99.7    215.5  168.6 
 389.010     66.8    214.2  168.6 
 389.030     99.7    214.2  168.6 
 389.050     99.7    214.2  168.6 
 389.070     66.8    214.2  168.6 
 389.090     66.8    214.2  170.3 
 389.110    132.7    214.2  170.3 
 389.130    132.7    214.2  170.3 
 389.150     66.8    212.9  172.1 
