~Version Information
 VERS.                2.0:  CWLS LOG ASCII STANDARD -VERSION 2.0
 WRAP.                 NO:  ONE LINE PER DEPTH STEP
~WELL INFORMATION BLOCK
#MNEM.UNIT       DATA		            DESCRIPTION OF MNEMONIC
#---------    -------------            ------------------------
 STRT.FT  9.050                          :START DEPTH
 STOP.FT  527.030                        :STOP DEPTH
 STEP.FT  0.020                          :STEP    UP_HOLE  
 NULL.    -999.25                        :NULL VALUE
 COMP.    CARLETON HL  F-18  - GAMMA     :COMPANY
 WELL.    279454                                                       :WELL
 FLD .    NORTHFIELD 71-B                :FIELD\LOCATION
 LOC .    31    112   19                 :LOCATION
 CNTY.    RICE                           :COUNTY
 STAT.    CACCDA                         :STATE
 CTRY.    USA                            :COUNTRY
 SRVC.    TRUCK                          :SERVICE COMPANY
 DATE.    08/31/2018                     :LOG DATE
 API .                                       :API NUMBER
 LIC .                                   :LICENSE NUMBER
~Curve Information Block
#MNEM.UNIT      API CODE     Curve Description
#---------    -------------  ------------------------
 DEPT     .FT        00 001 00 00          :  1  DEPTH   
 GAMMA    .API-GR    00 310 00 00          :  2  GAMMA RAY           
 RES      .OHM       00 000 00 00          :  3  SINGLE POINT RES    
 SP       .MV        00 010 00 00          :  4  SPON POTENTIAL      
~Parameter Information Block
#MNEM.UNIT   Information     Description
#---------- ---------------  ------------------------
 FILE.      PROCESSED          :File Type
 FIID.      9060A              :File Type Identifier
 VERS.      3.60Q              :System Version
 SER .      1                  :System Serial Number
 TRUK.      0.0                :Truck Calibration Number
 TOOL.         202             :Tool Serial Number
 TIME.      1019               :Time    HrHrMinMin
 LAT .                         :Latitude
 LON .                         :Longitude
 LMF .                         :Log Measured From
 DMF .                         :Driller Measured From
 PD  .                         :Permanent Data
 PDEV.FT                       :Elevation Permanent Data
 EKB .FT                       :Elevation Kelly Bushing
 ELEV.FT                       :Elevation DF
 EGL .FT     941.16            :Elevation Ground Level
 DRDP.FT    25                 :Driller's Depth
 CASD.FT    6                  :Casing Diameter
 CASB.FT    25                 :Casing Bottom
 CASX.                         :Casing Type
 CAST.IN    0                  :Casing Thickness
 TNOC.                         :Time Circulation Stopped
 LOGU.                         :Logging Unit
 RECB.      TIPPING            :Recorded By
 OSR1.                         :Other Services
 OSR2.                         :Other Services
 OSR3.                         :Other Services
 BS  .IN           6           :Bit Size
 MST .F                        :Mean Surface Temperature
 TGRD.F     0                  :Temperature Gradiant
 MAGN.      0                  :Magnetic Declination
 MDEN.      2.84               :Density Matrix
 MATR.      DOLOMITE           :Neutron Matrix
 DTMT.      44                 :Delta T Matrix
 DTFL.                         :Delta T Fluid
 MUDS.      0                  :Mud Sample Source
 MRS .      0                  :Mud Resistivity
 MTP .      0                  :Mud Temperature
 MFRS.                         :Resistivity Mud Filtrate
 MFTP.                         :Temperature Mud Filtrate
 MCRS.      0                  :Resistivity Mud Cake
 MCTP.                         :Temperature Mud Cake
 FTYP.      0                  :Fluid Type
 FD  .LB/G     0               :Mud Weight
 DFV .S                        :Fluid Viscosity
 FPH .                         :Fuild PH
 ELCO.      2500               :Electron Cutoff
 CASL.IN    4                  :Casing Logger
 LOTD.FT                       :Logger TD
 ARTM.                         :Arrival Time
 DPTM.                         :Departure Time
 RIGN.                         :Rig Number
~Other Information
#MNEM.UNIT  Information      Description
#---------- ---------------  ------------------------
# -------------------------- 
~A DEPTH  GAMMA    RES      SP    
# ...
 352.530     66.8    150.1  170.3 
 352.550     66.8    150.1  168.6 
 352.570     99.7    150.1  168.6 
 352.590     99.7    151.3  170.3 
 352.610     66.8    151.3  168.6 
 352.630     66.8    151.3  168.6 
 352.650     33.9    151.3  168.6 
 352.670     33.9    151.3  168.6 
 352.690    132.7    152.6  170.3 
 352.710     33.9    152.6  170.3 
 352.730     33.9    153.9  168.6 
 352.750     33.9    153.9  168.6 
 352.770     33.9    153.9  168.6 
 352.790     33.9    153.9  170.3 
 352.810     33.9    153.9  170.3 
 352.830     66.8    155.2  168.6 
 352.850     66.8    155.2  168.6 
 352.870    132.7    155.2  170.3 
 352.890     66.8    155.2  170.3 
 352.910     66.8    156.5  170.3 
 352.930      1.0    156.5  170.3 
 352.950      1.0    156.5  168.6 
 352.970    132.7    156.5  168.6 
 352.990    132.7    156.5  168.6 
 353.010      1.0    157.8  168.6 
 353.030     33.9    157.8  168.6 
 353.050     33.9    157.8  168.6 
 353.070     33.9    157.8  168.6 
 353.090     33.9    157.8  166.8 
 353.110      1.0    159.0  168.6 
 353.130      1.0    159.0  168.6 
 353.150     33.9    159.0  165.0 
 353.170     33.9    159.0  165.0 
 353.190     66.8    159.0  166.8 
 353.210     66.8    159.0  166.8 
 353.230     66.8    160.3  165.0 
 353.250     66.8    160.3  165.0 
 353.270     66.8    160.3  165.0 
 353.290    132.7    160.3  165.0 
 353.310    132.7    160.3  165.0 
 353.330     66.8    161.6  163.3 
 353.350     66.8    161.6  163.3 
 353.370     33.9    161.6  165.0 
 353.390     99.7    161.6  165.0 
 353.410     99.7    162.9  163.3 
 353.430     33.9    162.9  163.3 
 353.450     33.9    162.9  163.3 
 353.470     33.9    162.9  163.3 
 353.490     33.9    162.9  163.3 
 353.510     99.7    164.2  161.5 
 353.530     99.7    164.2  161.5 
 353.550     33.9    164.2  163.3 
 353.570    165.6    164.2  163.3 
 353.590    165.6    164.2  161.5 
 353.610     66.8    165.5  161.5 
 353.630     66.8    165.5  161.5 
 353.650     99.7    165.5  161.5 
 353.670     99.7    165.5  161.5 
 353.690     99.7    165.5  161.5 
 353.710     99.7    165.5  161.5 
 353.730     99.7    165.5  161.5 
 353.750     99.7    165.5  161.5 
 353.770     99.7    166.7  159.7 
 353.790      1.0    166.7  161.5 
 353.810      1.0    166.7  161.5 
 353.830    132.7    166.7  159.7 
 353.850    132.7    166.7  159.7 
 353.870      1.0    166.7  159.7 
 353.890     66.8    166.7  159.7 
 353.910     66.8    168.0  161.5 
 353.930     33.9    168.0  159.7 
 353.950     33.9    168.0  159.7 
 353.970      1.0    168.0  159.7 
 353.990      1.0    168.0  159.7 
 354.010     33.9    169.3  159.7 
 354.030      1.0    169.3  159.7 
 354.050      1.0    168.0  159.7 
 354.070     66.8    168.0  159.7 
 354.090     66.8    169.3  159.7 
 354.110     33.9    170.6  157.9 
 354.130     33.9    170.6  157.9 
 354.150      1.0    169.3  159.7 
 354.170      1.0    169.3  159.7 
 354.190      1.0    169.3  157.9 
 354.210    132.7    169.3  157.9 
 354.230    132.7    170.6  157.9 
 354.250      1.0    170.6  157.9 
 354.270      1.0    170.6  157.9 
 354.290     66.8    169.3  156.2 
 354.310     66.8    169.3  156.2 
 354.330      1.0    170.6  157.9 
 354.350      1.0    170.6  157.9 
 354.370      1.0    170.6  156.2 
 354.390     66.8    170.6  156.2 
 354.410     66.8    171.9  154.4 
 354.430    132.7    171.9  154.4 
 354.450    132.7    170.6  156.2 
 354.470     33.9    171.9  154.4 
 354.490     33.9    171.9  154.4 
 354.510    132.7    171.9  154.4 
 354.530      1.0    171.9  154.4 
 354.550      1.0    173.2  154.4 
 354.570     99.7    173.2  154.4 
 354.590     99.7    171.9  152.6 
 354.610      1.0    173.2  152.6 
 354.630      1.0    173.2  152.6 
 354.650     99.7    173.2  154.4 
 354.670     99.7    173.2  154.4 
 354.690      1.0    173.2  152.6 
 354.710      1.0    173.2  152.6 
 354.730      1.0    174.4  152.6 
 354.750    165.6    174.4  152.6 
 354.770    165.6    174.4  152.6 
 354.790     66.8    175.7  152.6 
 354.810     66.8    175.7  152.6 
 354.830     99.7    175.7  154.4 
 354.850     99.7    175.7  154.4 
 354.870     66.8    175.7  152.6 
 354.890     99.7    175.7  152.6 
 354.910     99.7    175.7  152.6 
 354.930     66.8    175.7  152.6 
 354.950     66.8    175.7  152.6 
 354.970    132.7    177.0  152.6 
 354.990    132.7    177.0  152.6 
 355.010     66.8    177.0  150.9 
 355.030     66.8    177.0  150.9 
 355.050     66.8    178.3  152.6 
 355.070     66.8    178.3  152.6 
 355.090     66.8    177.0  150.9 
 355.110     33.9    178.3  150.9 
 355.130     33.9    178.3  150.9 
 355.150    132.7    178.3  150.9 
 355.170    132.7    178.3  150.9 
 355.190     99.7    178.3  150.9 
 355.210      1.0    178.3  150.9 
 355.230      1.0    178.3  150.9 
 355.250      1.0    179.6  149.1 
 355.270      1.0    179.6  149.1 
 355.290      1.0    179.6  150.9 
 355.310      1.0    179.6  150.9 
 355.330     33.9    179.6  149.1 
 355.350      1.0    179.6  149.1 
 355.370      1.0    180.9  150.9 
 355.390     99.7    180.9  150.9 
 355.410     99.7    179.6  149.1 
 355.430      1.0    180.9  147.3 
 355.450      1.0    180.9  147.3 
 355.470     99.7    180.9  149.1 
 355.490     99.7    180.9  149.1 
 355.510     99.7    180.9  149.1 
 355.530     33.9    180.9  149.1 
 355.550     33.9    179.6  149.1 
 355.570     66.8    179.6  149.1 
 355.590     66.8    180.9  147.3 
 355.610     33.9    180.9  149.1 
 355.630     33.9    180.9  149.1 
 355.650     33.9    179.6  147.3 
 355.670     66.8    179.6  147.3 
 355.690     66.8    180.9  147.3 
 355.710     33.9    180.9  147.3 
 355.730     33.9    179.6  147.3 
 355.750     33.9    179.6  147.3 
 355.770     33.9    180.9  145.6 
 355.790     33.9    179.6  147.3 
 355.810     33.9    179.6  147.3 
 355.830      1.0    179.6  147.3 
 355.850     33.9    179.6  147.3 
 355.870     33.9    179.6  145.6 
 355.890     33.9    179.6  145.6 
 355.910     33.9    179.6  147.3 
 355.930     33.9    179.6  145.6 
 355.950     33.9    179.6  145.6 
 355.970     66.8    178.3  147.3 
 355.990     66.8    178.3  147.3 
 356.010     66.8    178.3  145.6 
 356.030     66.8    178.3  145.6 
 356.050     66.8    179.6  145.6 
 356.070     33.9    179.6  145.6 
 356.090     33.9    178.3  145.6 
 356.110      1.0    179.6  145.6 
 356.130      1.0    179.6  145.6 
 356.150      1.0    178.3  145.6 
 356.170      1.0    178.3  145.6 
 356.190     33.9    180.9  145.6 
 356.210     66.8    180.9  145.6 
 356.230     66.8    179.6  145.6 
 356.250     33.9    180.9  143.8 
 356.270     33.9    180.9  143.8 
 356.290     33.9    182.1  143.8 
 356.310     33.9    182.1  143.8 
 356.330     66.8    182.1  143.8 
 356.350     33.9    182.1  143.8 
 356.370     33.9    183.4  142.0 
 356.390    132.7    184.7  142.0 
 356.410    132.7    184.7  142.0 
 356.430     66.8    186.0  142.0 
 356.450     66.8    186.0  142.0 
 356.470    132.7    186.0  140.2 
 356.490    132.7    186.0  140.2 
 356.510     33.9    187.3  140.2 
 356.530    132.7    187.3  140.2 
 356.550    132.7    189.8  138.5 
 356.570     66.8    189.8  138.5 
 356.590     66.8    189.8  138.5 
 356.610     33.9    191.1  138.5 
 356.630     33.9    191.1  138.5 
 356.650     33.9    192.4  138.5 
 356.670     33.9    192.4  138.5 
 356.690     33.9    195.0  136.7 
 356.710     33.9    195.0  136.7 
 356.730     33.9    195.0  136.7 
 356.750     99.7    196.3  136.7 
 356.770     99.7    196.3  136.7 
 356.790     33.9    197.5  136.7 
 356.810     33.9    197.5  136.7 
 356.830     33.9    200.1  136.7 
 356.850     33.9    200.1  136.7 
 356.870     33.9    198.8  136.7 
 356.890     33.9    198.8  136.7 
 356.910     33.9    201.4  134.9 
 356.930     33.9    202.7  136.7 
 356.950     33.9    202.7  136.7 
 356.970     99.7    202.7  134.9 
 356.990     99.7    202.7  134.9 
 357.010    132.7    204.0  136.7 
 357.030     33.9    204.0  136.7 
 357.050     33.9    204.0  134.9 
 357.070     33.9    204.0  134.9 
 357.090     33.9    204.0  134.9 
