~Version Information
 VERS.                2.0:  CWLS LOG ASCII STANDARD -VERSION 2.0
 WRAP.                 NO:  ONE LINE PER DEPTH STEP
~WELL INFORMATION BLOCK
#MNEM.UNIT       DATA		            DESCRIPTION OF MNEMONIC
#---------    -------------            ------------------------
 STRT.FT  9.050                          :START DEPTH
 STOP.FT  527.030                        :STOP DEPTH
 STEP.FT  0.020                          :STEP    UP_HOLE  
 NULL.    -999.25                        :NULL VALUE
 COMP.    CARLETON HL  F-18  - GAMMA     :COMPANY
 WELL.    279454                                                       :WELL
 FLD .    NORTHFIELD 71-B                :FIELD\LOCATION
 LOC .    31    112   19                 :LOCATION
 CNTY.    RICE                           :COUNTY
 STAT.    CACCDA                         :STATE
 CTRY.    USA                            :COUNTRY
 SRVC.    TRUCK                          :SERVICE COMPANY
 DATE.    08/31/2018                     :LOG DATE
 API .                                       :API NUMBER
 LIC .                                   :LICENSE NUMBER
~Curve Information Block
#MNEM.UNIT      API CODE     Curve Description
#---------    -------------  ------------------------
 DEPT     .FT        00 001 00 00          :  1  DEPTH   
 GAMMA    .API-GR    00 310 00 00          :  2  GAMMA RAY           
 RES      .OHM       00 000 00 00          :  3  SINGLE POINT RES    
 SP       .MV        00 010 00 00          :  4  SPON POTENTIAL      
~Parameter Information Block
#MNEM.UNIT   Information     Description
#---------- ---------------  ------------------------
 FILE.      PROCESSED          :File Type
 FIID.      9060A              :File Type Identifier
 VERS.      3.60Q              :System Version
 SER .      1                  :System Serial Number
 TRUK.      0.0                :Truck Calibration Number
 TOOL.         202             :Tool Serial Number
 TIME.      1019               :Time    HrHrMinMin
 LAT .                         :Latitude
 LON .                         :Longitude
 LMF .                         :Log Measured From
 DMF .                         :Driller Measured From
 PD  .                         :Permanent Data
 PDEV.FT                       :Elevation Permanent Data
 EKB .FT                       :Elevation Kelly Bushing
 ELEV.FT                       :Elevation DF
 EGL .FT     941.16            :Elevation Ground Level
 DRDP.FT    25                 :Driller's Depth
 CASD.FT    6                  :Casing Diameter
 CASB.FT    25                 :Casing Bottom
 CASX.                         :Casing Type
 CAST.IN    0                  :Casing Thickness
 TNOC.                         :Time Circulation Stopped
 LOGU.                         :Logging Unit
 RECB.      TIPPING            :Recorded By
 OSR1.                         :Other Services
 OSR2.                         :Other Services
 OSR3.                         :Other Services
 BS  .IN           6           :Bit Size
 MST .F                        :Mean Surface Temperature
 TGRD.F     0                  :Temperature Gradiant
 MAGN.      0                  :Magnetic Declination
 MDEN.      2.84               :Density Matrix
 MATR.      DOLOMITE           :Neutron Matrix
 DTMT.      44                 :Delta T Matrix
 DTFL.                         :Delta T Fluid
 MUDS.      0                  :Mud Sample Source
 MRS .      0                  :Mud Resistivity
 MTP .      0                  :Mud Temperature
 MFRS.                         :Resistivity Mud Filtrate
 MFTP.                         :Temperature Mud Filtrate
 MCRS.      0                  :Resistivity Mud Cake
 MCTP.                         :Temperature Mud Cake
 FTYP.      0                  :Fluid Type
 FD  .LB/G     0               :Mud Weight
 DFV .S                        :Fluid Viscosity
 FPH .                         :Fuild PH
 ELCO.      2500               :Electron Cutoff
 CASL.IN    4                  :Casing Logger
 LOTD.FT                       :Logger TD
 ARTM.                         :Arrival Time
 DPTM.                         :Departure Time
 RIGN.                         :Rig Number
~Other Information
#MNEM.UNIT  Information      Description
#---------- ---------------  ------------------------
# -------------------------- 
~A DEPTH  GAMMA    RES      SP    
# ...
 283.830     33.9    156.5  204.0 
 283.850     66.8    156.5  207.5 
 283.870      1.0    156.5  205.8 
 283.890      1.0    156.5  205.8 
 283.910     33.9    156.5  205.8 
 283.930     33.9    156.5  205.8 
 283.950      1.0    155.2  207.5 
 283.970      1.0    155.2  207.5 
 283.990      1.0    156.5  205.8 
 284.010      1.0    156.5  205.8 
 284.030      1.0    156.5  207.5 
 284.050      1.0    156.5  207.5 
 284.070      1.0    156.5  207.5 
 284.090     33.9    155.2  209.3 
 284.110     33.9    155.2  209.3 
 284.130     33.9    156.5  207.5 
 284.150     33.9    156.5  207.5 
 284.170     66.8    155.2  209.3 
 284.190      1.0    155.2  209.3 
 284.210      1.0    155.2  209.3 
 284.230      1.0    155.2  209.3 
 284.250      1.0    155.2  209.3 
 284.270     33.9    155.2  209.3 
 284.290     33.9    155.2  209.3 
 284.310     33.9    155.2  211.1 
 284.330      1.0    155.2  211.1 
 284.350      1.0    155.2  209.3 
 284.370     33.9    155.2  209.3 
 284.390     33.9    155.2  211.1 
 284.410      1.0    155.2  211.1 
 284.430      1.0    155.2  211.1 
 284.450      1.0    155.2  211.1 
 284.470      1.0    155.2  211.1 
 284.490      1.0    155.2  211.1 
 284.510     66.8    155.2  211.1 
 284.530     66.8    155.2  212.8 
 284.550      1.0    155.2  212.8 
 284.570      1.0    155.2  212.8 
 284.590      1.0    153.9  214.6 
 284.610      1.0    153.9  214.6 
 284.630      1.0    155.2  212.8 
 284.650      1.0    155.2  212.8 
 284.670      1.0    153.9  214.6 
 284.690      1.0    153.9  214.6 
 284.710      1.0    155.2  212.8 
 284.730     99.7    155.2  212.8 
 284.750     99.7    155.2  212.8 
 284.770     66.8    153.9  212.8 
 284.790     66.8    153.9  212.8 
 284.810      1.0    155.2  212.8 
 284.830      1.0    155.2  212.8 
 284.850      1.0    155.2  214.6 
 284.870     99.7    155.2  214.6 
 284.890     99.7    153.9  212.8 
 284.910      1.0    155.2  214.6 
 284.930      1.0    155.2  214.6 
 284.950     33.9    155.2  212.8 
 284.970     33.9    155.2  212.8 
 284.990      1.0    153.9  214.6 
 285.010      1.0    153.9  214.6 
 285.030      1.0    155.2  216.4 
 285.050     66.8    155.2  216.4 
 285.070     66.8    155.2  214.6 
 285.090     33.9    153.9  214.6 
 285.110     33.9    153.9  214.6 
 285.130      1.0    155.2  216.4 
 285.150      1.0    155.2  216.4 
 285.170      1.0    153.9  214.6 
 285.190      1.0    153.9  214.6 
 285.210      1.0    153.9  216.4 
 285.230      1.0    153.9  214.6 
 285.250      1.0    153.9  214.6 
 285.270     33.9    153.9  216.4 
 285.290     33.9    153.9  216.4 
 285.310      1.0    153.9  214.6 
 285.330      1.0    153.9  214.6 
 285.350     33.9    153.9  216.4 
 285.370      1.0    153.9  216.4 
 285.390      1.0    152.6  216.4 
 285.410     66.8    152.6  216.4 
 285.430     66.8    152.6  216.4 
 285.450      1.0    151.3  214.6 
 285.470      1.0    151.3  214.6 
 285.490      1.0    152.6  216.4 
 285.510      1.0    152.6  216.4 
 285.530      1.0    151.3  216.4 
 285.550      1.0    151.3  216.4 
 285.570      1.0    150.1  216.4 
 285.590     33.9    151.3  216.4 
 285.610     33.9    151.3  216.4 
 285.630      1.0    150.1  218.1 
 285.650      1.0    150.1  218.1 
 285.670     33.9    150.1  216.4 
 285.690     33.9    150.1  216.4 
 285.710     33.9    148.8  216.4 
 285.730      1.0    148.8  216.4 
 285.750      1.0    150.1  218.1 
 285.770      1.0    150.1  216.4 
 285.790      1.0    150.1  216.4 
 285.810      1.0    148.8  216.4 
 285.830      1.0    148.8  216.4 
 285.850      1.0    150.1  218.1 
 285.870      1.0    150.1  218.1 
 285.890      1.0    148.8  218.1 
 285.910     33.9    148.8  218.1 
 285.930     33.9    150.1  216.4 
 285.950      1.0    150.1  216.4 
 285.970      1.0    150.1  216.4 
 285.990     33.9    150.1  218.1 
 286.010     33.9    150.1  218.1 
 286.030      1.0    150.1  216.4 
 286.050     66.8    150.1  216.4 
 286.070     66.8    150.1  216.4 
 286.090     33.9    150.1  216.4 
 286.110     33.9    150.1  216.4 
 286.130     66.8    151.3  216.4 
 286.150     66.8    151.3  216.4 
 286.170     33.9    150.1  216.4 
 286.190     33.9    150.1  216.4 
 286.210      1.0    151.3  216.4 
 286.230      1.0    151.3  216.4 
 286.250      1.0    150.1  216.4 
 286.270      1.0    151.3  216.4 
 286.290      1.0    151.3  216.4 
 286.310      1.0    150.1  216.4 
 286.330      1.0    150.1  216.4 
 286.350      1.0    150.1  218.1 
 286.370     99.7    150.1  218.1 
 286.390     99.7    150.1  216.4 
 286.410      1.0    150.1  218.1 
 286.430      1.0    150.1  218.1 
 286.450     33.9    150.1  218.1 
 286.470     33.9    150.1  218.1 
 286.490     66.8    150.1  216.4 
 286.510     66.8    150.1  216.4 
 286.530     33.9    148.8  218.1 
 286.550     33.9    148.8  218.1 
 286.570     33.9    148.8  216.4 
 286.590     33.9    150.1  218.1 
 286.610     33.9    150.1  218.1 
 286.630     66.8    148.8  216.4 
 286.650     66.8    148.8  216.4 
 286.670     33.9    150.1  216.4 
 286.690     66.8    150.1  216.4 
 286.710     66.8    148.8  218.1 
 286.730     66.8    148.8  218.1 
 286.750     66.8    150.1  216.4 
 286.770      1.0    148.8  216.4 
 286.790      1.0    148.8  216.4 
 286.810     33.9    150.1  214.6 
 286.830     33.9    150.1  214.6 
 286.850     66.8    150.1  216.4 
 286.870      1.0    150.1  216.4 
 286.890      1.0    150.1  214.6 
 286.910      1.0    150.1  214.6 
 286.930      1.0    147.5  214.6 
 286.950     33.9    148.8  214.6 
 286.970     33.9    148.8  214.6 
 286.990      1.0    150.1  214.6 
 287.010      1.0    150.1  214.6 
 287.030     66.8    151.3  214.6 
 287.050      1.0    151.3  214.6 
 287.070      1.0    150.1  214.6 
 287.090      1.0    150.1  214.6 
 287.110      1.0    153.9  212.8 
 287.130     33.9    152.6  214.6 
 287.150     33.9    152.6  214.6 
 287.170      1.0    152.6  212.8 
 287.190      1.0    152.6  212.8 
 287.210      1.0    152.6  214.6 
 287.230      1.0    152.6  214.6 
 287.250      1.0    152.6  212.8 
 287.270     33.9    152.6  214.6 
 287.290     33.9    152.6  214.6 
 287.310      1.0    152.6  212.8 
 287.330      1.0    152.6  212.8 
 287.350     66.8    152.6  212.8 
 287.370      1.0    152.6  212.8 
 287.390      1.0    152.6  214.6 
 287.410      1.0    152.6  214.6 
 287.430      1.0    152.6  212.8 
 287.450      1.0    152.6  212.8 
 287.470      1.0    152.6  212.8 
 287.490      1.0    152.6  212.8 
 287.510      1.0    152.6  212.8 
 287.530      1.0    152.6  212.8 
 287.550     33.9    152.6  212.8 
 287.570     33.9    151.3  211.1 
 287.590      1.0    152.6  212.8 
 287.610      1.0    152.6  212.8 
 287.630     33.9    152.6  211.1 
 287.650     33.9    152.6  211.1 
 287.670      1.0    151.3  211.1 
 287.690      1.0    151.3  211.1 
 287.710     99.7    152.6  211.1 
 287.730     66.8    152.6  211.1 
 287.750     66.8    152.6  211.1 
 287.770      1.0    152.6  211.1 
 287.790      1.0    152.6  211.1 
 287.810      1.0    152.6  211.1 
 287.830      1.0    152.6  211.1 
 287.850      1.0    152.6  211.1 
 287.870      1.0    152.6  211.1 
 287.890      1.0    152.6  209.3 
 287.910      1.0    152.6  209.3 
 287.930      1.0    152.6  211.1 
 287.950      1.0    152.6  209.3 
 287.970      1.0    152.6  209.3 
 287.990     33.9    152.6  211.1 
 288.010     33.9    152.6  211.1 
 288.030      1.0    152.6  211.1 
 288.050     33.9    152.6  211.1 
 288.070     33.9    152.6  209.3 
 288.090     33.9    152.6  209.3 
 288.110     33.9    151.3  211.1 
 288.130      1.0    151.3  209.3 
 288.150      1.0    151.3  209.3 
 288.170      1.0    152.6  211.1 
 288.190      1.0    152.6  211.1 
 288.210      1.0    152.6  211.1 
 288.230      1.0    152.6  211.1 
 288.250      1.0    152.6  211.1 
 288.270      1.0    152.6  211.1 
 288.290      1.0    152.6  211.1 
 288.310      1.0    152.6  211.1 
 288.330      1.0    152.6  211.1 
 288.350     33.9    151.3  211.1 
 288.370     33.9    151.3  211.1 
 288.390      1.0    150.1  212.8 
