~Version Information
 VERS.                2.0:  CWLS LOG ASCII STANDARD -VERSION 2.0
 WRAP.                 NO:  ONE LINE PER DEPTH STEP
~WELL INFORMATION BLOCK
#MNEM.UNIT       DATA		            DESCRIPTION OF MNEMONIC
#---------    -------------            ------------------------
 STRT.FT  9.050                          :START DEPTH
 STOP.FT  527.030                        :STOP DEPTH
 STEP.FT  0.020                          :STEP    UP_HOLE  
 NULL.    -999.25                        :NULL VALUE
 COMP.    CARLETON HL  F-18  - GAMMA     :COMPANY
 WELL.    279454                                                       :WELL
 FLD .    NORTHFIELD 71-B                :FIELD\LOCATION
 LOC .    31    112   19                 :LOCATION
 CNTY.    RICE                           :COUNTY
 STAT.    CACCDA                         :STATE
 CTRY.    USA                            :COUNTRY
 SRVC.    TRUCK                          :SERVICE COMPANY
 DATE.    08/31/2018                     :LOG DATE
 API .                                       :API NUMBER
 LIC .                                   :LICENSE NUMBER
~Curve Information Block
#MNEM.UNIT      API CODE     Curve Description
#---------    -------------  ------------------------
 DEPT     .FT        00 001 00 00          :  1  DEPTH   
 GAMMA    .API-GR    00 310 00 00          :  2  GAMMA RAY           
 RES      .OHM       00 000 00 00          :  3  SINGLE POINT RES    
 SP       .MV        00 010 00 00          :  4  SPON POTENTIAL      
~Parameter Information Block
#MNEM.UNIT   Information     Description
#---------- ---------------  ------------------------
 FILE.      PROCESSED          :File Type
 FIID.      9060A              :File Type Identifier
 VERS.      3.60Q              :System Version
 SER .      1                  :System Serial Number
 TRUK.      0.0                :Truck Calibration Number
 TOOL.         202             :Tool Serial Number
 TIME.      1019               :Time    HrHrMinMin
 LAT .                         :Latitude
 LON .                         :Longitude
 LMF .                         :Log Measured From
 DMF .                         :Driller Measured From
 PD  .                         :Permanent Data
 PDEV.FT                       :Elevation Permanent Data
 EKB .FT                       :Elevation Kelly Bushing
 ELEV.FT                       :Elevation DF
 EGL .FT     941.16            :Elevation Ground Level
 DRDP.FT    25                 :Driller's Depth
 CASD.FT    6                  :Casing Diameter
 CASB.FT    25                 :Casing Bottom
 CASX.                         :Casing Type
 CAST.IN    0                  :Casing Thickness
 TNOC.                         :Time Circulation Stopped
 LOGU.                         :Logging Unit
 RECB.      TIPPING            :Recorded By
 OSR1.                         :Other Services
 OSR2.                         :Other Services
 OSR3.                         :Other Services
 BS  .IN           6           :Bit Size
 MST .F                        :Mean Surface Temperature
 TGRD.F     0                  :Temperature Gradiant
 MAGN.      0                  :Magnetic Declination
 MDEN.      2.84               :Density Matrix
 MATR.      DOLOMITE           :Neutron Matrix
 DTMT.      44                 :Delta T Matrix
 DTFL.                         :Delta T Fluid
 MUDS.      0                  :Mud Sample Source
 MRS .      0                  :Mud Resistivity
 MTP .      0                  :Mud Temperature
 MFRS.                         :Resistivity Mud Filtrate
 MFTP.                         :Temperature Mud Filtrate
 MCRS.      0                  :Resistivity Mud Cake
 MCTP.                         :Temperature Mud Cake
 FTYP.      0                  :Fluid Type
 FD  .LB/G     0               :Mud Weight
 DFV .S                        :Fluid Viscosity
 FPH .                         :Fuild PH
 ELCO.      2500               :Electron Cutoff
 CASL.IN    4                  :Casing Logger
 LOTD.FT                       :Logger TD
 ARTM.                         :Arrival Time
 DPTM.                         :Departure Time
 RIGN.                         :Rig Number
~Other Information
#MNEM.UNIT  Information      Description
#---------- ---------------  ------------------------
# -------------------------- 
~A DEPTH  GAMMA    RES      SP    
# ...
 215.130     66.8    292.0  138.5 
 215.150      1.0    292.0  138.5 
 215.170      1.0    292.0  138.5 
 215.190      1.0    292.0  136.7 
 215.210      1.0    292.0  136.7 
 215.230      1.0    292.0  138.5 
 215.250     33.9    292.0  138.5 
 215.270     33.9    289.4  138.5 
 215.290     33.9    289.4  138.5 
 215.310     33.9    292.0  136.7 
 215.330     66.8    292.0  136.7 
 215.350     66.8    292.0  138.5 
 215.370     33.9    294.6  136.7 
 215.390     33.9    294.6  136.7 
 215.410      1.0    292.0  138.5 
 215.430      1.0    292.0  138.5 
 215.450      1.0    294.6  138.5 
 215.470      1.0    294.6  138.5 
 215.490      1.0    294.6  136.7 
 215.510     33.9    294.6  136.7 
 215.530     33.9    292.0  138.5 
 215.550      1.0    292.0  138.5 
 215.570      1.0    292.0  138.5 
 215.590      1.0    294.6  138.5 
 215.610      1.0    294.6  138.5 
 215.630      1.0    294.6  138.5 
 215.650      1.0    294.6  138.5 
 215.670     33.9    289.4  138.5 
 215.690     33.9    289.4  138.5 
 215.710     33.9    292.0  138.5 
 215.730     33.9    292.0  138.5 
 215.750     33.9    289.4  138.5 
 215.770      1.0    289.4  138.5 
 215.790      1.0    289.4  140.2 
 215.810     66.8    289.4  140.2 
 215.830     66.8    286.8  138.5 
 215.850     33.9    289.4  138.5 
 215.870     33.9    289.4  138.5 
 215.890      1.0    289.4  138.5 
 215.910      1.0    289.4  138.5 
 215.930      1.0    286.8  138.5 
 215.950      1.0    286.8  138.5 
 215.970     66.8    286.8  140.2 
 215.990      1.0    286.8  140.2 
 216.010      1.0    286.8  138.5 
 216.030     33.9    286.8  138.5 
 216.050     33.9    286.8  138.5 
 216.070      1.0    286.8  138.5 
 216.090      1.0    284.2  138.5 
 216.110      1.0    286.8  138.5 
 216.130      1.0    286.8  138.5 
 216.150      1.0    284.2  140.2 
 216.170      1.0    284.2  140.2 
 216.190      1.0    284.2  138.5 
 216.210     66.8    284.2  138.5 
 216.230     66.8    284.2  138.5 
 216.250    132.7    284.2  138.5 
 216.270    132.7    284.2  138.5 
 216.290     33.9    284.2  138.5 
 216.310     33.9    284.2  138.5 
 216.330      1.0    284.2  138.5 
 216.350      1.0    284.2  140.2 
 216.370     66.8    284.2  138.5 
 216.390     66.8    284.2  138.5 
 216.410     66.8    284.2  140.2 
 216.430     66.8    284.2  140.2 
 216.450      1.0    284.2  140.2 
 216.470      1.0    284.2  140.2 
 216.490      1.0    284.2  140.2 
 216.510      1.0    284.2  140.2 
 216.530      1.0    281.6  142.0 
 216.550      1.0    281.6  142.0 
 216.570      1.0    279.0  140.2 
 216.590     33.9    279.0  140.2 
 216.610     33.9    279.0  142.0 
 216.630     66.8    281.6  142.0 
 216.650     66.8    281.6  142.0 
 216.670     33.9    279.0  142.0 
 216.690     33.9    279.0  142.0 
 216.710      1.0    279.0  142.0 
 216.730      1.0    279.0  142.0 
 216.750      1.0    279.0  143.8 
 216.770     33.9    279.0  143.8 
 216.790     33.9    279.0  142.0 
 216.810     66.8    279.0  142.0 
 216.830     66.8    281.6  143.8 
 216.850      1.0    281.6  143.8 
 216.870      1.0    279.0  143.8 
 216.890     33.9    281.6  142.0 
 216.910     33.9    281.6  142.0 
 216.930      1.0    281.6  143.8 
 216.950      1.0    281.6  143.8 
 216.970      1.0    281.6  143.8 
 216.990      1.0    281.6  143.8 
 217.010     66.8    281.6  143.8 
 217.030      1.0    281.6  143.8 
 217.050      1.0    281.6  143.8 
 217.070      1.0    281.6  143.8 
 217.090      1.0    281.6  145.6 
 217.110      1.0    281.6  143.8 
 217.130      1.0    281.6  143.8 
 217.150     99.7    281.6  145.6 
 217.170     99.7    281.6  145.6 
 217.190     33.9    281.6  145.6 
 217.210     33.9    281.6  145.6 
 217.230     33.9    281.6  145.6 
 217.250     33.9    281.6  145.6 
 217.270     33.9    284.2  147.3 
 217.290      1.0    284.2  147.3 
 217.310      1.0    279.0  145.6 
 217.330     99.7    279.0  145.6 
 217.350     99.7    279.0  149.1 
 217.370      1.0    279.0  149.1 
 217.390      1.0    279.0  149.1 
 217.410     33.9    276.4  149.1 
 217.430     33.9    276.4  149.1 
 217.450     33.9    276.4  149.1 
 217.470      1.0    276.4  149.1 
 217.490      1.0    273.8  150.9 
 217.510      1.0    273.8  150.9 
 217.530      1.0    271.2  150.9 
 217.550      1.0    271.2  150.9 
 217.570      1.0    268.5  152.6 
 217.590     33.9    268.5  152.6 
 217.610     33.9    268.5  152.6 
 217.630      1.0    268.5  152.6 
 217.650      1.0    263.3  152.6 
 217.670     33.9    263.3  152.6 
 217.690     33.9    263.3  152.6 
 217.710      1.0    258.1  154.4 
 217.730      1.0    258.1  154.4 
 217.750      1.0    258.1  154.4 
 217.770      1.0    258.1  154.4 
 217.790      1.0    258.1  156.2 
 217.810     33.9    258.1  156.2 
 217.830     33.9    252.9  154.4 
 217.850     33.9    252.9  154.4 
 217.870     33.9    252.9  156.2 
 217.890      1.0    252.9  156.2 
 217.910      1.0    250.3  156.2 
 217.930    132.7    250.3  157.9 
 217.950    132.7    250.3  157.9 
 217.970     66.8    247.6  157.9 
 217.990     66.8    247.6  157.9 
 218.010      1.0    248.9  156.2 
 218.030     33.9    248.9  156.2 
 218.050     33.9    247.6  157.9 
 218.070     33.9    247.6  157.9 
 218.090     33.9    246.3  159.7 
 218.110      1.0    246.3  159.7 
 218.130      1.0    246.3  157.9 
 218.150      1.0    246.3  159.7 
 218.170      1.0    246.3  159.7 
 218.190      1.0    245.0  157.9 
 218.210      1.0    245.0  157.9 
 218.230     33.9    245.0  159.7 
 218.250     33.9    245.0  159.7 
 218.270     33.9    243.7  159.7 
 218.290      1.0    243.7  159.7 
 218.310      1.0    243.7  159.7 
 218.330     33.9    243.7  159.7 
 218.350     33.9    243.7  159.7 
 218.370      1.0    242.5  159.7 
 218.390      1.0    242.5  159.7 
 218.410     33.9    243.7  161.5 
 218.430     33.9    243.7  161.5 
 218.450      1.0    242.5  159.7 
 218.470      1.0    242.5  159.7 
 218.490      1.0    241.2  161.5 
 218.510     33.9    241.2  161.5 
 218.530     33.9    242.5  161.5 
 218.550      1.0    242.5  161.5 
 218.570      1.0    241.2  159.7 
 218.590      1.0    241.2  159.7 
 218.610      1.0    241.2  161.5 
 218.630     33.9    241.2  161.5 
 218.650     33.9    241.2  159.7 
 218.670     33.9    239.9  161.5 
 218.690     33.9    239.9  161.5 
 218.710      1.0    241.2  159.7 
 218.730      1.0    241.2  159.7 
 218.750     66.8    239.9  161.5 
 218.770     33.9    239.9  161.5 
 218.790     33.9    239.9  161.5 
 218.810      1.0    239.9  161.5 
 218.830      1.0    239.9  159.7 
 218.850      1.0    239.9  159.7 
 218.870      1.0    239.9  161.5 
 218.890     66.8    239.9  161.5 
 218.910     66.8    239.9  161.5 
 218.930      1.0    238.6  161.5 
 218.950      1.0    238.6  161.5 
 218.970      1.0    239.9  161.5 
 218.990      1.0    239.9  161.5 
 219.010      1.0    239.9  159.7 
 219.030      1.0    239.9  159.7 
 219.050      1.0    239.9  163.3 
 219.070      1.0    239.9  163.3 
 219.090      1.0    239.9  159.7 
 219.110      1.0    239.9  159.7 
 219.130      1.0    238.6  161.5 
 219.150      1.0    238.6  161.5 
 219.170      1.0    239.9  161.5 
 219.190     66.8    238.6  161.5 
 219.210     66.8    238.6  161.5 
 219.230      1.0    238.6  161.5 
 219.250      1.0    238.6  161.5 
 219.270      1.0    238.6  159.7 
 219.290      1.0    238.6  159.7 
 219.310     33.9    239.9  161.5 
 219.330      1.0    239.9  161.5 
 219.350      1.0    238.6  159.7 
 219.370     66.8    238.6  159.7 
 219.390     66.8    239.9  159.7 
 219.410      1.0    238.6  159.7 
 219.430      1.0    238.6  159.7 
 219.450      1.0    239.9  159.7 
 219.470      1.0    239.9  159.7 
 219.490     66.8    241.2  159.7 
 219.510     66.8    241.2  159.7 
 219.530     99.7    239.9  159.7 
 219.550     99.7    239.9  159.7 
 219.570      1.0    242.5  157.9 
 219.590     33.9    242.5  157.9 
 219.610     33.9    241.2  157.9 
 219.630     33.9    241.2  157.9 
 219.650     33.9    243.7  157.9 
 219.670      1.0    242.5  157.9 
 219.690      1.0    242.5  157.9 
