~Version Information
 VERS.                2.0:  CWLS LOG ASCII STANDARD -VERSION 2.0
 WRAP.                 NO:  ONE LINE PER DEPTH STEP
~WELL INFORMATION BLOCK
#MNEM.UNIT       DATA		            DESCRIPTION OF MNEMONIC
#---------    -------------            ------------------------
 STRT.FT  9.050                          :START DEPTH
 STOP.FT  527.030                        :STOP DEPTH
 STEP.FT  0.020                          :STEP    UP_HOLE  
 NULL.    -999.25                        :NULL VALUE
 COMP.    CARLETON HL  F-18  - GAMMA     :COMPANY
 WELL.    279454                                                       :WELL
 FLD .    NORTHFIELD 71-B                :FIELD\LOCATION
 LOC .    31    112   19                 :LOCATION
 CNTY.    RICE                           :COUNTY
 STAT.    CACCDA                         :STATE
 CTRY.    USA                            :COUNTRY
 SRVC.    TRUCK                          :SERVICE COMPANY
 DATE.    08/31/2018                     :LOG DATE
 API .                                       :API NUMBER
 LIC .                                   :LICENSE NUMBER
~Curve Information Block
#MNEM.UNIT      API CODE     Curve Description
#---------    -------------  ------------------------
 DEPT     .FT        00 001 00 00          :  1  DEPTH   
 GAMMA    .API-GR    00 310 00 00          :  2  GAMMA RAY           
 RES      .OHM       00 000 00 00          :  3  SINGLE POINT RES    
 SP       .MV        00 010 00 00          :  4  SPON POTENTIAL      
~Parameter Information Block
#MNEM.UNIT   Information     Description
#---------- ---------------  ------------------------
 FILE.      PROCESSED          :File Type
 FIID.      9060A              :File Type Identifier
 VERS.      3.60Q              :System Version
 SER .      1                  :System Serial Number
 TRUK.      0.0                :Truck Calibration Number
 TOOL.         202             :Tool Serial Number
 TIME.      1019               :Time    HrHrMinMin
 LAT .                         :Latitude
 LON .                         :Longitude
 LMF .                         :Log Measured From
 DMF .                         :Driller Measured From
 PD  .                         :Permanent Data
 PDEV.FT                       :Elevation Permanent Data
 EKB .FT                       :Elevation Kelly Bushing
 ELEV.FT                       :Elevation DF
 EGL .FT     941.16            :Elevation Ground Level
 DRDP.FT    25                 :Driller's Depth
 CASD.FT    6                  :Casing Diameter
 CASB.FT    25                 :Casing Bottom
 CASX.                         :Casing Type
 CAST.IN    0                  :Casing Thickness
 TNOC.                         :Time Circulation Stopped
 LOGU.                         :Logging Unit
 RECB.      TIPPING            :Recorded By
 OSR1.                         :Other Services
 OSR2.                         :Other Services
 OSR3.                         :Other Services
 BS  .IN           6           :Bit Size
 MST .F                        :Mean Surface Temperature
 TGRD.F     0                  :Temperature Gradiant
 MAGN.      0                  :Magnetic Declination
 MDEN.      2.84               :Density Matrix
 MATR.      DOLOMITE           :Neutron Matrix
 DTMT.      44                 :Delta T Matrix
 DTFL.                         :Delta T Fluid
 MUDS.      0                  :Mud Sample Source
 MRS .      0                  :Mud Resistivity
 MTP .      0                  :Mud Temperature
 MFRS.                         :Resistivity Mud Filtrate
 MFTP.                         :Temperature Mud Filtrate
 MCRS.      0                  :Resistivity Mud Cake
 MCTP.                         :Temperature Mud Cake
 FTYP.      0                  :Fluid Type
 FD  .LB/G     0               :Mud Weight
 DFV .S                        :Fluid Viscosity
 FPH .                         :Fuild PH
 ELCO.      2500               :Electron Cutoff
 CASL.IN    4                  :Casing Logger
 LOTD.FT                       :Logger TD
 ARTM.                         :Arrival Time
 DPTM.                         :Departure Time
 RIGN.                         :Rig Number
~Other Information
#MNEM.UNIT  Information      Description
#---------- ---------------  ------------------------
# -------------------------- 
~A DEPTH  GAMMA    RES      SP    
# ...
 453.290    132.7    133.4  181.0 
 453.310    132.7    134.7  179.2 
 453.330      1.0    134.7  179.2 
 453.350      1.0    134.7  177.4 
 453.370     99.7    133.4  179.2 
 453.390     99.7    133.4  179.2 
 453.410     99.7    133.4  177.4 
 453.430      1.0    133.4  177.4 
 453.450      1.0    134.7  177.4 
 453.470    132.7    133.4  177.4 
 453.490    132.7    133.4  177.4 
 453.510    132.7    133.4  177.4 
 453.530     99.7    133.4  177.4 
 453.550     99.7    133.4  177.4 
 453.570     33.9    133.4  177.4 
 453.590     33.9    133.4  177.4 
 453.610     33.9    133.4  175.7 
 453.630     33.9    133.4  175.7 
 453.650     66.8    134.7  177.4 
 453.670      1.0    134.7  177.4 
 453.690      1.0    133.4  177.4 
 453.710     99.7    133.4  177.4 
 453.730     99.7    133.4  177.4 
 453.750    132.7    134.7  175.7 
 453.770     33.9    134.7  175.7 
 453.790     33.9    133.4  177.4 
 453.810     66.8    133.4  177.4 
 453.830     66.8    133.4  177.4 
 453.850     66.8    133.4  175.7 
 453.870     66.8    133.4  175.7 
 453.890    198.5    133.4  177.4 
 453.910     99.7    133.4  177.4 
 453.930     99.7    134.7  175.7 
 453.950     99.7    133.4  175.7 
 453.970     99.7    133.4  175.7 
 453.990    132.7    134.7  177.4 
 454.010      1.0    134.7  177.4 
 454.030      1.0    133.4  175.7 
 454.050    132.7    133.4  175.7 
 454.070    132.7    134.7  175.7 
 454.090     99.7    134.7  175.7 
 454.110     33.9    134.7  175.7 
 454.130     33.9    134.7  175.7 
 454.150     99.7    134.7  175.7 
 454.170     99.7    134.7  177.4 
 454.190     66.8    134.7  175.7 
 454.210     66.8    134.7  175.7 
 454.230     99.7    134.7  175.7 
 454.250      1.0    134.7  175.7 
 454.270      1.0    133.4  173.9 
 454.290     66.8    133.4  173.9 
 454.310     66.8    134.7  175.7 
 454.330    165.6    134.7  173.9 
 454.350    165.6    134.7  173.9 
 454.370     66.8    134.7  175.7 
 454.390     66.8    134.7  175.7 
 454.410     66.8    134.7  173.9 
 454.430     33.9    133.4  173.9 
 454.450     33.9    133.4  173.9 
 454.470    132.7    134.7  173.9 
 454.490     99.7    134.7  173.9 
 454.510     99.7    133.4  172.1 
 454.530    132.7    133.4  172.1 
 454.550    132.7    134.7  172.1 
 454.570     66.8    134.7  173.9 
 454.590     66.8    134.7  173.9 
 454.610     66.8    133.4  172.1 
 454.630     99.7    133.4  172.1 
 454.650     99.7    133.4  172.1 
 454.670     99.7    134.7  172.1 
 454.690     99.7    134.7  172.1 
 454.710     33.9    133.4  170.3 
 454.730     33.9    133.4  170.3 
 454.750     99.7    132.1  172.1 
 454.770     66.8    132.1  172.1 
 454.790     66.8    133.4  172.1 
 454.810     33.9    134.7  170.3 
 454.830     33.9    134.7  170.3 
 454.850     66.8    133.4  172.1 
 454.870     33.9    133.4  172.1 
 454.890     33.9    132.1  170.3 
 454.910     99.7    133.4  172.1 
 454.930     99.7    133.4  172.1 
 454.950     33.9    132.1  170.3 
 454.970    165.6    132.1  170.3 
 454.990    165.6    132.1  170.3 
 455.010     66.8    132.1  172.1 
 455.030     66.8    132.1  172.1 
 455.050     66.8    132.1  172.1 
 455.070     66.8    132.1  172.1 
 455.090     66.8    130.8  170.3 
 455.110     99.7    130.8  170.3 
 455.130     99.7    132.1  172.1 
 455.150    132.7    132.1  172.1 
 455.170    132.7    132.1  172.1 
 455.190     99.7    132.1  170.3 
 455.210     66.8    132.1  170.3 
 455.230     66.8    130.8  173.9 
 455.250    132.7    130.8  173.9 
 455.270    132.7    130.8  172.1 
 455.290      1.0    129.5  172.1 
 455.310    165.6    129.5  172.1 
 455.330    165.6    129.5  172.1 
 455.350      1.0    129.5  172.1 
 455.370      1.0    128.2  172.1 
 455.390     99.7    127.0  172.1 
 455.410     99.7    127.0  172.1 
 455.430     99.7    127.0  172.1 
 455.450    198.5    127.0  172.1 
 455.470    198.5    124.4  173.9 
 455.490     99.7    124.4  173.9 
 455.510     99.7    124.4  172.1 
 455.530    132.7    123.1  172.1 
 455.550    132.7    123.1  172.1 
 455.570     33.9    123.1  172.1 
 455.590      1.0    123.1  172.1 
 455.610      1.0    121.8  172.1 
 455.630    165.6    121.8  172.1 
 455.650    165.6    120.5  172.1 
 455.670     99.7    119.3  172.1 
 455.690     99.7    119.3  172.1 
 455.710    264.3    120.5  172.1 
 455.730     33.9    120.5  172.1 
 455.750     33.9    121.8  170.3 
 455.770    165.6    120.5  172.1 
 455.790    165.6    120.5  172.1 
 455.810     66.8    119.3  172.1 
 455.830      1.0    119.3  172.1 
 455.850      1.0    120.5  170.3 
 455.870     66.8    120.5  172.1 
 455.890     66.8    120.5  172.1 
 455.910     66.8    120.5  172.1 
 455.930     66.8    120.5  172.1 
 455.950     33.9    120.5  173.9 
 455.970     66.8    120.5  173.9 
 455.990     66.8    120.5  172.1 
 456.010    132.7    119.3  173.9 
 456.030    132.7    119.3  173.9 
 456.050    132.7    119.3  172.1 
 456.070     33.9    119.3  172.1 
 456.090     33.9    119.3  175.7 
 456.110     99.7    116.7  173.9 
 456.130     99.7    116.7  173.9 
 456.150     66.8    115.4  175.7 
 456.170     66.8    115.4  175.7 
 456.190     66.8    112.8  175.7 
 456.210    198.5    110.3  175.7 
 456.230    198.5    110.3  175.7 
 456.250     66.8    107.7  175.7 
 456.270     66.8    107.7  175.7 
 456.290     99.7    105.1  175.7 
 456.310     33.9    105.1  175.7 
 456.330     33.9    102.6  175.7 
 456.350     99.7    101.3  175.7 
 456.370     99.7    101.3  175.7 
 456.390    231.4     98.6  175.7 
 456.410     99.7     98.6  175.7 
 456.430     99.7     98.6  173.9 
 456.450     66.8     98.6  173.9 
 456.470     66.8     97.9  175.7 
 456.490    198.5     99.3  173.9 
 456.510    198.5     99.3  173.9 
 456.530     33.9    100.0  173.9 
 456.550     99.7    100.0  173.9 
 456.570     99.7    101.3  173.9 
 456.590     99.7    101.3  173.9 
 456.610     99.7    102.6  172.1 
 456.630     66.8    105.1  173.9 
 456.650     66.8    105.1  173.9 
 456.670     33.9    107.7  170.3 
 456.690    132.7    107.7  170.3 
 456.710    132.7    110.3  170.3 
 456.730    132.7    114.1  170.3 
 456.750    132.7    114.1  170.3 
 456.770      1.0    115.4  170.3 
 456.790     99.7    115.4  170.3 
 456.810     99.7    118.0  170.3 
 456.830     33.9    118.0  170.3 
 456.850     33.9    121.8  170.3 
 456.870     66.8    121.8  168.6 
 456.890     66.8    121.8  168.6 
 456.910     66.8    124.4  170.3 
 456.930     99.7    124.4  170.3 
 456.950     99.7    127.0  168.6 
 456.970    132.7    128.2  170.3 
 456.990    132.7    128.2  170.3 
 457.010     99.7    129.5  168.6 
 457.030     99.7    129.5  168.6 
 457.050     66.8    130.8  170.3 
 457.070     99.7    130.8  170.3 
 457.090     99.7    133.4  168.6 
 457.110    231.4    133.4  170.3 
 457.130    231.4    133.4  170.3 
 457.150     99.7    133.4  168.6 
 457.170     99.7    133.4  168.6 
 457.190     99.7    134.7  170.3 
 457.210    132.7    134.7  170.3 
 457.230    132.7    134.7  170.3 
 457.250     99.7    137.2  170.3 
 457.270     99.7    137.2  170.3 
 457.290     99.7    135.9  168.6 
 457.310     66.8    137.2  170.3 
 457.330     66.8    137.2  170.3 
 457.350    165.6    138.5  168.6 
 457.370    165.6    138.5  168.6 
 457.390    165.6    138.5  170.3 
 457.410    165.6    138.5  170.3 
 457.430    165.6    139.8  168.6 
 457.450      1.0    139.8  170.3 
 457.470      1.0    139.8  170.3 
 457.490    132.7    139.8  170.3 
 457.510     99.7    139.8  170.3 
 457.530     99.7    139.8  170.3 
 457.550     99.7    139.8  170.3 
 457.570     99.7    139.8  168.6 
 457.590     33.9    139.8  170.3 
 457.610     33.9    139.8  170.3 
 457.630     66.8    141.1  170.3 
 457.650    132.7    141.1  170.3 
 457.670    132.7    142.4  170.3 
 457.690     33.9    141.1  172.1 
 457.710     33.9    141.1  172.1 
 457.730    231.4    142.4  170.3 
 457.750    132.7    142.4  170.3 
 457.770    132.7    143.6  170.3 
 457.790     33.9    143.6  170.3 
 457.810     33.9    142.4  170.3 
 457.830     33.9    143.6  172.1 
 457.850     33.9    143.6  172.1 
