~Version Information
 VERS.                2.0:  CWLS LOG ASCII STANDARD -VERSION 2.0
 WRAP.                 NO:  ONE LINE PER DEPTH STEP
~WELL INFORMATION BLOCK
#MNEM.UNIT       DATA		            DESCRIPTION OF MNEMONIC
#---------    -------------            ------------------------
 STRT.FT  9.050                          :START DEPTH
 STOP.FT  527.030                        :STOP DEPTH
 STEP.FT  0.020                          :STEP    UP_HOLE  
 NULL.    -999.25                        :NULL VALUE
 COMP.    CARLETON HL  F-18  - GAMMA     :COMPANY
 WELL.    279454                                                       :WELL
 FLD .    NORTHFIELD 71-B                :FIELD\LOCATION
 LOC .    31    112   19                 :LOCATION
 CNTY.    RICE                           :COUNTY
 STAT.    CACCDA                         :STATE
 CTRY.    USA                            :COUNTRY
 SRVC.    TRUCK                          :SERVICE COMPANY
 DATE.    08/31/2018                     :LOG DATE
 API .                                       :API NUMBER
 LIC .                                   :LICENSE NUMBER
~Curve Information Block
#MNEM.UNIT      API CODE     Curve Description
#---------    -------------  ------------------------
 DEPT     .FT        00 001 00 00          :  1  DEPTH   
 GAMMA    .API-GR    00 310 00 00          :  2  GAMMA RAY           
 RES      .OHM       00 000 00 00          :  3  SINGLE POINT RES    
 SP       .MV        00 010 00 00          :  4  SPON POTENTIAL      
~Parameter Information Block
#MNEM.UNIT   Information     Description
#---------- ---------------  ------------------------
 FILE.      PROCESSED          :File Type
 FIID.      9060A              :File Type Identifier
 VERS.      3.60Q              :System Version
 SER .      1                  :System Serial Number
 TRUK.      0.0                :Truck Calibration Number
 TOOL.         202             :Tool Serial Number
 TIME.      1019               :Time    HrHrMinMin
 LAT .                         :Latitude
 LON .                         :Longitude
 LMF .                         :Log Measured From
 DMF .                         :Driller Measured From
 PD  .                         :Permanent Data
 PDEV.FT                       :Elevation Permanent Data
 EKB .FT                       :Elevation Kelly Bushing
 ELEV.FT                       :Elevation DF
 EGL .FT     941.16            :Elevation Ground Level
 DRDP.FT    25                 :Driller's Depth
 CASD.FT    6                  :Casing Diameter
 CASB.FT    25                 :Casing Bottom
 CASX.                         :Casing Type
 CAST.IN    0                  :Casing Thickness
 TNOC.                         :Time Circulation Stopped
 LOGU.                         :Logging Unit
 RECB.      TIPPING            :Recorded By
 OSR1.                         :Other Services
 OSR2.                         :Other Services
 OSR3.                         :Other Services
 BS  .IN           6           :Bit Size
 MST .F                        :Mean Surface Temperature
 TGRD.F     0                  :Temperature Gradiant
 MAGN.      0                  :Magnetic Declination
 MDEN.      2.84               :Density Matrix
 MATR.      DOLOMITE           :Neutron Matrix
 DTMT.      44                 :Delta T Matrix
 DTFL.                         :Delta T Fluid
 MUDS.      0                  :Mud Sample Source
 MRS .      0                  :Mud Resistivity
 MTP .      0                  :Mud Temperature
 MFRS.                         :Resistivity Mud Filtrate
 MFTP.                         :Temperature Mud Filtrate
 MCRS.      0                  :Resistivity Mud Cake
 MCTP.                         :Temperature Mud Cake
 FTYP.      0                  :Fluid Type
 FD  .LB/G     0               :Mud Weight
 DFV .S                        :Fluid Viscosity
 FPH .                         :Fuild PH
 ELCO.      2500               :Electron Cutoff
 CASL.IN    4                  :Casing Logger
 LOTD.FT                       :Logger TD
 ARTM.                         :Arrival Time
 DPTM.                         :Departure Time
 RIGN.                         :Rig Number
~Other Information
#MNEM.UNIT  Information      Description
#---------- ---------------  ------------------------
# -------------------------- 
~A DEPTH  GAMMA    RES      SP    
   9.050      1.0  -999.25  -999.25
   9.070     33.9  -999.25  -999.25
   9.090     33.9  -999.25  -999.25
   9.110      1.0  -999.25  -999.25
   9.130      1.0  -999.25  -999.25
   9.150      1.0  -999.25  -999.25
   9.170      1.0  -999.25  -999.25
   9.190      1.0  -999.25  -999.25
   9.210      1.0  -999.25  -999.25
   9.230      1.0  -999.25  -999.25
   9.250      1.0  -999.25  -999.25
   9.270     33.9  -999.25  -999.25
   9.290     33.9  -999.25  -999.25
   9.310      1.0  -999.25  -999.25
   9.330      1.0  -999.25  -999.25
   9.350     33.9  -999.25  -999.25
   9.370     33.9  -999.25  -999.25
   9.390     33.9  -999.25  -999.25
   9.410     33.9  -999.25  -999.25
   9.430      1.0  -999.25  -999.25
   9.450      1.0  -999.25  -999.25
   9.470      1.0  -999.25  -999.25
   9.490      1.0  -999.25  -999.25
   9.510     33.9  -999.25  -999.25
   9.530     33.9  -999.25  -999.25
   9.550      1.0  -999.25  -999.25
   9.570      1.0  -999.25  -999.25
   9.590     33.9  -999.25  -999.25
   9.610     33.9  -999.25  -999.25
   9.630     33.9  -999.25  -999.25
   9.650     33.9  -999.25  -999.25
   9.670     33.9  -999.25  -999.25
   9.690     33.9  -999.25  -999.25
   9.710      1.0  -999.25  -24.4 
   9.730      1.0  -999.25  -22.7 
   9.750     33.9  -999.25  -22.7 
   9.770     33.9  -999.25  -20.9 
   9.790     33.9  -999.25  -20.9 
   9.810     33.9  -999.25  -22.7 
   9.830     33.9  -999.25  -22.7 
   9.850     33.9  -999.25  -22.7 
   9.870      1.0  -999.25  -22.7 
   9.890      1.0  -999.25  -24.4 
   9.910      1.0  -999.25  -24.4 
   9.930      1.0  -999.25  -26.2 
   9.950     33.9  -999.25  -26.2 
   9.970     33.9  -999.25  -26.2 
   9.990     33.9  -999.25  -26.2 
  10.010     33.9  -999.25  -28.0 
  10.030      1.0  -999.25  -28.0 
  10.050      1.0  -999.25  -26.2 
  10.070      1.0  -999.25  -26.2 
  10.090      1.0  -999.25  -24.4 
  10.110      1.0  -999.25  -24.4 
  10.130      1.0  -999.25  -22.7 
  10.150     66.8  -999.25  -22.7 
  10.170     66.8  -999.25  -22.7 
  10.190      1.0  -999.25  -22.7 
  10.210      1.0  -999.25  -20.9 
  10.230     33.9  -999.25  -20.9 
  10.250     33.9  -999.25  -20.9 
  10.270      1.0  -999.25  -20.9 
  10.290      1.0  -999.25  -20.9 
  10.310     66.8  -999.25  -20.9 
  10.330     66.8  -999.25  -24.4 
  10.350     99.7  -999.25  -24.4 
  10.370     99.7  -999.25  -22.7 
  10.390     33.9  -999.25  -22.7 
  10.410     33.9  -999.25  -24.4 
  10.430      1.0  -999.25  -24.4 
  10.450      1.0  -999.25  -22.7 
  10.470      1.0  -999.25  -22.7 
  10.490      1.0  -999.25  -22.7 
  10.510     33.9  -999.25  -22.7 
  10.530     33.9  -999.25  -20.9 
  10.550      1.0  -999.25  -20.9 
  10.570      1.0  -999.25  -20.9 
  10.590      1.0  -999.25  -20.9 
  10.610      1.0  -999.25  -22.7 
  10.630      1.0  -999.25  -22.7 
  10.650      1.0  -999.25  -24.4 
  10.670      1.0  -999.25  -24.4 
  10.690      1.0  -999.25  -24.4 
  10.710      1.0  -999.25  -24.4 
  10.730      1.0  -999.25  -24.4 
  10.750      1.0  -999.25  -24.4 
  10.770     33.9  -999.25  -22.7 
  10.790     33.9  -999.25  -22.7 
  10.810      1.0  -999.25  -19.1 
  10.830      1.0  -999.25  -19.1 
  10.850      1.0  -999.25  -15.6 
  10.870      1.0  -999.25  -15.6 
  10.890      1.0  -999.25  -13.8 
  10.910      1.0  -999.25  -13.8 
  10.930     33.9  -999.25  -13.8 
  10.950     33.9  -999.25  -13.8 
  10.970      1.0  -999.25  -12.0 
  10.990      1.0  -999.25  -12.0 
  11.010      1.0  -999.25  -17.4 
  11.030      1.0  -999.25  -17.4 
  11.050      1.0  -999.25  -20.9 
  11.070      1.0  -999.25  -20.9 
  11.090      1.0  -999.25  -24.4 
  11.110      1.0  -999.25  -24.4 
  11.130      1.0  -999.25  -26.2 
  11.150     33.9  -999.25  -26.2 
  11.170     33.9  -999.25  -24.4 
  11.190      1.0  -999.25  -24.4 
  11.210      1.0  -999.25  -20.9 
  11.230      1.0  -999.25  -20.9 
  11.250      1.0  -999.25  -17.4 
  11.270     33.9  -999.25  -17.4 
  11.290     33.9  -999.25  -13.8 
  11.310      1.0  -999.25  -13.8 
  11.330      1.0  -999.25  -12.0 
  11.350      1.0  -999.25  -12.0 
  11.370      1.0  -999.25  -8.5  
  11.390      1.0  -999.25  -8.5  
  11.410      1.0  -999.25  -8.5  
  11.430      1.0  -999.25  -8.5  
  11.450     33.9  -999.25  -5.0  
  11.470     33.9  -999.25  -5.0  
  11.490      1.0  -999.25  -5.0  
  11.510      1.0  -999.25  -5.0  
  11.530      1.0  -999.25  -3.2  
  11.550      1.0  -999.25  -3.2  
  11.570      1.0  -999.25  -5.0  
  11.590      1.0  -999.25  -5.0  
  11.610      1.0  -999.25  -5.0  
  11.630      1.0  -999.25  -8.5  
  11.650     33.9  -999.25  -8.5  
  11.670     33.9  -999.25  -10.3 
  11.690     66.8  -999.25  -10.3 
  11.710     66.8  -999.25  -13.8 
  11.730      1.0  -999.25  -13.8 
  11.750      1.0  -999.25  -15.6 
  11.770      1.0  -999.25  -15.6 
  11.790      1.0  -999.25  -19.1 
  11.810      1.0  -999.25  -19.1 
  11.830      1.0  -999.25  -20.9 
  11.850      1.0  -999.25  -20.9 
  11.870      1.0  -999.25  -20.9 
  11.890      1.0  -999.25  -20.9 
  11.910      1.0  -999.25  -19.1 
  11.930      1.0  -999.25  -19.1 
  11.950      1.0  -999.25  -19.1 
  11.970      1.0  -999.25  -20.9 
  11.990      1.0  -999.25  -20.9 
  12.010      1.0  -999.25  -22.7 
  12.030      1.0  -999.25  -22.7 
  12.050      1.0  -999.25  -20.9 
  12.070      1.0  -999.25  -20.9 
  12.090      1.0  -999.25  -22.7 
  12.110      1.0  -999.25  -22.7 
  12.130     66.8  -999.25  -20.9 
  12.150     66.8  -999.25  -20.9 
  12.170     33.9  -999.25  -20.9 
  12.190     33.9  -999.25  -20.9 
  12.210      1.0  -999.25  -17.4 
  12.230      1.0  -999.25  -17.4 
  12.250      1.0  -999.25  -17.4 
  12.270      1.0  -999.25  -13.8 
  12.290     66.8  -999.25  -13.8 
  12.310     66.8  -999.25  -10.3 
  12.330     33.9  -999.25  -10.3 
  12.350     33.9  -999.25  -8.5  
  12.370      1.0  -999.25  -8.5  
  12.390      1.0  -999.25  -6.7  
  12.410     33.9  -999.25  -6.7  
  12.430     33.9  -999.25  -6.7  
  12.450      1.0  -999.25  -6.7  
  12.470      1.0  -999.25  -5.0  
  12.490      1.0  -999.25  -5.0  
  12.510      1.0  -999.25  -6.7  
  12.530      1.0  -999.25  -6.7  
  12.550      1.0  -999.25  -8.5  
  12.570      1.0  -999.25  -8.5  
  12.590      1.0  -999.25  -10.3 
  12.610      1.0  -999.25  -10.3 
  12.630      1.0  -999.25  -15.6 
  12.650      1.0  -999.25  -15.6 
  12.670      1.0  -999.25  -13.8 
  12.690      1.0  -999.25  -13.8 
  12.710      1.0  -999.25  -17.4 
  12.730     33.9  -999.25  -17.4 
  12.750     33.9  -999.25  -19.1 
  12.770      1.0  -999.25  -19.1 
  12.790      1.0  -999.25  -19.1 
  12.810     66.8  -999.25  -19.1 
  12.830     66.8  -999.25  -20.9 
  12.850      1.0  -999.25  -20.9 
  12.870      1.0  -999.25  -19.1 
  12.890      1.0  -999.25  -19.1 
  12.910      1.0  -999.25  -19.1 
  12.930      1.0  -999.25  -19.1 
  12.950      1.0  -999.25  -15.6 
  12.970      1.0  -999.25  -15.6 
  12.990      1.0  -999.25  -17.4 
  13.010      1.0  -999.25  -17.4 
  13.030      1.0  -999.25  -13.8 
  13.050     33.9  -999.25  -13.8 
  13.070     33.9  -999.25  -15.6 
  13.090     33.9  -999.25  -15.6 
  13.110     33.9  -999.25  -17.4 
  13.130      1.0  -999.25  -17.4 
  13.150      1.0  -999.25  -17.4 
  13.170      1.0  -999.25  -17.4 
  13.190      1.0  -999.25  -20.9 
  13.210      1.0  -999.25  -20.9 
  13.230      1.0  -999.25  -20.9 
  13.250      1.0  -999.25  -20.9 
  13.270      1.0  -999.25  -19.1 
  13.290     33.9  -999.25  -19.1 
  13.310     33.9  -999.25  -17.4 
  13.330      1.0  -999.25  -17.4 
  13.350      1.0  -999.25  -13.8 
  13.370      1.0  -999.25  -13.8 
  13.390      1.0  -999.25  -8.5  
  13.410      1.0  -999.25  -8.5  
  13.430      1.0  -999.25  -6.7  
  13.450      1.0  -999.25  -6.7  
  13.470      1.0  -999.25  -3.2  
  13.490      1.0  -999.25  -3.2  
  13.510     33.9  -999.25   2.1  
  13.530     33.9  -999.25   2.1  
  13.550     33.9  -999.25   7.4  
  13.570     33.9  -999.25   7.4  
  13.590     33.9  -999.25  11.0  
