~Version Information
 VERS.                2.0:  CWLS LOG ASCII STANDARD -VERSION 2.0
 WRAP.                 NO:  ONE LINE PER DEPTH STEP
~WELL INFORMATION BLOCK
#MNEM.UNIT       DATA		            DESCRIPTION OF MNEMONIC
#---------    -------------            ------------------------
 STRT.FT  6.030                          :START DEPTH
 STOP.FT  530.850                        :STOP DEPTH
 STEP.FT  0.020                          :STEP    UP_HOLE  
 NULL.    -999.25                        :NULL VALUE
 COMP.    CARLTON G1                     :COMPANY
 WELL.    279453                                                       :WELL
 FLD .    71-B NORTHFIELD                :FIELD\LOCATION
 LOC .    31    112   19                 :LOCATION
 CNTY.    RICE                           :COUNTY
 STAT.    CACCCA                         :STATE
 CTRY.    USA                            :COUNTRY
 SRVC.    TRUCK                          :SERVICE COMPANY
 DATE.    08/29/2018                     :LOG DATE
 API .                                       :API NUMBER
 LIC .                                   :LICENSE NUMBER
~Curve Information Block
#MNEM.UNIT      API CODE     Curve Description
#---------    -------------  ------------------------
 DEPT     .FT        00 001 00 00          :  1  DEPTH   
 GAMMA    .API-GR    00 310 00 00          :  2  GAMMA RAY           
 RES      .OHM       00 000 00 00          :  3  SINGLE POINT RES    
 SP       .MV        00 010 00 00          :  4  SPON POTENTIAL      
~Parameter Information Block
#MNEM.UNIT   Information     Description
#---------- ---------------  ------------------------
 FILE.      PROCESSED          :File Type
 FIID.      9060A              :File Type Identifier
 VERS.      3.60Q              :System Version
 SER .      1                  :System Serial Number
 TRUK.      0.0                :Truck Calibration Number
 TOOL.         202             :Tool Serial Number
 TIME.      1055               :Time    HrHrMinMin
 LAT .                         :Latitude
 LON .                         :Longitude
 LMF .                         :Log Measured From
 DMF .                         :Driller Measured From
 PD  .                         :Permanent Data
 PDEV.FT                       :Elevation Permanent Data
 EKB .FT                       :Elevation Kelly Bushing
 ELEV.FT                       :Elevation DF
 EGL .FT    944 L1             :Elevation Ground Level
 DRDP.FT    27                 :Driller's Depth
 CASD.FT    5.5                :Casing Diameter
 CASB.FT                       :Casing Bottom
 CASX.                         :Casing Type
 CAST.IN    0                  :Casing Thickness
 TNOC.                         :Time Circulation Stopped
 LOGU.                         :Logging Unit
 RECB.      CICHA              :Recorded By
 OSR1.                         :Other Services
 OSR2.                         :Other Services
 OSR3.                         :Other Services
 BS  .IN           6           :Bit Size
 MST .F                        :Mean Surface Temperature
 TGRD.F     0                  :Temperature Gradiant
 MAGN.      0                  :Magnetic Declination
 MDEN.      2.84               :Density Matrix
 MATR.      DOLOMITE           :Neutron Matrix
 DTMT.      44                 :Delta T Matrix
 DTFL.                         :Delta T Fluid
 MUDS.      0                  :Mud Sample Source
 MRS .      0                  :Mud Resistivity
 MTP .      0                  :Mud Temperature
 MFRS.                         :Resistivity Mud Filtrate
 MFTP.                         :Temperature Mud Filtrate
 MCRS.      0                  :Resistivity Mud Cake
 MCTP.                         :Temperature Mud Cake
 FTYP.      0                  :Fluid Type
 FD  .LB/G     0               :Mud Weight
 DFV .S                        :Fluid Viscosity
 FPH .                         :Fuild PH
 ELCO.      2500               :Electron Cutoff
 CASL.IN    4                  :Casing Logger
 LOTD.FT                       :Logger TD
 ARTM.                         :Arrival Time
 DPTM.                         :Departure Time
 RIGN.                         :Rig Number
~Other Information
#MNEM.UNIT  Information      Description
#---------- ---------------  ------------------------
# -------------------------- 
~A DEPTH  GAMMA    RES      SP    
# ...
 354.090     33.9    184.7  271.3 
 354.110     33.9    186.0  271.3 
 354.130     33.9    186.0  271.3 
 354.150     33.9    186.0  271.3 
 354.170     33.9    184.7  269.5 
 354.190     66.8    184.7  269.5 
 354.210     66.8    184.7  269.5 
 354.230     66.8    187.3  269.5 
 354.250     99.7    187.3  269.5 
 354.270     99.7    187.3  269.5 
 354.290     33.9    187.3  267.7 
 354.310     33.9    187.3  267.7 
 354.330     33.9    186.0  267.7 
 354.350     33.9    186.0  267.7 
 354.370     33.9    186.0  267.7 
 354.390     33.9    186.0  267.7 
 354.410     33.9    186.0  267.7 
 354.430     33.9    186.0  267.7 
 354.450     33.9    186.0  267.7 
 354.470      1.0    186.0  267.7 
 354.490      1.0    187.3  267.7 
 354.510     66.8    187.3  267.7 
 354.530     66.8    187.3  267.7 
 354.550     66.8    188.6  267.7 
 354.570     33.9    188.6  267.7 
 354.590     33.9    188.6  267.7 
 354.610     33.9    191.1  267.7 
 354.630     66.8    191.1  267.7 
 354.650     66.8    191.1  267.7 
 354.670     66.8    191.1  267.7 
 354.690     66.8    191.1  267.7 
 354.710     66.8    191.1  267.7 
 354.730     66.8    191.1  267.7 
 354.750     66.8    191.1  267.7 
 354.770     66.8    191.1  269.5 
 354.790     66.8    191.1  269.5 
 354.810     66.8    191.1  267.7 
 354.830     33.9    191.1  267.7 
 354.850     33.9    191.1  267.7 
 354.870     33.9    191.1  269.5 
 354.890      1.0    191.1  269.5 
 354.910      1.0    191.1  269.5 
 354.930      1.0    191.1  267.7 
 354.950      1.0    191.1  267.7 
 354.970      1.0    189.8  269.5 
 354.990     99.7    189.8  269.5 
 355.010     99.7    189.8  269.5 
 355.030     99.7    189.8  269.5 
 355.050     33.9    189.8  269.5 
 355.070     33.9    189.8  269.5 
 355.090     33.9    189.8  267.7 
 355.110     33.9    189.8  267.7 
 355.130     33.9    189.8  267.7 
 355.150     66.8    188.6  267.7 
 355.170     66.8    188.6  267.7 
 355.190     66.8    188.6  267.7 
 355.210     66.8    188.6  267.7 
 355.230     66.8    188.6  267.7 
 355.250     66.8    188.6  267.7 
 355.270     66.8    188.6  267.7 
 355.290     66.8    188.6  267.7 
 355.310     66.8    188.6  267.7 
 355.330     33.9    188.6  267.7 
 355.350     33.9    188.6  267.7 
 355.370      1.0    188.6  267.7 
 355.390      1.0    188.6  267.7 
 355.410      1.0    188.6  266.0 
 355.430     33.9    188.6  266.0 
 355.450     33.9    188.6  266.0 
 355.470     33.9    187.3  266.0 
 355.490     66.8    187.3  266.0 
 355.510     66.8    187.3  266.0 
 355.530     66.8    188.6  266.0 
 355.550     66.8    188.6  266.0 
 355.570     66.8    188.6  266.0 
 355.590     66.8    188.6  266.0 
 355.610     66.8    188.6  266.0 
 355.630     66.8    189.8  266.0 
 355.650     99.7    189.8  266.0 
 355.670     99.7    189.8  266.0 
 355.690     66.8    189.8  264.2 
 355.710     66.8    189.8  264.2 
 355.730     66.8    191.1  264.2 
 355.750      1.0    191.1  264.2 
 355.770      1.0    191.1  264.2 
 355.790      1.0    191.1  262.4 
 355.810    198.5    191.1  262.4 
 355.830    198.5    191.1  262.4 
 355.850    198.5    193.7  262.4 
 355.870     66.8    193.7  262.4 
 355.890     66.8    193.7  262.4 
 355.910     66.8    193.7  262.4 
 355.930     66.8    193.7  262.4 
 355.950     66.8    197.5  260.6 
 355.970     33.9    197.5  260.6 
 355.990     33.9    197.5  260.6 
 356.010     33.9    197.5  258.9 
 356.030     99.7    197.5  258.9 
 356.050     99.7    198.8  260.6 
 356.070     33.9    198.8  260.6 
 356.090     33.9    198.8  260.6 
 356.110     33.9    200.1  258.9 
 356.130    132.7    200.1  258.9 
 356.150    132.7    200.1  258.9 
 356.170    132.7    202.7  258.9 
 356.190     33.9    202.7  258.9 
 356.210     33.9    202.7  258.9 
 356.230     99.7    202.7  257.1 
 356.250     99.7    202.7  257.1 
 356.270     99.7    202.7  257.1 
 356.290      1.0    202.7  257.1 
 356.310      1.0    202.7  257.1 
 356.330      1.0    204.0  258.9 
 356.350     66.8    204.0  258.9 
 356.370     66.8    204.0  258.9 
 356.390      1.0    205.2  257.1 
 356.410      1.0    205.2  257.1 
 356.430      1.0    205.2  257.1 
 356.450     33.9    205.2  257.1 
 356.470     33.9    205.2  257.1 
 356.490     33.9    205.2  257.1 
 356.510    132.7    205.2  257.1 
 356.530    132.7    205.2  257.1 
 356.550    132.7    206.5  258.9 
 356.570      1.0    206.5  258.9 
 356.590      1.0    205.2  257.1 
 356.610     33.9    205.2  257.1 
 356.630     33.9    205.2  257.1 
 356.650     33.9    207.8  257.1 
 356.670      1.0    207.8  257.1 
 356.690      1.0    207.8  257.1 
 356.710      1.0    205.2  258.9 
 356.730      1.0    205.2  258.9 
 356.750      1.0    205.2  258.9 
 356.770     66.8    206.5  257.1 
 356.790     66.8    206.5  257.1 
 356.810     66.8    205.2  258.9 
 356.830     33.9    205.2  258.9 
 356.850     33.9    205.2  258.9 
 356.870     33.9    205.2  257.1 
 356.890     33.9    205.2  257.1 
 356.910     33.9    205.2  257.1 
 356.930     33.9    204.0  258.9 
 356.950     66.8    204.0  258.9 
 356.970     66.8    204.0  258.9 
 356.990     99.7    204.0  258.9 
 357.010     99.7    204.0  258.9 
 357.030     99.7    202.7  258.9 
 357.050     66.8    202.7  258.9 
 357.070     66.8    202.7  258.9 
 357.090     66.8    202.7  260.6 
 357.110     66.8    202.7  260.6 
 357.130     66.8    202.7  260.6 
 357.150      1.0    202.7  260.6 
 357.170      1.0    202.7  260.6 
 357.190      1.0    201.4  262.4 
 357.210      1.0    201.4  262.4 
 357.230      1.0    201.4  262.4 
 357.250      1.0    198.8  264.2 
 357.270     66.8    198.8  264.2 
 357.290     66.8    197.5  264.2 
 357.310      1.0    197.5  264.2 
 357.330      1.0    197.5  264.2 
 357.350      1.0    196.3  266.0 
 357.370    132.7    196.3  266.0 
 357.390    132.7    196.3  266.0 
 357.410    132.7    195.0  266.0 
 357.430     66.8    195.0  266.0 
 357.450     66.8    195.0  266.0 
 357.470     33.9    192.4  267.7 
 357.490     33.9    192.4  267.7 
 357.510     33.9    189.8  269.5 
 357.530     33.9    189.8  269.5 
 357.550     33.9    189.8  269.5 
 357.570     33.9    187.3  271.3 
 357.590    132.7    187.3  271.3 
 357.610    132.7    187.3  271.3 
 357.630    132.7    186.0  269.5 
 357.650      1.0    186.0  269.5 
 357.670      1.0    183.4  271.3 
 357.690     66.8    183.4  271.3 
 357.710     66.8    183.4  271.3 
 357.730     66.8    180.9  273.0 
 357.750      1.0    180.9  273.0 
 357.770      1.0    180.9  273.0 
 357.790      1.0    179.6  271.3 
 357.810      1.0    179.6  271.3 
 357.830      1.0    179.6  271.3 
 357.850    132.7    178.3  271.3 
 357.870    132.7    178.3  271.3 
 357.890    132.7    178.3  271.3 
 357.910     33.9    178.3  271.3 
 357.930     33.9    178.3  271.3 
 357.950     33.9    177.0  271.3 
 357.970     33.9    177.0  271.3 
 357.990     33.9    177.0  271.3 
 358.010     99.7    178.3  271.3 
 358.030     99.7    178.3  271.3 
 358.050     99.7    178.3  271.3 
 358.070     99.7    178.3  271.3 
 358.090     99.7    178.3  271.3 
 358.110     99.7    178.3  271.3 
 358.130    132.7    178.3  271.3 
 358.150    132.7    178.3  271.3 
 358.170    132.7    177.0  271.3 
 358.190     33.9    177.0  271.3 
 358.210     33.9    178.3  273.0 
 358.230    132.7    178.3  273.0 
 358.250    132.7    178.3  273.0 
 358.270    132.7    178.3  273.0 
 358.290     33.9    178.3  273.0 
 358.310     33.9    178.3  273.0 
 358.330     33.9    177.0  273.0 
 358.350     33.9    177.0  273.0 
 358.370     33.9    177.0  274.8 
 358.390     66.8    177.0  274.8 
 358.410     66.8    177.0  274.8 
 358.430     66.8    175.7  274.8 
 358.450     66.8    175.7  274.8 
 358.470     66.8    175.7  274.8 
 358.490     66.8    175.7  276.6 
 358.510     66.8    175.7  276.6 
 358.530     66.8    175.7  276.6 
 358.550     99.7    173.2  276.6 
 358.570     99.7    173.2  276.6 
 358.590     99.7    173.2  278.4 
 358.610    165.6    173.2  278.4 
 358.630    165.6    173.2  278.4 
 358.650    165.6    170.6  278.4 
