~Version Information
 VERS.                2.0:  CWLS LOG ASCII STANDARD -VERSION 2.0
 WRAP.                 NO:  ONE LINE PER DEPTH STEP
~WELL INFORMATION BLOCK
#MNEM.UNIT       DATA		            DESCRIPTION OF MNEMONIC
#---------    -------------            ------------------------
 STRT.FT  6.030                          :START DEPTH
 STOP.FT  530.850                        :STOP DEPTH
 STEP.FT  0.020                          :STEP    UP_HOLE  
 NULL.    -999.25                        :NULL VALUE
 COMP.    CARLTON G1                     :COMPANY
 WELL.    279453                                                       :WELL
 FLD .    71-B NORTHFIELD                :FIELD\LOCATION
 LOC .    31    112   19                 :LOCATION
 CNTY.    RICE                           :COUNTY
 STAT.    CACCCA                         :STATE
 CTRY.    USA                            :COUNTRY
 SRVC.    TRUCK                          :SERVICE COMPANY
 DATE.    08/29/2018                     :LOG DATE
 API .                                       :API NUMBER
 LIC .                                   :LICENSE NUMBER
~Curve Information Block
#MNEM.UNIT      API CODE     Curve Description
#---------    -------------  ------------------------
 DEPT     .FT        00 001 00 00          :  1  DEPTH   
 GAMMA    .API-GR    00 310 00 00          :  2  GAMMA RAY           
 RES      .OHM       00 000 00 00          :  3  SINGLE POINT RES    
 SP       .MV        00 010 00 00          :  4  SPON POTENTIAL      
~Parameter Information Block
#MNEM.UNIT   Information     Description
#---------- ---------------  ------------------------
 FILE.      PROCESSED          :File Type
 FIID.      9060A              :File Type Identifier
 VERS.      3.60Q              :System Version
 SER .      1                  :System Serial Number
 TRUK.      0.0                :Truck Calibration Number
 TOOL.         202             :Tool Serial Number
 TIME.      1055               :Time    HrHrMinMin
 LAT .                         :Latitude
 LON .                         :Longitude
 LMF .                         :Log Measured From
 DMF .                         :Driller Measured From
 PD  .                         :Permanent Data
 PDEV.FT                       :Elevation Permanent Data
 EKB .FT                       :Elevation Kelly Bushing
 ELEV.FT                       :Elevation DF
 EGL .FT    944 L1             :Elevation Ground Level
 DRDP.FT    27                 :Driller's Depth
 CASD.FT    5.5                :Casing Diameter
 CASB.FT                       :Casing Bottom
 CASX.                         :Casing Type
 CAST.IN    0                  :Casing Thickness
 TNOC.                         :Time Circulation Stopped
 LOGU.                         :Logging Unit
 RECB.      CICHA              :Recorded By
 OSR1.                         :Other Services
 OSR2.                         :Other Services
 OSR3.                         :Other Services
 BS  .IN           6           :Bit Size
 MST .F                        :Mean Surface Temperature
 TGRD.F     0                  :Temperature Gradiant
 MAGN.      0                  :Magnetic Declination
 MDEN.      2.84               :Density Matrix
 MATR.      DOLOMITE           :Neutron Matrix
 DTMT.      44                 :Delta T Matrix
 DTFL.                         :Delta T Fluid
 MUDS.      0                  :Mud Sample Source
 MRS .      0                  :Mud Resistivity
 MTP .      0                  :Mud Temperature
 MFRS.                         :Resistivity Mud Filtrate
 MFTP.                         :Temperature Mud Filtrate
 MCRS.      0                  :Resistivity Mud Cake
 MCTP.                         :Temperature Mud Cake
 FTYP.      0                  :Fluid Type
 FD  .LB/G     0               :Mud Weight
 DFV .S                        :Fluid Viscosity
 FPH .                         :Fuild PH
 ELCO.      2500               :Electron Cutoff
 CASL.IN    4                  :Casing Logger
 LOTD.FT                       :Logger TD
 ARTM.                         :Arrival Time
 DPTM.                         :Departure Time
 RIGN.                         :Rig Number
~Other Information
#MNEM.UNIT  Information      Description
#---------- ---------------  ------------------------
# -------------------------- 
~A DEPTH  GAMMA    RES      SP    
# ...
 285.390     66.8    183.4  257.1 
 285.410     66.8    183.4  257.1 
 285.430     66.8    183.4  257.1 
 285.450      1.0    183.4  257.1 
 285.470      1.0    183.4  257.1 
 285.490      1.0    183.4  257.1 
 285.510      1.0    183.4  257.1 
 285.530      1.0    180.9  258.9 
 285.550      1.0    180.9  258.9 
 285.570      1.0    180.9  258.9 
 285.590      1.0    179.6  258.9 
 285.610      1.0    179.6  258.9 
 285.630      1.0    179.6  258.9 
 285.650     66.8    178.3  260.6 
 285.670     66.8    178.3  260.6 
 285.690     66.8    175.7  260.6 
 285.710     33.9    175.7  260.6 
 285.730     33.9    175.7  260.6 
 285.750     33.9    175.7  260.6 
 285.770      1.0    175.7  260.6 
 285.790      1.0    175.7  260.6 
 285.810      1.0    173.2  260.6 
 285.830      1.0    173.2  260.6 
 285.850      1.0    173.2  262.4 
 285.870      1.0    173.2  262.4 
 285.890      1.0    173.2  262.4 
 285.910      1.0    170.6  262.4 
 285.930      1.0    170.6  262.4 
 285.950      1.0    170.6  262.4 
 285.970      1.0    169.3  264.2 
 285.990      1.0    169.3  264.2 
 286.010      1.0    169.3  264.2 
 286.030     33.9    169.3  264.2 
 286.050     33.9    169.3  264.2 
 286.070     33.9    166.7  266.0 
 286.090      1.0    166.7  266.0 
 286.110      1.0    166.7  266.0 
 286.130      1.0    165.5  264.2 
 286.150     33.9    165.5  264.2 
 286.170     33.9    164.2  266.0 
 286.190     33.9    164.2  266.0 
 286.210      1.0    164.2  266.0 
 286.230      1.0    162.9  266.0 
 286.250     33.9    162.9  266.0 
 286.270     33.9    162.9  266.0 
 286.290     33.9    161.6  266.0 
 286.310     33.9    161.6  266.0 
 286.330     33.9    161.6  266.0 
 286.350     33.9    160.3  266.0 
 286.370      1.0    160.3  266.0 
 286.390      1.0    160.3  264.2 
 286.410      1.0    160.3  264.2 
 286.430      1.0    160.3  264.2 
 286.450      1.0    157.8  266.0 
 286.470     33.9    157.8  266.0 
 286.490     33.9    157.8  266.0 
 286.510     33.9    159.0  264.2 
 286.530     33.9    159.0  264.2 
 286.550     33.9    157.8  264.2 
 286.570     66.8    157.8  264.2 
 286.590     66.8    157.8  264.2 
 286.610     66.8    159.0  262.4 
 286.630      1.0    159.0  262.4 
 286.650      1.0    159.0  262.4 
 286.670      1.0    160.3  264.2 
 286.690     33.9    160.3  264.2 
 286.710     33.9    160.3  264.2 
 286.730     33.9    160.3  262.4 
 286.750     99.7    160.3  262.4 
 286.770     99.7    161.6  260.6 
 286.790      1.0    161.6  260.6 
 286.810      1.0    161.6  260.6 
 286.830      1.0    162.9  260.6 
 286.850     33.9    162.9  260.6 
 286.870     33.9    162.9  260.6 
 286.890     33.9    164.2  260.6 
 286.910     66.8    164.2  260.6 
 286.930     66.8    165.5  260.6 
 286.950      1.0    165.5  260.6 
 286.970      1.0    165.5  260.6 
 286.990      1.0    166.7  260.6 
 287.010     66.8    166.7  260.6 
 287.030     66.8    166.7  260.6 
 287.050     66.8    168.0  258.9 
 287.070     99.7    168.0  258.9 
 287.090     99.7    168.0  258.9 
 287.110     99.7    168.0  258.9 
 287.130     66.8    168.0  258.9 
 287.150     66.8    170.6  257.1 
 287.170      1.0    170.6  257.1 
 287.190      1.0    170.6  257.1 
 287.210      1.0    170.6  255.3 
 287.230     33.9    170.6  255.3 
 287.250     33.9    170.6  255.3 
 287.270     33.9    171.9  257.1 
 287.290     33.9    171.9  257.1 
 287.310     33.9    171.9  253.6 
 287.330      1.0    171.9  253.6 
 287.350      1.0    171.9  253.6 
 287.370      1.0    174.4  253.6 
 287.390     33.9    174.4  253.6 
 287.410     33.9    174.4  253.6 
 287.430     33.9    174.4  255.3 
 287.450     33.9    174.4  255.3 
 287.470     33.9    177.0  251.8 
 287.490     66.8    177.0  251.8 
 287.510     66.8    177.0  251.8 
 287.530     66.8    178.3  253.6 
 287.550      1.0    178.3  253.6 
 287.570      1.0    178.3  253.6 
 287.590      1.0    178.3  253.6 
 287.610     66.8    178.3  253.6 
 287.630     66.8    178.3  253.6 
 287.650     33.9    180.9  253.6 
 287.670     33.9    180.9  253.6 
 287.690     33.9    180.9  251.8 
 287.710     66.8    180.9  251.8 
 287.730     66.8    180.9  251.8 
 287.750     66.8    182.1  251.8 
 287.770      1.0    182.1  251.8 
 287.790      1.0    182.1  251.8 
 287.810      1.0    182.1  251.8 
 287.830     66.8    182.1  251.8 
 287.850     66.8    182.1  251.8 
 287.870     33.9    182.1  251.8 
 287.890     33.9    182.1  251.8 
 287.910     33.9    182.1  253.6 
 287.930     66.8    182.1  253.6 
 287.950     66.8    182.1  253.6 
 287.970     66.8    183.4  251.8 
 287.990    132.7    183.4  251.8 
 288.010    132.7    183.4  251.8 
 288.030     33.9    182.1  251.8 
 288.050     33.9    182.1  251.8 
 288.070     33.9    182.1  251.8 
 288.090     66.8    182.1  251.8 
 288.110     66.8    182.1  251.8 
 288.130     66.8    182.1  253.6 
 288.150     66.8    182.1  253.6 
 288.170     66.8    182.1  253.6 
 288.190     66.8    182.1  251.8 
 288.210     33.9    182.1  251.8 
 288.230     33.9    182.1  251.8 
 288.250     99.7    182.1  251.8 
 288.270     99.7    182.1  251.8 
 288.290     99.7    182.1  251.8 
 288.310      1.0    182.1  251.8 
 288.330      1.0    182.1  251.8 
 288.350      1.0    182.1  251.8 
 288.370     33.9    182.1  251.8 
 288.390     33.9    180.9  253.6 
 288.410      1.0    180.9  253.6 
 288.430      1.0    180.9  253.6 
 288.450      1.0    180.9  251.8 
 288.470      1.0    180.9  251.8 
 288.490      1.0    180.9  251.8 
 288.510      1.0    182.1  253.6 
 288.530      1.0    182.1  253.6 
 288.550      1.0    179.6  253.6 
 288.570      1.0    179.6  253.6 
 288.590      1.0    179.6  253.6 
 288.610      1.0    180.9  253.6 
 288.630      1.0    180.9  253.6 
 288.650      1.0    180.9  253.6 
 288.670      1.0    179.6  251.8 
 288.690     33.9    179.6  251.8 
 288.710     33.9    179.6  251.8 
 288.730     33.9    179.6  255.3 
 288.750      1.0    179.6  255.3 
 288.770      1.0    178.3  253.6 
 288.790      1.0    178.3  253.6 
 288.810      1.0    178.3  253.6 
 288.830      1.0    179.6  253.6 
 288.850      1.0    179.6  253.6 
 288.870      1.0    179.6  253.6 
 288.890      1.0    177.0  255.3 
 288.910     33.9    177.0  255.3 
 288.930     33.9    177.0  255.3 
 288.950      1.0    177.0  255.3 
 288.970      1.0    177.0  255.3 
 288.990      1.0    175.7  255.3 
 289.010     33.9    175.7  255.3 
 289.030     33.9    175.7  255.3 
 289.050     33.9    175.7  257.1 
 289.070      1.0    175.7  257.1 
 289.090      1.0    175.7  257.1 
 289.110      1.0    174.4  255.3 
 289.130      1.0    174.4  255.3 
 289.150      1.0    174.4  255.3 
 289.170      1.0    174.4  255.3 
 289.190      1.0    174.4  255.3 
 289.210      1.0    173.2  257.1 
 289.230      1.0    173.2  257.1 
 289.250      1.0    173.2  257.1 
 289.270      1.0    171.9  257.1 
 289.290      1.0    171.9  257.1 
 289.310      1.0    170.6  257.1 
 289.330      1.0    170.6  257.1 
 289.350      1.0    170.6  257.1 
 289.370      1.0    171.9  257.1 
 289.390      1.0    171.9  257.1 
 289.410      1.0    171.9  257.1 
 289.430      1.0    169.3  257.1 
 289.450     33.9    169.3  257.1 
 289.470     33.9    169.3  257.1 
 289.490     33.9    170.6  258.9 
 289.510     66.8    170.6  258.9 
 289.530     66.8    169.3  257.1 
 289.550     66.8    169.3  257.1 
 289.570     66.8    169.3  257.1 
 289.590     66.8    168.0  257.1 
 289.610     33.9    168.0  257.1 
 289.630     33.9    168.0  257.1 
 289.650     33.9    169.3  258.9 
 289.670      1.0    169.3  258.9 
 289.690      1.0    168.0  258.9 
 289.710      1.0    168.0  258.9 
 289.730      1.0    168.0  258.9 
 289.750      1.0    168.0  258.9 
 289.770     33.9    168.0  258.9 
 289.790     33.9    168.0  258.9 
 289.810     33.9    166.7  260.6 
 289.830     33.9    166.7  260.6 
 289.850     33.9    166.7  260.6 
 289.870     33.9    166.7  260.6 
 289.890     33.9    166.7  260.6 
 289.910     33.9    166.7  260.6 
 289.930      1.0    166.7  260.6 
 289.950      1.0    166.7  260.6 
