~Version Information
 VERS.                2.0:  CWLS LOG ASCII STANDARD -VERSION 2.0
 WRAP.                 NO:  ONE LINE PER DEPTH STEP
~WELL INFORMATION BLOCK
#MNEM.UNIT       DATA		            DESCRIPTION OF MNEMONIC
#---------    -------------            ------------------------
 STRT.FT  9.050                          :START DEPTH
 STOP.FT  527.030                        :STOP DEPTH
 STEP.FT  0.020                          :STEP    UP_HOLE  
 NULL.    -999.25                        :NULL VALUE
 COMP.    CARLETON HL  F-18  - GAMMA     :COMPANY
 WELL.    279454                                                       :WELL
 FLD .    NORTHFIELD 71-B                :FIELD\LOCATION
 LOC .    31    112   19                 :LOCATION
 CNTY.    RICE                           :COUNTY
 STAT.    CACCDA                         :STATE
 CTRY.    USA                            :COUNTRY
 SRVC.    TRUCK                          :SERVICE COMPANY
 DATE.    08/31/2018                     :LOG DATE
 API .                                       :API NUMBER
 LIC .                                   :LICENSE NUMBER
~Curve Information Block
#MNEM.UNIT      API CODE     Curve Description
#---------    -------------  ------------------------
 DEPT     .FT        00 001 00 00          :  1  DEPTH   
 GAMMA    .API-GR    00 310 00 00          :  2  GAMMA RAY           
 RES      .OHM       00 000 00 00          :  3  SINGLE POINT RES    
 SP       .MV        00 010 00 00          :  4  SPON POTENTIAL      
~Parameter Information Block
#MNEM.UNIT   Information     Description
#---------- ---------------  ------------------------
 FILE.      PROCESSED          :File Type
 FIID.      9060A              :File Type Identifier
 VERS.      3.60Q              :System Version
 SER .      1                  :System Serial Number
 TRUK.      0.0                :Truck Calibration Number
 TOOL.         202             :Tool Serial Number
 TIME.      1019               :Time    HrHrMinMin
 LAT .                         :Latitude
 LON .                         :Longitude
 LMF .                         :Log Measured From
 DMF .                         :Driller Measured From
 PD  .                         :Permanent Data
 PDEV.FT                       :Elevation Permanent Data
 EKB .FT                       :Elevation Kelly Bushing
 ELEV.FT                       :Elevation DF
 EGL .FT     941.16            :Elevation Ground Level
 DRDP.FT    25                 :Driller's Depth
 CASD.FT    6                  :Casing Diameter
 CASB.FT    25                 :Casing Bottom
 CASX.                         :Casing Type
 CAST.IN    0                  :Casing Thickness
 TNOC.                         :Time Circulation Stopped
 LOGU.                         :Logging Unit
 RECB.      TIPPING            :Recorded By
 OSR1.                         :Other Services
 OSR2.                         :Other Services
 OSR3.                         :Other Services
 BS  .IN           6           :Bit Size
 MST .F                        :Mean Surface Temperature
 TGRD.F     0                  :Temperature Gradiant
 MAGN.      0                  :Magnetic Declination
 MDEN.      2.84               :Density Matrix
 MATR.      DOLOMITE           :Neutron Matrix
 DTMT.      44                 :Delta T Matrix
 DTFL.                         :Delta T Fluid
 MUDS.      0                  :Mud Sample Source
 MRS .      0                  :Mud Resistivity
 MTP .      0                  :Mud Temperature
 MFRS.                         :Resistivity Mud Filtrate
 MFTP.                         :Temperature Mud Filtrate
 MCRS.      0                  :Resistivity Mud Cake
 MCTP.                         :Temperature Mud Cake
 FTYP.      0                  :Fluid Type
 FD  .LB/G     0               :Mud Weight
 DFV .S                        :Fluid Viscosity
 FPH .                         :Fuild PH
 ELCO.      2500               :Electron Cutoff
 CASL.IN    4                  :Casing Logger
 LOTD.FT                       :Logger TD
 ARTM.                         :Arrival Time
 DPTM.                         :Departure Time
 RIGN.                         :Rig Number
~Other Information
#MNEM.UNIT  Information      Description
#---------- ---------------  ------------------------
# -------------------------- 
~A DEPTH  GAMMA    RES      SP    
# ...
 489.930     99.7    127.0  150.9 
 489.950     99.7    128.2  150.9 
 489.970     33.9    128.2  150.9 
 489.990     33.9    128.2  149.1 
 490.010     99.7    128.2  149.1 
 490.030     99.7    128.2  149.1 
 490.050    132.7    128.2  149.1 
 490.070    165.6    128.2  149.1 
 490.090    165.6    128.2  147.3 
 490.110    231.4    128.2  147.3 
 490.130    231.4    128.2  147.3 
 490.150     99.7    128.2  147.3 
 490.170    165.6    128.2  147.3 
 490.190    165.6    129.5  145.6 
 490.210    165.6    129.5  145.6 
 490.230    165.6    130.8  145.6 
 490.250     99.7    132.1  145.6 
 490.270     99.7    132.1  145.6 
 490.290    132.7    133.4  145.6 
 490.310     66.8    133.4  145.6 
 490.330     66.8    134.7  145.6 
 490.350    132.7    134.7  143.8 
 490.370    132.7    134.7  143.8 
 490.390    198.5    137.2  145.6 
 490.410     99.7    137.2  145.6 
 490.430     99.7    137.2  145.6 
 490.450    165.6    137.2  145.6 
 490.470    165.6    138.5  143.8 
 490.490    132.7    139.8  145.6 
 490.510    132.7    139.8  145.6 
 490.530     33.9    139.8  143.8 
 490.550    165.6    139.8  143.8 
 490.570    165.6    142.4  143.8 
 490.590    132.7    142.4  143.8 
 490.610    132.7    142.4  143.8 
 490.630     99.7    144.9  143.8 
 490.650      1.0    144.9  143.8 
 490.670      1.0    144.9  143.8 
 490.690     99.7    144.9  143.8 
 490.710     99.7    146.2  143.8 
 490.730     66.8    147.5  143.8 
 490.750     66.8    147.5  143.8 
 490.770     66.8    148.8  143.8 
 490.790     99.7    148.8  143.8 
 490.810     99.7    150.1  145.6 
 490.830    165.6    151.3  145.6 
 490.850    165.6    151.3  145.6 
 490.870     66.8    152.6  145.6 
 490.890     66.8    152.6  145.6 
 490.910     66.8    151.3  147.3 
 490.930    165.6    151.3  147.3 
 490.950    165.6    151.3  145.6 
 490.970    165.6    151.3  145.6 
 490.990    165.6    151.3  145.6 
 491.010    165.6    148.8  145.6 
 491.030    198.5    148.8  145.6 
 491.050    198.5    148.8  145.6 
 491.070     66.8    146.2  143.8 
 491.090     66.8    146.2  143.8 
 491.110    165.6    146.2  145.6 
 491.130    165.6    146.2  145.6 
 491.150    165.6    144.9  145.6 
 491.170    132.7    144.9  145.6 
 491.190    132.7    143.6  143.8 
 491.210     66.8    143.6  143.8 
 491.230     66.8    143.6  143.8 
 491.250     33.9    142.4  143.8 
 491.270     99.7    142.4  143.8 
 491.290     99.7    142.4  143.8 
 491.310     33.9    142.4  142.0 
 491.330     33.9    142.4  142.0 
 491.350     33.9    143.6  143.8 
 491.370    132.7    143.6  143.8 
 491.390    132.7    142.4  142.0 
 491.410    198.5    142.4  142.0 
 491.430    198.5    142.4  142.0 
 491.450     99.7    143.6  140.2 
 491.470     99.7    143.6  140.2 
 491.490     99.7    142.4  140.2 
 491.510     66.8    142.4  140.2 
 491.530     66.8    143.6  140.2 
 491.550     66.8    143.6  140.2 
 491.570     66.8    143.6  140.2 
 491.590    198.5    143.6  138.5 
 491.610     33.9    143.6  138.5 
 491.630     33.9    143.6  140.2 
 491.650     66.8    144.9  138.5 
 491.670     66.8    144.9  138.5 
 491.690     99.7    144.9  138.5 
 491.710     66.8    144.9  138.5 
 491.730     66.8    144.9  138.5 
 491.750     99.7    144.9  138.5 
 491.770     99.7    144.9  140.2 
 491.790     33.9    146.2  138.5 
 491.810     33.9    146.2  138.5 
 491.830    165.6    146.2  136.7 
 491.850    132.7    146.2  136.7 
 491.870    132.7    146.2  138.5 
 491.890     33.9    146.2  138.5 
 491.910     33.9    146.2  138.5 
 491.930    165.6    147.5  136.7 
 491.950     66.8    147.5  136.7 
 491.970     66.8    147.5  138.5 
 491.990    231.4    147.5  138.5 
 492.010    231.4    147.5  136.7 
 492.030    165.6    148.8  136.7 
 492.050    165.6    148.8  136.7 
 492.070     33.9    148.8  138.5 
 492.090      1.0    148.8  138.5 
 492.110      1.0    150.1  136.7 
 492.130     66.8    150.1  136.7 
 492.150     66.8    150.1  136.7 
 492.170    165.6    150.1  136.7 
 492.190    132.7    150.1  136.7 
 492.210    132.7    151.3  136.7 
 492.230    231.4    151.3  136.7 
 492.250    231.4    151.3  136.7 
 492.270    132.7    152.6  136.7 
 492.290    132.7    152.6  136.7 
 492.310     99.7    153.9  136.7 
 492.330    264.3    153.9  136.7 
 492.350    264.3    153.9  134.9 
 492.370    132.7    153.9  134.9 
 492.390    132.7    152.6  136.7 
 492.410    165.6    153.9  136.7 
 492.430    165.6    153.9  136.7 
 492.450    165.6    152.6  136.7 
 492.470     66.8    152.6  136.7 
 492.490     66.8    152.6  134.9 
 492.510     99.7    152.6  136.7 
 492.530     99.7    152.6  136.7 
 492.550    198.5    152.6  134.9 
 492.570    132.7    152.6  134.9 
 492.590    132.7    151.3  134.9 
 492.610    132.7    152.6  136.7 
 492.630    132.7    152.6  136.7 
 492.650    132.7    151.3  134.9 
 492.670     99.7    151.3  134.9 
 492.690     99.7    151.3  133.2 
 492.710    132.7    151.3  133.2 
 492.730    132.7    151.3  134.9 
 492.750     33.9    151.3  134.9 
 492.770     33.9    151.3  134.9 
 492.790     99.7    151.3  133.2 
 492.810     33.9    151.3  133.2 
 492.830     33.9    152.6  133.2 
 492.850     66.8    153.9  134.9 
 492.870     66.8    153.9  134.9 
 492.890     66.8    153.9  133.2 
 492.910    165.6    153.9  133.2 
 492.930    165.6    155.2  133.2 
 492.950     99.7    155.2  133.2 
 492.970     99.7    155.2  133.2 
 492.990    198.5    156.5  133.2 
 493.010     33.9    156.5  133.2 
 493.030     33.9    159.0  133.2 
 493.050     66.8    159.0  133.2 
 493.070     66.8    159.0  133.2 
 493.090     66.8    161.6  134.9 
 493.110     66.8    161.6  134.9 
 493.130      1.0    162.9  134.9 
 493.150     66.8    162.9  134.9 
 493.170     66.8    162.9  133.2 
 493.190    132.7    162.9  133.2 
 493.210    132.7    162.9  134.9 
 493.230     66.8    162.9  134.9 
 493.250     99.7    162.9  134.9 
 493.270     99.7    161.6  133.2 
 493.290    132.7    161.6  133.2 
 493.310    132.7    161.6  134.9 
 493.330     66.8    160.3  133.2 
 493.350     66.8    160.3  133.2 
 493.370    132.7    157.8  134.9 
 493.390     33.9    157.8  134.9 
 493.410     33.9    157.8  133.2 
 493.430     66.8    157.8  133.2 
 493.450     66.8    153.9  133.2 
 493.470     33.9    153.9  133.2 
 493.490     33.9    153.9  133.2 
 493.510     99.7    151.3  131.4 
 493.530    132.7    151.3  131.4 
 493.550    132.7    148.8  131.4 
 493.570     99.7    148.8  131.4 
 493.590     99.7    148.8  131.4 
 493.610     66.8    148.8  131.4 
 493.630    165.6    148.8  131.4 
 493.650    165.6    147.5  131.4 
 493.670      1.0    147.5  131.4 
 493.690      1.0    147.5  129.6 
 493.710    165.6    147.5  131.4 
 493.730    165.6    147.5  131.4 
 493.750    165.6    148.8  129.6 
 493.770     66.8    148.8  129.6 
 493.790     66.8    148.8  131.4 
 493.810     33.9    150.1  131.4 
 493.830     33.9    150.1  131.4 
 493.850     99.7    150.1  131.4 
 493.870    198.5    150.1  131.4 
 493.890    198.5    150.1  133.2 
 493.910    132.7    151.3  131.4 
 493.930    132.7    151.3  131.4 
 493.950     66.8    151.3  133.2 
 493.970     66.8    151.3  133.2 
 493.990     66.8    151.3  133.2 
 494.010    132.7    151.3  133.2 
 494.030    132.7    150.1  131.4 
 494.050     99.7    150.1  133.2 
 494.070     99.7    150.1  133.2 
 494.090    132.7    150.1  133.2 
 494.110     66.8    150.1  133.2 
 494.130     66.8    148.8  133.2 
 494.150     66.8    148.8  133.2 
 494.170     66.8    148.8  133.2 
 494.190     99.7    148.8  133.2 
 494.210     99.7    148.8  133.2 
 494.230     99.7    148.8  133.2 
 494.250     66.8    148.8  133.2 
 494.270     66.8    150.1  133.2 
 494.290     66.8    148.8  134.9 
 494.310     33.9    148.8  134.9 
 494.330     33.9    148.8  133.2 
 494.350    132.7    148.8  133.2 
 494.370    132.7    148.8  131.4 
 494.390     99.7    148.8  131.4 
 494.410     99.7    150.1  133.2 
 494.430      1.0    150.1  133.2 
 494.450     33.9    150.1  133.2 
 494.470     33.9    150.1  131.4 
 494.490     99.7    150.1  131.4 
