~Version Information
 VERS.                2.0:  CWLS LOG ASCII STANDARD -VERSION 2.0
 WRAP.                 NO:  ONE LINE PER DEPTH STEP
~WELL INFORMATION BLOCK
#MNEM.UNIT       DATA		            DESCRIPTION OF MNEMONIC
#---------    -------------            ------------------------
 STRT.FT  6.030                          :START DEPTH
 STOP.FT  530.850                        :STOP DEPTH
 STEP.FT  0.020                          :STEP    UP_HOLE  
 NULL.    -999.25                        :NULL VALUE
 COMP.    CARLTON G1                     :COMPANY
 WELL.    279453                                                       :WELL
 FLD .    71-B NORTHFIELD                :FIELD\LOCATION
 LOC .    31    112   19                 :LOCATION
 CNTY.    RICE                           :COUNTY
 STAT.    CACCCA                         :STATE
 CTRY.    USA                            :COUNTRY
 SRVC.    TRUCK                          :SERVICE COMPANY
 DATE.    08/29/2018                     :LOG DATE
 API .                                       :API NUMBER
 LIC .                                   :LICENSE NUMBER
~Curve Information Block
#MNEM.UNIT      API CODE     Curve Description
#---------    -------------  ------------------------
 DEPT     .FT        00 001 00 00          :  1  DEPTH   
 GAMMA    .API-GR    00 310 00 00          :  2  GAMMA RAY           
 RES      .OHM       00 000 00 00          :  3  SINGLE POINT RES    
 SP       .MV        00 010 00 00          :  4  SPON POTENTIAL      
~Parameter Information Block
#MNEM.UNIT   Information     Description
#---------- ---------------  ------------------------
 FILE.      PROCESSED          :File Type
 FIID.      9060A              :File Type Identifier
 VERS.      3.60Q              :System Version
 SER .      1                  :System Serial Number
 TRUK.      0.0                :Truck Calibration Number
 TOOL.         202             :Tool Serial Number
 TIME.      1055               :Time    HrHrMinMin
 LAT .                         :Latitude
 LON .                         :Longitude
 LMF .                         :Log Measured From
 DMF .                         :Driller Measured From
 PD  .                         :Permanent Data
 PDEV.FT                       :Elevation Permanent Data
 EKB .FT                       :Elevation Kelly Bushing
 ELEV.FT                       :Elevation DF
 EGL .FT    944 L1             :Elevation Ground Level
 DRDP.FT    27                 :Driller's Depth
 CASD.FT    5.5                :Casing Diameter
 CASB.FT                       :Casing Bottom
 CASX.                         :Casing Type
 CAST.IN    0                  :Casing Thickness
 TNOC.                         :Time Circulation Stopped
 LOGU.                         :Logging Unit
 RECB.      CICHA              :Recorded By
 OSR1.                         :Other Services
 OSR2.                         :Other Services
 OSR3.                         :Other Services
 BS  .IN           6           :Bit Size
 MST .F                        :Mean Surface Temperature
 TGRD.F     0                  :Temperature Gradiant
 MAGN.      0                  :Magnetic Declination
 MDEN.      2.84               :Density Matrix
 MATR.      DOLOMITE           :Neutron Matrix
 DTMT.      44                 :Delta T Matrix
 DTFL.                         :Delta T Fluid
 MUDS.      0                  :Mud Sample Source
 MRS .      0                  :Mud Resistivity
 MTP .      0                  :Mud Temperature
 MFRS.                         :Resistivity Mud Filtrate
 MFTP.                         :Temperature Mud Filtrate
 MCRS.      0                  :Resistivity Mud Cake
 MCTP.                         :Temperature Mud Cake
 FTYP.      0                  :Fluid Type
 FD  .LB/G     0               :Mud Weight
 DFV .S                        :Fluid Viscosity
 FPH .                         :Fuild PH
 ELCO.      2500               :Electron Cutoff
 CASL.IN    4                  :Casing Logger
 LOTD.FT                       :Logger TD
 ARTM.                         :Arrival Time
 DPTM.                         :Departure Time
 RIGN.                         :Rig Number
~Other Information
#MNEM.UNIT  Information      Description
#---------- ---------------  ------------------------
# -------------------------- 
~A DEPTH  GAMMA    RES      SP    
# ...
 422.790     66.8    169.3  262.4 
 422.810     66.8    169.3  262.4 
 422.830     66.8    168.0  264.2 
 422.850     33.9    168.0  264.2 
 422.870     33.9    168.0  264.2 
 422.890     33.9    168.0  264.2 
 422.910     66.8    168.0  264.2 
 422.930     66.8    166.7  262.4 
 422.950     99.7    166.7  262.4 
 422.970     99.7    165.5  262.4 
 422.990     99.7    165.5  262.4 
 423.010     66.8    165.5  262.4 
 423.030     66.8    166.7  262.4 
 423.050     99.7    166.7  262.4 
 423.070     99.7    165.5  262.4 
 423.090     99.7    165.5  262.4 
 423.110     33.9    165.5  262.4 
 423.130     33.9    166.7  262.4 
 423.150     33.9    166.7  262.4 
 423.170      1.0    168.0  260.6 
 423.190      1.0    168.0  260.6 
 423.210    132.7    168.0  260.6 
 423.230    132.7    168.0  260.6 
 423.250    132.7    168.0  260.6 
 423.270     66.8    168.0  260.6 
 423.290     66.8    169.3  260.6 
 423.310     66.8    169.3  260.6 
 423.330     66.8    170.6  260.6 
 423.350     66.8    170.6  260.6 
 423.370     66.8    170.6  260.6 
 423.390     66.8    171.9  258.9 
 423.410     66.8    171.9  258.9 
 423.430      1.0    174.4  258.9 
 423.450      1.0    174.4  258.9 
 423.470     33.9    174.4  258.9 
 423.490     33.9    175.7  257.1 
 423.510     33.9    175.7  257.1 
 423.530     33.9    175.7  257.1 
 423.550     33.9    178.3  255.3 
 423.570      1.0    178.3  255.3 
 423.590      1.0    179.6  253.6 
 423.610      1.0    179.6  253.6 
 423.630     99.7    179.6  253.6 
 423.650     99.7    182.1  253.6 
 423.670     99.7    182.1  253.6 
 423.690     99.7    183.4  251.8 
 423.710     99.7    183.4  251.8 
 423.730    165.6    183.4  251.8 
 423.750    165.6    186.0  251.8 
 423.770    165.6    186.0  251.8 
 423.790     33.9    186.0  251.8 
 423.810     33.9    187.3  250.0 
 423.830     99.7    187.3  250.0 
 423.850     99.7    187.3  250.0 
 423.870     99.7    187.3  250.0 
 423.890     66.8    187.3  250.0 
 423.910     66.8    189.8  248.3 
 423.930     99.7    189.8  248.3 
 423.950     99.7    191.1  250.0 
 423.970     99.7    191.1  250.0 
 423.990     99.7    191.1  250.0 
 424.010     99.7    192.4  248.3 
 424.030     99.7    192.4  248.3 
 424.050     33.9    192.4  248.3 
 424.070     33.9    195.0  248.3 
 424.090     66.8    195.0  248.3 
 424.110     66.8    196.3  246.5 
 424.130     66.8    196.3  246.5 
 424.150     33.9    196.3  246.5 
 424.170     33.9    197.5  248.3 
 424.190     66.8    197.5  248.3 
 424.210     66.8    197.5  246.5 
 424.230     66.8    197.5  246.5 
 424.250     99.7    197.5  246.5 
 424.270     99.7    197.5  246.5 
 424.290     99.7    197.5  246.5 
 424.310     33.9    197.5  246.5 
 424.330     33.9    197.5  246.5 
 424.350     33.9    197.5  246.5 
 424.370     33.9    197.5  246.5 
 424.390     33.9    197.5  246.5 
 424.410    165.6    197.5  246.5 
 424.430    165.6    197.5  244.7 
 424.450      1.0    197.5  244.7 
 424.470      1.0    196.3  244.7 
 424.490      1.0    196.3  244.7 
 424.510     33.9    196.3  244.7 
 424.530     33.9    196.3  242.9 
 424.550     33.9    196.3  242.9 
 424.570     33.9    196.3  242.9 
 424.590     33.9    196.3  242.9 
 424.610    165.6    196.3  242.9 
 424.630    165.6    197.5  241.2 
 424.650    165.6    197.5  241.2 
 424.670     66.8    197.5  241.2 
 424.690     66.8    197.5  241.2 
 424.710     33.9    197.5  241.2 
 424.730     33.9    198.8  239.4 
 424.750     33.9    198.8  239.4 
 424.770     33.9    198.8  239.4 
 424.790     33.9    200.1  239.4 
 424.810      1.0    200.1  239.4 
 424.830      1.0    200.1  239.4 
 424.850      1.0    200.1  239.4 
 424.870     33.9    200.1  239.4 
 424.890     33.9    201.4  237.6 
 424.910     33.9    201.4  237.6 
 424.930     66.8    201.4  237.6 
 424.950     66.8    202.7  239.4 
 424.970     99.7    202.7  239.4 
 424.990     99.7    202.7  239.4 
 425.010     99.7    202.7  239.4 
 425.030     33.9    202.7  239.4 
 425.050     33.9    204.0  239.4 
 425.070     33.9    204.0  239.4 
 425.090     33.9    201.4  239.4 
 425.110     33.9    201.4  239.4 
 425.130     33.9    201.4  239.4 
 425.150     33.9    202.7  239.4 
 425.170     33.9    202.7  239.4 
 425.190     66.8    202.7  239.4 
 425.210     66.8    201.4  239.4 
 425.230     66.8    201.4  239.4 
 425.250     66.8    202.7  237.6 
 425.270     66.8    202.7  237.6 
 425.290     66.8    202.7  237.6 
 425.310     66.8    201.4  239.4 
 425.330      1.0    201.4  239.4 
 425.350      1.0    202.7  239.4 
 425.370      1.0    202.7  239.4 
 425.390     33.9    202.7  239.4 
 425.410     33.9    204.0  237.6 
 425.430     33.9    204.0  237.6 
 425.450     33.9    204.0  237.6 
 425.470     33.9    205.2  239.4 
 425.490     33.9    205.2  239.4 
 425.510     33.9    205.2  239.4 
 425.530     33.9    205.2  239.4 
 425.550      1.0    205.2  239.4 
 425.570      1.0    205.2  239.4 
 425.590      1.0    205.2  239.4 
 425.610      1.0    205.2  239.4 
 425.630      1.0    205.2  239.4 
 425.650      1.0    205.2  239.4 
 425.670      1.0    205.2  239.4 
 425.690      1.0    205.2  239.4 
 425.710     33.9    204.0  241.2 
 425.730     33.9    204.0  241.2 
 425.750    132.7    204.0  241.2 
 425.770    132.7    204.0  241.2 
 425.790    132.7    204.0  241.2 
 425.810     33.9    204.0  241.2 
 425.830     33.9    200.1  241.2 
 425.850     66.8    200.1  241.2 
 425.870     66.8    200.1  241.2 
 425.890     66.8    200.1  241.2 
 425.910      1.0    200.1  241.2 
 425.930      1.0    197.5  242.9 
 425.950     66.8    197.5  242.9 
 425.970     66.8    197.5  241.2 
 425.990     66.8    197.5  241.2 
 426.010     33.9    197.5  241.2 
 426.030     33.9    196.3  242.9 
 426.050     33.9    196.3  242.9 
 426.070     33.9    196.3  242.9 
 426.090     33.9    196.3  242.9 
 426.110     33.9    196.3  242.9 
 426.130     33.9    196.3  242.9 
 426.150     33.9    196.3  242.9 
 426.170      1.0    196.3  242.9 
 426.190      1.0    195.0  246.5 
 426.210      1.0    195.0  246.5 
 426.230      1.0    195.0  246.5 
 426.250      1.0    195.0  246.5 
 426.270     99.7    195.0  246.5 
 426.290     99.7    193.7  246.5 
 426.310     99.7    193.7  246.5 
 426.330     33.9    193.7  246.5 
 426.350     33.9    189.8  250.0 
 426.370     66.8    189.8  250.0 
 426.390     66.8    188.6  251.8 
 426.410     66.8    188.6  251.8 
 426.430      1.0    188.6  251.8 
 426.450      1.0    187.3  253.6 
 426.470      1.0    187.3  253.6 
 426.490      1.0    183.4  255.3 
 426.510      1.0    183.4  255.3 
 426.530     66.8    183.4  255.3 
 426.550     66.8    182.1  255.3 
 426.570     66.8    182.1  255.3 
 426.590     66.8    182.1  255.3 
 426.610     66.8    180.9  258.9 
 426.630     33.9    180.9  258.9 
 426.650     33.9    175.7  258.9 
 426.670     33.9    175.7  258.9 
 426.690      1.0    175.7  258.9 
 426.710      1.0    173.2  262.4 
 426.730     66.8    173.2  262.4 
 426.750     66.8    168.0  260.6 
 426.770     66.8    168.0  260.6 
 426.790     33.9    168.0  260.6 
 426.810     33.9    162.9  262.4 
 426.830     33.9    162.9  262.4 
 426.850      1.0    159.0  264.2 
 426.870      1.0    159.0  264.2 
 426.890     33.9    159.0  264.2 
 426.910     33.9    156.5  262.4 
 426.930     33.9    156.5  262.4 
 426.950      1.0    156.5  262.4 
 426.970      1.0    153.9  264.2 
 426.990     33.9    153.9  264.2 
 427.010     33.9    152.6  264.2 
 427.030     33.9    152.6  264.2 
 427.050      1.0    152.6  264.2 
 427.070      1.0    151.3  262.4 
 427.090     33.9    151.3  262.4 
 427.110     33.9    151.3  264.2 
 427.130     33.9    151.3  264.2 
 427.150     33.9    151.3  264.2 
 427.170     33.9    151.3  264.2 
 427.190     33.9    151.3  264.2 
 427.210     66.8    151.3  264.2 
 427.230     66.8    152.6  262.4 
 427.250      1.0    152.6  262.4 
 427.270      1.0    152.6  264.2 
 427.290      1.0    152.6  264.2 
 427.310     99.7    152.6  264.2 
 427.330     99.7    152.6  264.2 
 427.350      1.0    152.6  264.2 
