~Version Information
 VERS.                2.0:  CWLS LOG ASCII STANDARD -VERSION 2.0
 WRAP.                 NO:  ONE LINE PER DEPTH STEP
~WELL INFORMATION BLOCK
#MNEM.UNIT       DATA		            DESCRIPTION OF MNEMONIC
#---------    -------------            ------------------------
 STRT.FT  6.030                          :START DEPTH
 STOP.FT  530.850                        :STOP DEPTH
 STEP.FT  0.020                          :STEP    UP_HOLE  
 NULL.    -999.25                        :NULL VALUE
 COMP.    CARLTON G1                     :COMPANY
 WELL.    279453                                                       :WELL
 FLD .    71-B NORTHFIELD                :FIELD\LOCATION
 LOC .    31    112   19                 :LOCATION
 CNTY.    RICE                           :COUNTY
 STAT.    CACCCA                         :STATE
 CTRY.    USA                            :COUNTRY
 SRVC.    TRUCK                          :SERVICE COMPANY
 DATE.    08/29/2018                     :LOG DATE
 API .                                       :API NUMBER
 LIC .                                   :LICENSE NUMBER
~Curve Information Block
#MNEM.UNIT      API CODE     Curve Description
#---------    -------------  ------------------------
 DEPT     .FT        00 001 00 00          :  1  DEPTH   
 GAMMA    .API-GR    00 310 00 00          :  2  GAMMA RAY           
 RES      .OHM       00 000 00 00          :  3  SINGLE POINT RES    
 SP       .MV        00 010 00 00          :  4  SPON POTENTIAL      
~Parameter Information Block
#MNEM.UNIT   Information     Description
#---------- ---------------  ------------------------
 FILE.      PROCESSED          :File Type
 FIID.      9060A              :File Type Identifier
 VERS.      3.60Q              :System Version
 SER .      1                  :System Serial Number
 TRUK.      0.0                :Truck Calibration Number
 TOOL.         202             :Tool Serial Number
 TIME.      1055               :Time    HrHrMinMin
 LAT .                         :Latitude
 LON .                         :Longitude
 LMF .                         :Log Measured From
 DMF .                         :Driller Measured From
 PD  .                         :Permanent Data
 PDEV.FT                       :Elevation Permanent Data
 EKB .FT                       :Elevation Kelly Bushing
 ELEV.FT                       :Elevation DF
 EGL .FT    944 L1             :Elevation Ground Level
 DRDP.FT    27                 :Driller's Depth
 CASD.FT    5.5                :Casing Diameter
 CASB.FT                       :Casing Bottom
 CASX.                         :Casing Type
 CAST.IN    0                  :Casing Thickness
 TNOC.                         :Time Circulation Stopped
 LOGU.                         :Logging Unit
 RECB.      CICHA              :Recorded By
 OSR1.                         :Other Services
 OSR2.                         :Other Services
 OSR3.                         :Other Services
 BS  .IN           6           :Bit Size
 MST .F                        :Mean Surface Temperature
 TGRD.F     0                  :Temperature Gradiant
 MAGN.      0                  :Magnetic Declination
 MDEN.      2.84               :Density Matrix
 MATR.      DOLOMITE           :Neutron Matrix
 DTMT.      44                 :Delta T Matrix
 DTFL.                         :Delta T Fluid
 MUDS.      0                  :Mud Sample Source
 MRS .      0                  :Mud Resistivity
 MTP .      0                  :Mud Temperature
 MFRS.                         :Resistivity Mud Filtrate
 MFTP.                         :Temperature Mud Filtrate
 MCRS.      0                  :Resistivity Mud Cake
 MCTP.                         :Temperature Mud Cake
 FTYP.      0                  :Fluid Type
 FD  .LB/G     0               :Mud Weight
 DFV .S                        :Fluid Viscosity
 FPH .                         :Fuild PH
 ELCO.      2500               :Electron Cutoff
 CASL.IN    4                  :Casing Logger
 LOTD.FT                       :Logger TD
 ARTM.                         :Arrival Time
 DPTM.                         :Departure Time
 RIGN.                         :Rig Number
~Other Information
#MNEM.UNIT  Information      Description
#---------- ---------------  ------------------------
# -------------------------- 
~A DEPTH  GAMMA    RES      SP    
# ...
 180.050     33.9    383.2  110.1 
 180.070      1.0    380.6  110.1 
 180.090      1.0    380.6  110.1 
 180.110      1.0    380.6  110.1 
 180.130      1.0    380.6  110.1 
 180.150      1.0    380.6  110.1 
 180.170      1.0    380.6  110.1 
 180.190      1.0    380.6  110.1 
 180.210      1.0    380.6  110.1 
 180.230      1.0    383.2  110.1 
 180.250      1.0    383.2  110.1 
 180.270      1.0    380.6  110.1 
 180.290      1.0    380.6  110.1 
 180.310      1.0    380.6  110.1 
 180.330     66.8    380.6  110.1 
 180.350     66.8    380.6  110.1 
 180.370     66.8    380.6  110.1 
 180.390      1.0    380.6  110.1 
 180.410      1.0    380.6  110.1 
 180.430      1.0    380.6  110.1 
 180.450      1.0    380.6  110.1 
 180.470      1.0    380.6  110.1 
 180.490     33.9    383.2  110.1 
 180.510     33.9    383.2  110.1 
 180.530     33.9    383.2  110.1 
 180.550     99.7    380.6  108.4 
 180.570     99.7    380.6  108.4 
 180.590      1.0    385.8  110.1 
 180.610      1.0    385.8  110.1 
 180.630      1.0    385.8  110.1 
 180.650      1.0    385.8  110.1 
 180.670      1.0    385.8  110.1 
 180.690      1.0    385.8  110.1 
 180.710      1.0    383.2  110.1 
 180.730      1.0    383.2  110.1 
 180.750      1.0    385.8  110.1 
 180.770      1.0    385.8  110.1 
 180.790      1.0    385.8  110.1 
 180.810      1.0    385.8  110.1 
 180.830      1.0    385.8  110.1 
 180.850      1.0    385.8  110.1 
 180.870      1.0    385.8  110.1 
 180.890      1.0    385.8  110.1 
 180.910      1.0    385.8  110.1 
 180.930      1.0    385.8  110.1 
 180.950      1.0    385.8  110.1 
 180.970      1.0    385.8  111.9 
 180.990      1.0    385.8  111.9 
 181.010      1.0    385.8  111.9 
 181.030      1.0    385.8  111.9 
 181.050      1.0    385.8  111.9 
 181.070     33.9    383.2  111.9 
 181.090     33.9    383.2  111.9 
 181.110     33.9    383.2  111.9 
 181.130      1.0    380.6  113.7 
 181.150      1.0    380.6  113.7 
 181.170      1.0    380.6  113.7 
 181.190      1.0    383.2  113.7 
 181.210      1.0    383.2  113.7 
 181.230      1.0    380.6  113.7 
 181.250      1.0    380.6  113.7 
 181.270      1.0    380.6  113.7 
 181.290     99.7    380.6  113.7 
 181.310     99.7    380.6  113.7 
 181.330     99.7    380.6  113.7 
 181.350      1.0    380.6  113.7 
 181.370      1.0    380.6  113.7 
 181.390     33.9    378.0  113.7 
 181.410     33.9    378.0  113.7 
 181.430     33.9    378.0  113.7 
 181.450      1.0    375.4  113.7 
 181.470      1.0    375.4  113.7 
 181.490      1.0    375.4  113.7 
 181.510     33.9    375.4  113.7 
 181.530     33.9    375.4  113.7 
 181.550      1.0    375.4  111.9 
 181.570      1.0    375.4  111.9 
 181.590      1.0    375.4  111.9 
 181.610      1.0    375.4  113.7 
 181.630      1.0    375.4  113.7 
 181.650      1.0    372.8  111.9 
 181.670      1.0    372.8  111.9 
 181.690      1.0    372.8  111.9 
 181.710      1.0    375.4  111.9 
 181.730      1.0    375.4  111.9 
 181.750      1.0    375.4  111.9 
 181.770      1.0    380.6  111.9 
 181.790      1.0    380.6  111.9 
 181.810      1.0    378.0  111.9 
 181.830      1.0    378.0  111.9 
 181.850      1.0    378.0  111.9 
 181.870      1.0    380.6  111.9 
 181.890      1.0    380.6  111.9 
 181.910      1.0    380.6  111.9 
 181.930      1.0    383.2  111.9 
 181.950      1.0    383.2  111.9 
 181.970      1.0    383.2  111.9 
 181.990      1.0    383.2  111.9 
 182.010      1.0    383.2  111.9 
 182.030      1.0    385.8  110.1 
 182.050      1.0    385.8  110.1 
 182.070      1.0    385.8  110.1 
 182.090      1.0    383.2  111.9 
 182.110      1.0    383.2  111.9 
 182.130     33.9    385.8  113.7 
 182.150     33.9    385.8  113.7 
 182.170     33.9    385.8  113.7 
 182.190      1.0    383.2  111.9 
 182.210      1.0    383.2  111.9 
 182.230      1.0    383.2  111.9 
 182.250      1.0    383.2  111.9 
 182.270      1.0    383.2  111.9 
 182.290      1.0    383.2  111.9 
 182.310      1.0    383.2  111.9 
 182.330      1.0    383.2  111.9 
 182.350     33.9    383.2  113.7 
 182.370     33.9    383.2  113.7 
 182.390     33.9    383.2  113.7 
 182.410     33.9    383.2  113.7 
 182.430     33.9    383.2  113.7 
 182.450      1.0    383.2  113.7 
 182.470      1.0    383.2  113.7 
 182.490      1.0    383.2  113.7 
 182.510      1.0    380.6  115.4 
 182.530      1.0    380.6  115.4 
 182.550      1.0    380.6  115.4 
 182.570      1.0    378.0  115.4 
 182.590      1.0    378.0  115.4 
 182.610      1.0    380.6  115.4 
 182.630      1.0    380.6  115.4 
 182.650      1.0    380.6  115.4 
 182.670      1.0    378.0  115.4 
 182.690      1.0    378.0  115.4 
 182.710      1.0    378.0  115.4 
 182.730      1.0    378.0  115.4 
 182.750      1.0    378.0  115.4 
 182.770     66.8    378.0  115.4 
 182.790     66.8    378.0  115.4 
 182.810     66.8    378.0  115.4 
 182.830     66.8    378.0  115.4 
 182.850     66.8    378.0  115.4 
 182.870     66.8    375.4  115.4 
 182.890      1.0    375.4  115.4 
 182.910      1.0    375.4  115.4 
 182.930      1.0    375.4  115.4 
 182.950      1.0    375.4  115.4 
 182.970      1.0    375.4  115.4 
 182.990      1.0    375.4  115.4 
 183.010      1.0    375.4  115.4 
 183.030      1.0    372.8  113.7 
 183.050      1.0    372.8  113.7 
 183.070      1.0    372.8  113.7 
 183.090      1.0    375.4  113.7 
 183.110      1.0    375.4  113.7 
 183.130      1.0    375.4  113.7 
 183.150      1.0    375.4  113.7 
 183.170      1.0    375.4  113.7 
 183.190     33.9    375.4  113.7 
 183.210     33.9    375.4  113.7 
 183.230     33.9    375.4  113.7 
 183.250      1.0    375.4  113.7 
 183.270      1.0    375.4  113.7 
 183.290      1.0    375.4  113.7 
 183.310      1.0    378.0  113.7 
 183.330      1.0    378.0  113.7 
 183.350      1.0    378.0  113.7 
 183.370      1.0    378.0  113.7 
 183.390      1.0    378.0  113.7 
 183.410      1.0    380.6  111.9 
 183.430      1.0    380.6  111.9 
 183.450      1.0    380.6  111.9 
 183.470      1.0    383.2  113.7 
 183.490      1.0    383.2  113.7 
 183.510     66.8    380.6  111.9 
 183.530     66.8    380.6  111.9 
 183.550     66.8    380.6  111.9 
 183.570      1.0    378.0  113.7 
 183.590      1.0    378.0  113.7 
 183.610      1.0    378.0  113.7 
 183.630     33.9    375.4  111.9 
 183.650     33.9    375.4  111.9 
 183.670    132.7    378.0  111.9 
 183.690    132.7    378.0  111.9 
 183.710    132.7    378.0  111.9 
 183.730     33.9    380.6  111.9 
 183.750     33.9    380.6  111.9 
 183.770     33.9    380.6  111.9 
 183.790      1.0    383.2  113.7 
 183.810      1.0    383.2  113.7 
 183.830      1.0    383.2  111.9 
 183.850      1.0    383.2  111.9 
 183.870      1.0    383.2  111.9 
 183.890      1.0    383.2  111.9 
 183.910      1.0    383.2  111.9 
 183.930      1.0    383.2  111.9 
 183.950      1.0    383.2  111.9 
 183.970      1.0    383.2  111.9 
 183.990      1.0    383.2  113.7 
 184.010      1.0    383.2  113.7 
 184.030      1.0    383.2  113.7 
 184.050      1.0    380.6  111.9 
 184.070      1.0    380.6  111.9 
 184.090      1.0    383.2  113.7 
 184.110     66.8    383.2  113.7 
 184.130     66.8    383.2  113.7 
 184.150     33.9    383.2  113.7 
 184.170     33.9    383.2  113.7 
 184.190     33.9    383.2  113.7 
 184.210     33.9    380.6  113.7 
 184.230     33.9    380.6  113.7 
 184.250     33.9    380.6  113.7 
 184.270      1.0    380.6  113.7 
 184.290      1.0    380.6  113.7 
 184.310      1.0    380.6  115.4 
 184.330      1.0    380.6  115.4 
 184.350      1.0    380.6  115.4 
 184.370      1.0    380.6  115.4 
 184.390      1.0    380.6  115.4 
 184.410      1.0    378.0  115.4 
 184.430      1.0    378.0  115.4 
 184.450      1.0    378.0  115.4 
 184.470     33.9    378.0  115.4 
 184.490     33.9    378.0  115.4 
 184.510     33.9    378.0  115.4 
 184.530      1.0    375.4  119.0 
 184.550      1.0    375.4  119.0 
 184.570     33.9    375.4  117.2 
 184.590     33.9    375.4  117.2 
 184.610     33.9    375.4  117.2 
