~Version Information
 VERS.                2.0:  CWLS LOG ASCII STANDARD -VERSION 2.0
 WRAP.                 NO:  ONE LINE PER DEPTH STEP
~WELL INFORMATION BLOCK
#MNEM.UNIT       DATA		            DESCRIPTION OF MNEMONIC
#---------    -------------            ------------------------
 STRT.FT  6.030                          :START DEPTH
 STOP.FT  530.850                        :STOP DEPTH
 STEP.FT  0.020                          :STEP    UP_HOLE  
 NULL.    -999.25                        :NULL VALUE
 COMP.    CARLTON G1                     :COMPANY
 WELL.    279453                                                       :WELL
 FLD .    71-B NORTHFIELD                :FIELD\LOCATION
 LOC .    31    112   19                 :LOCATION
 CNTY.    RICE                           :COUNTY
 STAT.    CACCCA                         :STATE
 CTRY.    USA                            :COUNTRY
 SRVC.    TRUCK                          :SERVICE COMPANY
 DATE.    08/29/2018                     :LOG DATE
 API .                                       :API NUMBER
 LIC .                                   :LICENSE NUMBER
~Curve Information Block
#MNEM.UNIT      API CODE     Curve Description
#---------    -------------  ------------------------
 DEPT     .FT        00 001 00 00          :  1  DEPTH   
 GAMMA    .API-GR    00 310 00 00          :  2  GAMMA RAY           
 RES      .OHM       00 000 00 00          :  3  SINGLE POINT RES    
 SP       .MV        00 010 00 00          :  4  SPON POTENTIAL      
~Parameter Information Block
#MNEM.UNIT   Information     Description
#---------- ---------------  ------------------------
 FILE.      PROCESSED          :File Type
 FIID.      9060A              :File Type Identifier
 VERS.      3.60Q              :System Version
 SER .      1                  :System Serial Number
 TRUK.      0.0                :Truck Calibration Number
 TOOL.         202             :Tool Serial Number
 TIME.      1055               :Time    HrHrMinMin
 LAT .                         :Latitude
 LON .                         :Longitude
 LMF .                         :Log Measured From
 DMF .                         :Driller Measured From
 PD  .                         :Permanent Data
 PDEV.FT                       :Elevation Permanent Data
 EKB .FT                       :Elevation Kelly Bushing
 ELEV.FT                       :Elevation DF
 EGL .FT    944 L1             :Elevation Ground Level
 DRDP.FT    27                 :Driller's Depth
 CASD.FT    5.5                :Casing Diameter
 CASB.FT                       :Casing Bottom
 CASX.                         :Casing Type
 CAST.IN    0                  :Casing Thickness
 TNOC.                         :Time Circulation Stopped
 LOGU.                         :Logging Unit
 RECB.      CICHA              :Recorded By
 OSR1.                         :Other Services
 OSR2.                         :Other Services
 OSR3.                         :Other Services
 BS  .IN           6           :Bit Size
 MST .F                        :Mean Surface Temperature
 TGRD.F     0                  :Temperature Gradiant
 MAGN.      0                  :Magnetic Declination
 MDEN.      2.84               :Density Matrix
 MATR.      DOLOMITE           :Neutron Matrix
 DTMT.      44                 :Delta T Matrix
 DTFL.                         :Delta T Fluid
 MUDS.      0                  :Mud Sample Source
 MRS .      0                  :Mud Resistivity
 MTP .      0                  :Mud Temperature
 MFRS.                         :Resistivity Mud Filtrate
 MFTP.                         :Temperature Mud Filtrate
 MCRS.      0                  :Resistivity Mud Cake
 MCTP.                         :Temperature Mud Cake
 FTYP.      0                  :Fluid Type
 FD  .LB/G     0               :Mud Weight
 DFV .S                        :Fluid Viscosity
 FPH .                         :Fuild PH
 ELCO.      2500               :Electron Cutoff
 CASL.IN    4                  :Casing Logger
 LOTD.FT                       :Logger TD
 ARTM.                         :Arrival Time
 DPTM.                         :Departure Time
 RIGN.                         :Rig Number
~Other Information
#MNEM.UNIT  Information      Description
#---------- ---------------  ------------------------
# -------------------------- 
~A DEPTH  GAMMA    RES      SP    
# ...
  74.710      1.0    243.7  186.3 
  74.730      1.0    245.0  186.3 
  74.750      1.0    245.0  186.3 
  74.770      1.0    243.7  186.3 
  74.790      1.0    243.7  186.3 
  74.810     33.9    243.7  186.3 
  74.830     33.9    243.7  186.3 
  74.850     33.9    243.7  186.3 
  74.870      1.0    243.7  186.3 
  74.890      1.0    245.0  184.5 
  74.910      1.0    245.0  184.5 
  74.930     33.9    245.0  184.5 
  74.950     33.9    243.7  184.5 
  74.970     33.9    243.7  184.5 
  74.990      1.0    243.7  184.5 
  75.010      1.0    243.7  184.5 
  75.030      1.0    243.7  184.5 
  75.050      1.0    243.7  181.0 
  75.070      1.0    243.7  181.0 
  75.090      1.0    243.7  181.0 
  75.110      1.0    246.3  182.7 
  75.130      1.0    246.3  182.7 
  75.150      1.0    246.3  182.7 
  75.170      1.0    246.3  179.2 
  75.190      1.0    246.3  179.2 
  75.210      1.0    246.3  179.2 
  75.230      1.0    247.6  177.4 
  75.250     66.8    247.6  177.4 
  75.270     66.8    248.9  177.4 
  75.290     66.8    248.9  177.4 
  75.310      1.0    248.9  177.4 
  75.330      1.0    252.9  175.7 
  75.350      1.0    252.9  175.7 
  75.370      1.0    252.9  175.7 
  75.390      1.0    260.7  175.7 
  75.410      1.0    260.7  175.7 
  75.430      1.0    260.7  175.7 
  75.450      1.0    265.9  172.1 
  75.470     33.9    265.9  172.1 
  75.490     33.9    271.2  172.1 
  75.510     33.9    271.2  172.1 
  75.530      1.0    271.2  172.1 
  75.550      1.0    271.2  170.3 
  75.570      1.0    271.2  170.3 
  75.590      1.0    271.2  170.3 
  75.610      1.0    279.0  168.6 
  75.630      1.0    279.0  168.6 
  75.650      1.0    279.0  168.6 
  75.670      1.0    279.0  168.6 
  75.690     33.9    279.0  168.6 
  75.710     33.9    286.8  166.8 
  75.730     33.9    286.8  166.8 
  75.750      1.0    286.8  166.8 
  75.770      1.0    289.4  165.0 
  75.790      1.0    289.4  165.0 
  75.810      1.0    289.4  165.0 
  75.830      1.0    294.6  165.0 
  75.850      1.0    294.6  165.0 
  75.870     66.8    294.6  165.0 
  75.890     66.8    299.8  163.3 
  75.910      1.0    299.8  163.3 
  75.930      1.0    302.4  163.3 
  75.950      1.0    302.4  163.3 
  75.970      1.0    302.4  163.3 
  75.990      1.0    307.6  161.5 
  76.010      1.0    307.6  161.5 
  76.030      1.0    307.6  161.5 
  76.050      1.0    310.2  161.5 
  76.070      1.0    310.2  161.5 
  76.090      1.0    310.2  161.5 
  76.110      1.0    310.2  159.7 
  76.130     66.8    310.2  159.7 
  76.150     66.8    312.8  159.7 
  76.170     66.8    312.8  159.7 
  76.190     33.9    312.8  159.7 
  76.210     33.9    315.5  159.7 
  76.230     33.9    315.5  159.7 
  76.250     33.9    315.5  159.7 
  76.270     33.9    318.1  159.7 
  76.290     33.9    318.1  159.7 
  76.310      1.0    318.1  159.7 
  76.330      1.0    318.1  157.9 
  76.350      1.0    318.1  157.9 
  76.370      1.0    318.1  157.9 
  76.390      1.0    318.1  157.9 
  76.410      1.0    318.1  157.9 
  76.430      1.0    320.7  157.9 
  76.450      1.0    320.7  157.9 
  76.470     33.9    320.7  157.9 
  76.490     33.9    320.7  157.9 
  76.510     33.9    320.7  157.9 
  76.530     33.9    320.7  157.9 
  76.550     33.9    325.9  157.9 
  76.570     33.9    325.9  157.9 
  76.590      1.0    323.3  157.9 
  76.610      1.0    323.3  157.9 
  76.630     33.9    323.3  157.9 
  76.650     33.9    323.3  157.9 
  76.670     33.9    323.3  157.9 
  76.690      1.0    323.3  157.9 
  76.710      1.0    325.9  157.9 
  76.730      1.0    325.9  157.9 
  76.750      1.0    325.9  157.9 
  76.770      1.0    323.3  159.7 
  76.790      1.0    323.3  159.7 
  76.810      1.0    323.3  157.9 
  76.830      1.0    323.3  157.9 
  76.850     33.9    323.3  157.9 
  76.870     33.9    323.3  159.7 
  76.890     33.9    323.3  159.7 
  76.910     33.9    323.3  159.7 
  76.930     33.9    323.3  159.7 
  76.950     33.9    323.3  159.7 
  76.970      1.0    323.3  159.7 
  76.990      1.0    320.7  157.9 
  77.010      1.0    320.7  157.9 
  77.030      1.0    318.1  157.9 
  77.050      1.0    318.1  157.9 
  77.070     33.9    318.1  157.9 
  77.090     33.9    318.1  159.7 
  77.110     33.9    318.1  159.7 
  77.130      1.0    318.1  159.7 
  77.150      1.0    318.1  157.9 
  77.170      1.0    318.1  157.9 
  77.190     33.9    318.1  157.9 
  77.210     33.9    315.5  157.9 
  77.230     33.9    315.5  157.9 
  77.250      1.0    315.5  157.9 
  77.270      1.0    318.1  156.2 
  77.290      1.0    318.1  156.2 
  77.310      1.0    318.1  157.9 
  77.330      1.0    318.1  157.9 
  77.350      1.0    318.1  157.9 
  77.370      1.0    320.7  156.2 
  77.390      1.0    320.7  156.2 
  77.410      1.0    320.7  156.2 
  77.430      1.0    318.1  156.2 
  77.450      1.0    318.1  156.2 
  77.470     33.9    318.1  156.2 
  77.490     33.9    323.3  156.2 
  77.510     33.9    323.3  156.2 
  77.530      1.0    320.7  154.4 
  77.550      1.0    320.7  154.4 
  77.570     66.8    320.7  154.4 
  77.590     66.8    323.3  156.2 
  77.610     66.8    323.3  156.2 
  77.630      1.0    323.3  156.2 
  77.650      1.0    323.3  156.2 
  77.670      1.0    323.3  156.2 
  77.690      1.0    323.3  156.2 
  77.710      1.0    325.9  154.4 
  77.730      1.0    325.9  154.4 
  77.750      1.0    323.3  156.2 
  77.770      1.0    323.3  156.2 
  77.790      1.0    323.3  156.2 
  77.810      1.0    323.3  154.4 
  77.830      1.0    323.3  154.4 
  77.850      1.0    323.3  154.4 
  77.870      1.0    323.3  156.2 
  77.890      1.0    323.3  156.2 
  77.910      1.0    323.3  156.2 
  77.930      1.0    323.3  156.2 
  77.950      1.0    323.3  156.2 
  77.970      1.0    323.3  156.2 
  77.990      1.0    323.3  156.2 
  78.010     33.9    323.3  156.2 
  78.030     33.9    323.3  156.2 
  78.050     33.9    323.3  156.2 
  78.070     66.8    323.3  156.2 
  78.090     66.8    320.7  154.4 
  78.110     66.8    320.7  154.4 
  78.130      1.0    320.7  154.4 
  78.150      1.0    323.3  156.2 
  78.170      1.0    323.3  156.2 
  78.190      1.0    318.1  156.2 
  78.210      1.0    318.1  156.2 
  78.230      1.0    318.1  156.2 
  78.250      1.0    320.7  154.4 
  78.270      1.0    320.7  154.4 
  78.290      1.0    320.7  154.4 
  78.310      1.0    320.7  156.2 
  78.330      1.0    320.7  156.2 
  78.350      1.0    320.7  156.2 
  78.370      1.0    320.7  154.4 
  78.390     33.9    320.7  154.4 
  78.410     33.9    320.7  154.4 
  78.430     33.9    318.1  154.4 
  78.450      1.0    318.1  154.4 
  78.470      1.0    320.7  154.4 
  78.490      1.0    320.7  154.4 
  78.510      1.0    320.7  154.4 
  78.530      1.0    318.1  154.4 
  78.550      1.0    318.1  154.4 
  78.570      1.0    318.1  154.4 
  78.590      1.0    320.7  154.4 
  78.610      1.0    320.7  154.4 
  78.630      1.0    320.7  154.4 
  78.650      1.0    320.7  152.6 
  78.670      1.0    320.7  152.6 
  78.690      1.0    320.7  152.6 
  78.710      1.0    320.7  152.6 
  78.730     66.8    320.7  152.6 
  78.750     66.8    323.3  152.6 
  78.770     66.8    323.3  152.6 
  78.790      1.0    323.3  152.6 
  78.810      1.0    320.7  152.6 
  78.830      1.0    320.7  152.6 
  78.850      1.0    320.7  152.6 
  78.870      1.0    325.9  150.9 
  78.890     33.9    325.9  150.9 
  78.910     33.9    323.3  150.9 
  78.930     33.9    323.3  150.9 
  78.950      1.0    323.3  150.9 
  78.970      1.0    325.9  150.9 
  78.990      1.0    325.9  150.9 
  79.010      1.0    325.9  150.9 
  79.030      1.0    325.9  150.9 
  79.050      1.0    325.9  150.9 
  79.070      1.0    325.9  150.9 
  79.090      1.0    325.9  149.1 
  79.110      1.0    325.9  149.1 
  79.130      1.0    328.5  149.1 
  79.150      1.0    328.5  149.1 
  79.170     33.9    328.5  149.1 
  79.190     33.9    328.5  150.9 
  79.210     33.9    328.5  150.9 
  79.230     33.9    328.5  150.9 
  79.250     33.9    328.5  149.1 
  79.270     33.9    328.5  149.1 
