~Version Information
 VERS.                2.0:  CWLS LOG ASCII STANDARD -VERSION 2.0
 WRAP.                 NO:  ONE LINE PER DEPTH STEP
~WELL INFORMATION BLOCK
#MNEM.UNIT       DATA		            DESCRIPTION OF MNEMONIC
#---------    -------------            ------------------------
 STRT.FT  6.030                          :START DEPTH
 STOP.FT  530.850                        :STOP DEPTH
 STEP.FT  0.020                          :STEP    UP_HOLE  
 NULL.    -999.25                        :NULL VALUE
 COMP.    CARLTON G1                     :COMPANY
 WELL.    279453                                                       :WELL
 FLD .    71-B NORTHFIELD                :FIELD\LOCATION
 LOC .    31    112   19                 :LOCATION
 CNTY.    RICE                           :COUNTY
 STAT.    CACCCA                         :STATE
 CTRY.    USA                            :COUNTRY
 SRVC.    TRUCK                          :SERVICE COMPANY
 DATE.    08/29/2018                     :LOG DATE
 API .                                       :API NUMBER
 LIC .                                   :LICENSE NUMBER
~Curve Information Block
#MNEM.UNIT      API CODE     Curve Description
#---------    -------------  ------------------------
 DEPT     .FT        00 001 00 00          :  1  DEPTH   
 GAMMA    .API-GR    00 310 00 00          :  2  GAMMA RAY           
 RES      .OHM       00 000 00 00          :  3  SINGLE POINT RES    
 SP       .MV        00 010 00 00          :  4  SPON POTENTIAL      
~Parameter Information Block
#MNEM.UNIT   Information     Description
#---------- ---------------  ------------------------
 FILE.      PROCESSED          :File Type
 FIID.      9060A              :File Type Identifier
 VERS.      3.60Q              :System Version
 SER .      1                  :System Serial Number
 TRUK.      0.0                :Truck Calibration Number
 TOOL.         202             :Tool Serial Number
 TIME.      1055               :Time    HrHrMinMin
 LAT .                         :Latitude
 LON .                         :Longitude
 LMF .                         :Log Measured From
 DMF .                         :Driller Measured From
 PD  .                         :Permanent Data
 PDEV.FT                       :Elevation Permanent Data
 EKB .FT                       :Elevation Kelly Bushing
 ELEV.FT                       :Elevation DF
 EGL .FT    944 L1             :Elevation Ground Level
 DRDP.FT    27                 :Driller's Depth
 CASD.FT    5.5                :Casing Diameter
 CASB.FT                       :Casing Bottom
 CASX.                         :Casing Type
 CAST.IN    0                  :Casing Thickness
 TNOC.                         :Time Circulation Stopped
 LOGU.                         :Logging Unit
 RECB.      CICHA              :Recorded By
 OSR1.                         :Other Services
 OSR2.                         :Other Services
 OSR3.                         :Other Services
 BS  .IN           6           :Bit Size
 MST .F                        :Mean Surface Temperature
 TGRD.F     0                  :Temperature Gradiant
 MAGN.      0                  :Magnetic Declination
 MDEN.      2.84               :Density Matrix
 MATR.      DOLOMITE           :Neutron Matrix
 DTMT.      44                 :Delta T Matrix
 DTFL.                         :Delta T Fluid
 MUDS.      0                  :Mud Sample Source
 MRS .      0                  :Mud Resistivity
 MTP .      0                  :Mud Temperature
 MFRS.                         :Resistivity Mud Filtrate
 MFTP.                         :Temperature Mud Filtrate
 MCRS.      0                  :Resistivity Mud Cake
 MCTP.                         :Temperature Mud Cake
 FTYP.      0                  :Fluid Type
 FD  .LB/G     0               :Mud Weight
 DFV .S                        :Fluid Viscosity
 FPH .                         :Fuild PH
 ELCO.      2500               :Electron Cutoff
 CASL.IN    4                  :Casing Logger
 LOTD.FT                       :Logger TD
 ARTM.                         :Arrival Time
 DPTM.                         :Departure Time
 RIGN.                         :Rig Number
~Other Information
#MNEM.UNIT  Information      Description
#---------- ---------------  ------------------------
# -------------------------- 
~A DEPTH  GAMMA    RES      SP    
# ...
 390.730     66.8    188.6  246.5 
 390.750     66.8    188.6  246.5 
 390.770     66.8    188.6  246.5 
 390.790     33.9    188.6  246.5 
 390.810     33.9    188.6  246.5 
 390.830     33.9    188.6  246.5 
 390.850     66.8    188.6  246.5 
 390.870     66.8    188.6  246.5 
 390.890      1.0    188.6  246.5 
 390.910      1.0    188.6  246.5 
 390.930      1.0    189.8  248.3 
 390.950     66.8    189.8  248.3 
 390.970     66.8    189.8  248.3 
 390.990     66.8    189.8  246.5 
 391.010     33.9    189.8  246.5 
 391.030     33.9    189.8  246.5 
 391.050     66.8    191.1  248.3 
 391.070     66.8    191.1  248.3 
 391.090     66.8    189.8  248.3 
 391.110     33.9    189.8  248.3 
 391.130     33.9    189.8  248.3 
 391.150     33.9    187.3  250.0 
 391.170      1.0    187.3  250.0 
 391.190      1.0    187.3  250.0 
 391.210      1.0    182.1  248.3 
 391.230    198.5    182.1  248.3 
 391.250    198.5    178.3  250.0 
 391.270      1.0    178.3  250.0 
 391.290      1.0    178.3  250.0 
 391.310      1.0    178.3  250.0 
 391.330     66.8    178.3  250.0 
 391.350     66.8    178.3  250.0 
 391.370     66.8    178.3  250.0 
 391.390      1.0    178.3  250.0 
 391.410      1.0    182.1  250.0 
 391.430     33.9    182.1  250.0 
 391.450     33.9    182.1  250.0 
 391.470     33.9    182.1  250.0 
 391.490     33.9    182.1  250.0 
 391.510     33.9    182.1  250.0 
 391.530     33.9    179.6  250.0 
 391.550     99.7    179.6  250.0 
 391.570     99.7    179.6  250.0 
 391.590     33.9    179.6  250.0 
 391.610     33.9    179.6  250.0 
 391.630     33.9    177.0  250.0 
 391.650     99.7    177.0  250.0 
 391.670     99.7    177.0  250.0 
 391.690     99.7    177.0  251.8 
 391.710     66.8    177.0  251.8 
 391.730     66.8    177.0  251.8 
 391.750      1.0    175.7  251.8 
 391.770      1.0    175.7  251.8 
 391.790      1.0    174.4  251.8 
 391.810     33.9    174.4  251.8 
 391.830     33.9    174.4  251.8 
 391.850     33.9    174.4  251.8 
 391.870    132.7    174.4  251.8 
 391.890    132.7    174.4  251.8 
 391.910    132.7    173.2  251.8 
 391.930    132.7    173.2  251.8 
 391.950    132.7    173.2  251.8 
 391.970     99.7    173.2  251.8 
 391.990     99.7    173.2  251.8 
 392.010     99.7    173.2  251.8 
 392.030     99.7    173.2  251.8 
 392.050     99.7    173.2  251.8 
 392.070     99.7    171.9  250.0 
 392.090     66.8    171.9  250.0 
 392.110     66.8    171.9  250.0 
 392.130      1.0    170.6  251.8 
 392.150      1.0    170.6  251.8 
 392.170      1.0    170.6  251.8 
 392.190     66.8    170.6  251.8 
 392.210     66.8    170.6  251.8 
 392.230     66.8    170.6  251.8 
 392.250     99.7    170.6  251.8 
 392.270     99.7    170.6  251.8 
 392.290     33.9    169.3  251.8 
 392.310     33.9    169.3  251.8 
 392.330     33.9    169.3  251.8 
 392.350     33.9    169.3  251.8 
 392.370     33.9    169.3  251.8 
 392.390     33.9    168.0  251.8 
 392.410      1.0    168.0  251.8 
 392.430      1.0    168.0  251.8 
 392.450     66.8    168.0  251.8 
 392.470     66.8    168.0  251.8 
 392.490     66.8    166.7  253.6 
 392.510     66.8    166.7  253.6 
 392.530     66.8    166.7  253.6 
 392.550     66.8    166.7  251.8 
 392.570     33.9    166.7  251.8 
 392.590     33.9    166.7  251.8 
 392.610     33.9    166.7  251.8 
 392.630    231.4    166.7  251.8 
 392.650    231.4    166.7  253.6 
 392.670     66.8    166.7  253.6 
 392.690     66.8    166.7  253.6 
 392.710     66.8    166.7  251.8 
 392.730    132.7    166.7  251.8 
 392.750    132.7    166.7  251.8 
 392.770    132.7    166.7  251.8 
 392.790     99.7    166.7  251.8 
 392.810     99.7    166.7  251.8 
 392.830      1.0    166.7  251.8 
 392.850      1.0    166.7  251.8 
 392.870      1.0    166.7  251.8 
 392.890     66.8    166.7  251.8 
 392.910     66.8    166.7  251.8 
 392.930     66.8    168.0  251.8 
 392.950      1.0    168.0  251.8 
 392.970      1.0    168.0  251.8 
 392.990     33.9    166.7  251.8 
 393.010     33.9    166.7  251.8 
 393.030     33.9    168.0  251.8 
 393.050     33.9    168.0  251.8 
 393.070     33.9    168.0  251.8 
 393.090     33.9    166.7  251.8 
 393.110     33.9    166.7  251.8 
 393.130     33.9    166.7  251.8 
 393.150     33.9    168.0  251.8 
 393.170     33.9    168.0  251.8 
 393.190     33.9    166.7  251.8 
 393.210     99.7    166.7  251.8 
 393.230     99.7    166.7  251.8 
 393.250     99.7    166.7  253.6 
 393.270      1.0    166.7  253.6 
 393.290      1.0    166.7  253.6 
 393.310     66.8    168.0  251.8 
 393.330     66.8    168.0  251.8 
 393.350     66.8    169.3  251.8 
 393.370      1.0    169.3  251.8 
 393.390      1.0    169.3  251.8 
 393.410      1.0    169.3  251.8 
 393.430      1.0    169.3  251.8 
 393.450      1.0    169.3  251.8 
 393.470      1.0    166.7  251.8 
 393.490     99.7    166.7  251.8 
 393.510     99.7    166.7  251.8 
 393.530     66.8    165.5  253.6 
 393.550     66.8    165.5  253.6 
 393.570     66.8    164.2  251.8 
 393.590    132.7    164.2  251.8 
 393.610    132.7    164.2  251.8 
 393.630    132.7    164.2  253.6 
 393.650     33.9    164.2  253.6 
 393.670     33.9    164.2  253.6 
 393.690     99.7    164.2  253.6 
 393.710     99.7    164.2  253.6 
 393.730     99.7    164.2  251.8 
 393.750     33.9    164.2  251.8 
 393.770     33.9    164.2  251.8 
 393.790     33.9    164.2  253.6 
 393.810     33.9    164.2  253.6 
 393.830     33.9    164.2  253.6 
 393.850     33.9    165.5  253.6 
 393.870    132.7    165.5  253.6 
 393.890    132.7    165.5  251.8 
 393.910      1.0    165.5  251.8 
 393.930      1.0    165.5  251.8 
 393.950      1.0    165.5  251.8 
 393.970      1.0    165.5  251.8 
 393.990      1.0    165.5  251.8 
 394.010      1.0    166.7  251.8 
 394.030     99.7    166.7  251.8 
 394.050     99.7    166.7  250.0 
 394.070    132.7    166.7  250.0 
 394.090    132.7    166.7  250.0 
 394.110    132.7    168.0  250.0 
 394.130     66.8    168.0  250.0 
 394.150     66.8    168.0  250.0 
 394.170     66.8    168.0  251.8 
 394.190     66.8    168.0  251.8 
 394.210     66.8    166.7  250.0 
 394.230      1.0    166.7  250.0 
 394.250      1.0    166.7  250.0 
 394.270      1.0    166.7  248.3 
 394.290     66.8    166.7  248.3 
 394.310     66.8    166.7  248.3 
 394.330     66.8    168.0  250.0 
 394.350     33.9    168.0  250.0 
 394.370     33.9    168.0  250.0 
 394.390      1.0    166.7  248.3 
 394.410      1.0    166.7  248.3 
 394.430      1.0    168.0  248.3 
 394.450     66.8    168.0  248.3 
 394.470     66.8    168.0  248.3 
 394.490     66.8    166.7  248.3 
 394.510     66.8    166.7  248.3 
 394.530     66.8    166.7  248.3 
 394.550     99.7    168.0  246.5 
 394.570     99.7    168.0  246.5 
 394.590     99.7    169.3  246.5 
 394.610     33.9    169.3  246.5 
 394.630     33.9    169.3  246.5 
 394.650     33.9    170.6  246.5 
 394.670     33.9    170.6  246.5 
 394.690     33.9    170.6  246.5 
 394.710     33.9    171.9  246.5 
 394.730     99.7    171.9  246.5 
 394.750     99.7    171.9  246.5 
 394.770     33.9    171.9  244.7 
 394.790     33.9    171.9  244.7 
 394.810     33.9    173.2  244.7 
 394.830      1.0    173.2  244.7 
 394.850      1.0    173.2  244.7 
 394.870      1.0    173.2  244.7 
 394.890     66.8    173.2  244.7 
 394.910     66.8    173.2  244.7 
 394.930    132.7    174.4  242.9 
 394.950    132.7    174.4  242.9 
 394.970    132.7    174.4  244.7 
 394.990     66.8    174.4  244.7 
 395.010     66.8    174.4  244.7 
 395.030     66.8    177.0  242.9 
 395.050     33.9    177.0  242.9 
 395.070     33.9    177.0  242.9 
 395.090     33.9    177.0  242.9 
 395.110     99.7    177.0  242.9 
 395.130     99.7    178.3  241.2 
 395.150      1.0    178.3  241.2 
 395.170      1.0    178.3  241.2 
 395.190      1.0    178.3  241.2 
 395.210     99.7    178.3  241.2 
 395.230     99.7    178.3  241.2 
 395.250     99.7    178.3  241.2 
 395.270     33.9    178.3  241.2 
 395.290     33.9    180.9  239.4 
