~Version Information
 VERS.                2.0:  CWLS LOG ASCII STANDARD -VERSION 2.0
 WRAP.                 NO:  ONE LINE PER DEPTH STEP
~WELL INFORMATION BLOCK
#MNEM.UNIT       DATA		            DESCRIPTION OF MNEMONIC
#---------    -------------            ------------------------
 STRT.FT  6.030                          :START DEPTH
 STOP.FT  530.850                        :STOP DEPTH
 STEP.FT  0.020                          :STEP    UP_HOLE  
 NULL.    -999.25                        :NULL VALUE
 COMP.    CARLTON G1                     :COMPANY
 WELL.    279453                                                       :WELL
 FLD .    71-B NORTHFIELD                :FIELD\LOCATION
 LOC .    31    112   19                 :LOCATION
 CNTY.    RICE                           :COUNTY
 STAT.    CACCCA                         :STATE
 CTRY.    USA                            :COUNTRY
 SRVC.    TRUCK                          :SERVICE COMPANY
 DATE.    08/29/2018                     :LOG DATE
 API .                                       :API NUMBER
 LIC .                                   :LICENSE NUMBER
~Curve Information Block
#MNEM.UNIT      API CODE     Curve Description
#---------    -------------  ------------------------
 DEPT     .FT        00 001 00 00          :  1  DEPTH   
 GAMMA    .API-GR    00 310 00 00          :  2  GAMMA RAY           
 RES      .OHM       00 000 00 00          :  3  SINGLE POINT RES    
 SP       .MV        00 010 00 00          :  4  SPON POTENTIAL      
~Parameter Information Block
#MNEM.UNIT   Information     Description
#---------- ---------------  ------------------------
 FILE.      PROCESSED          :File Type
 FIID.      9060A              :File Type Identifier
 VERS.      3.60Q              :System Version
 SER .      1                  :System Serial Number
 TRUK.      0.0                :Truck Calibration Number
 TOOL.         202             :Tool Serial Number
 TIME.      1055               :Time    HrHrMinMin
 LAT .                         :Latitude
 LON .                         :Longitude
 LMF .                         :Log Measured From
 DMF .                         :Driller Measured From
 PD  .                         :Permanent Data
 PDEV.FT                       :Elevation Permanent Data
 EKB .FT                       :Elevation Kelly Bushing
 ELEV.FT                       :Elevation DF
 EGL .FT    944 L1             :Elevation Ground Level
 DRDP.FT    27                 :Driller's Depth
 CASD.FT    5.5                :Casing Diameter
 CASB.FT                       :Casing Bottom
 CASX.                         :Casing Type
 CAST.IN    0                  :Casing Thickness
 TNOC.                         :Time Circulation Stopped
 LOGU.                         :Logging Unit
 RECB.      CICHA              :Recorded By
 OSR1.                         :Other Services
 OSR2.                         :Other Services
 OSR3.                         :Other Services
 BS  .IN           6           :Bit Size
 MST .F                        :Mean Surface Temperature
 TGRD.F     0                  :Temperature Gradiant
 MAGN.      0                  :Magnetic Declination
 MDEN.      2.84               :Density Matrix
 MATR.      DOLOMITE           :Neutron Matrix
 DTMT.      44                 :Delta T Matrix
 DTFL.                         :Delta T Fluid
 MUDS.      0                  :Mud Sample Source
 MRS .      0                  :Mud Resistivity
 MTP .      0                  :Mud Temperature
 MFRS.                         :Resistivity Mud Filtrate
 MFTP.                         :Temperature Mud Filtrate
 MCRS.      0                  :Resistivity Mud Cake
 MCTP.                         :Temperature Mud Cake
 FTYP.      0                  :Fluid Type
 FD  .LB/G     0               :Mud Weight
 DFV .S                        :Fluid Viscosity
 FPH .                         :Fuild PH
 ELCO.      2500               :Electron Cutoff
 CASL.IN    4                  :Casing Logger
 LOTD.FT                       :Logger TD
 ARTM.                         :Arrival Time
 DPTM.                         :Departure Time
 RIGN.                         :Rig Number
~Other Information
#MNEM.UNIT  Information      Description
#---------- ---------------  ------------------------
# -------------------------- 
~A DEPTH  GAMMA    RES      SP    
# ...
 491.490    132.7    146.2  304.9 
 491.510    132.7    147.5  303.1 
 491.530    132.7    147.5  303.1 
 491.550     66.8    147.5  303.1 
 491.570     66.8    148.8  303.1 
 491.590     66.8    148.8  303.1 
 491.610     33.9    151.3  303.1 
 491.630     33.9    151.3  303.1 
 491.650     33.9    151.3  303.1 
 491.670     99.7    152.6  303.1 
 491.690     99.7    152.6  303.1 
 491.710      1.0    152.6  303.1 
 491.730      1.0    153.9  303.1 
 491.750      1.0    153.9  303.1 
 491.770    165.6    153.9  304.9 
 491.790    165.6    153.9  304.9 
 491.810    165.6    153.9  304.9 
 491.830     99.7    156.5  303.1 
 491.850     99.7    156.5  303.1 
 491.870    132.7    156.5  303.1 
 491.890    132.7    157.8  306.7 
 491.910    132.7    157.8  306.7 
 491.930    132.7    159.0  304.9 
 491.950    132.7    159.0  304.9 
 491.970    132.7    159.0  304.9 
 491.990     99.7    157.8  306.7 
 492.010     99.7    157.8  306.7 
 492.030    132.7    156.5  308.5 
 492.050    132.7    156.5  308.5 
 492.070    132.7    156.5  308.5 
 492.090     33.9    155.2  308.5 
 492.110     33.9    155.2  308.5 
 492.130     66.8    155.2  308.5 
 492.150     66.8    152.6  310.2 
 492.170     66.8    152.6  310.2 
 492.190     66.8    150.1  308.5 
 492.210     66.8    150.1  308.5 
 492.230     66.8    150.1  308.5 
 492.250     33.9    146.2  310.2 
 492.270     33.9    146.2  310.2 
 492.290     66.8    146.2  310.2 
 492.310     66.8    143.6  310.2 
 492.330     66.8    143.6  310.2 
 492.350     33.9    141.1  308.5 
 492.370     33.9    141.1  308.5 
 492.390     99.7    141.1  308.5 
 492.410     99.7    141.1  310.2 
 492.430     99.7    141.1  310.2 
 492.450     66.8    139.8  308.5 
 492.470     66.8    139.8  308.5 
 492.490     66.8    139.8  308.5 
 492.510     33.9    139.8  310.2 
 492.530     33.9    139.8  310.2 
 492.550    165.6    139.8  310.2 
 492.570    165.6    141.1  308.5 
 492.590    165.6    141.1  308.5 
 492.610     99.7    141.1  308.5 
 492.630     99.7    141.1  308.5 
 492.650     99.7    141.1  308.5 
 492.670     66.8    142.4  308.5 
 492.690     66.8    142.4  308.5 
 492.710     66.8    142.4  308.5 
 492.730     66.8    142.4  308.5 
 492.750     66.8    142.4  308.5 
 492.770     33.9    143.6  308.5 
 492.790     33.9    143.6  308.5 
 492.810     33.9    143.6  308.5 
 492.830      1.0    142.4  308.5 
 492.850      1.0    142.4  308.5 
 492.870    165.6    142.4  308.5 
 492.890    165.6    143.6  310.2 
 492.910    165.6    143.6  310.2 
 492.930     66.8    142.4  308.5 
 492.950     66.8    142.4  308.5 
 492.970     66.8    142.4  308.5 
 492.990     99.7    142.4  310.2 
 493.010     99.7    142.4  310.2 
 493.030     33.9    142.4  308.5 
 493.050     33.9    142.4  308.5 
 493.070     33.9    142.4  308.5 
 493.090     33.9    142.4  310.2 
 493.110     33.9    142.4  310.2 
 493.130    198.5    142.4  310.2 
 493.150    198.5    143.6  310.2 
 493.170    198.5    143.6  310.2 
 493.190    264.3    142.4  308.5 
 493.210    264.3    142.4  308.5 
 493.230    264.3    142.4  308.5 
 493.250     66.8    143.6  310.2 
 493.270     66.8    143.6  310.2 
 493.290     99.7    143.6  310.2 
 493.310     99.7    143.6  310.2 
 493.330     99.7    143.6  310.2 
 493.350    132.7    143.6  308.5 
 493.370    132.7    143.6  308.5 
 493.390     66.8    143.6  308.5 
 493.410     66.8    143.6  308.5 
 493.430     66.8    143.6  308.5 
 493.450    132.7    143.6  308.5 
 493.470    132.7    143.6  308.5 
 493.490    132.7    143.6  308.5 
 493.510     66.8    143.6  308.5 
 493.530     66.8    143.6  308.5 
 493.550    132.7    143.6  308.5 
 493.570    132.7    143.6  308.5 
 493.590    132.7    143.6  308.5 
 493.610    198.5    143.6  306.7 
 493.630    198.5    143.6  306.7 
 493.650    198.5    143.6  306.7 
 493.670    132.7    146.2  308.5 
 493.690    132.7    146.2  308.5 
 493.710    198.5    146.2  308.5 
 493.730    198.5    146.2  306.7 
 493.750    198.5    146.2  306.7 
 493.770    264.3    147.5  308.5 
 493.790    264.3    147.5  308.5 
 493.810    264.3    147.5  308.5 
 493.830     66.8    150.1  308.5 
 493.850     66.8    150.1  308.5 
 493.870    264.3    150.1  308.5 
 493.890    264.3    150.1  308.5 
 493.910    264.3    150.1  308.5 
 493.930    165.6    151.3  308.5 
 493.950    165.6    151.3  308.5 
 493.970    165.6    151.3  308.5 
 493.990    165.6    151.3  308.5 
 494.010    165.6    151.3  308.5 
 494.030     99.7    151.3  310.2 
 494.050     99.7    151.3  310.2 
 494.070     99.7    151.3  310.2 
 494.090    132.7    151.3  308.5 
 494.110    132.7    151.3  308.5 
 494.130     99.7    151.3  308.5 
 494.150     99.7    148.8  310.2 
 494.170     99.7    148.8  310.2 
 494.190     99.7    147.5  310.2 
 494.210     99.7    147.5  310.2 
 494.230     99.7    147.5  310.2 
 494.250     99.7    148.8  310.2 
 494.270     99.7    148.8  310.2 
 494.290     33.9    150.1  310.2 
 494.310     33.9    150.1  310.2 
 494.330     33.9    150.1  310.2 
 494.350    132.7    146.2  312.0 
 494.370    132.7    146.2  312.0 
 494.390    132.7    146.2  312.0 
 494.410     99.7    146.2  312.0 
 494.430     99.7    146.2  312.0 
 494.450    165.6    147.5  313.8 
 494.470    165.6    147.5  313.8 
 494.490    165.6    147.5  313.8 
 494.510    165.6    147.5  312.0 
 494.530    165.6    147.5  312.0 
 494.550    165.6    147.5  312.0 
 494.570    165.6    146.2  313.8 
 494.590    165.6    146.2  313.8 
 494.610    198.5    146.2  313.8 
 494.630    198.5    146.2  313.8 
 494.650    198.5    146.2  313.8 
 494.670    165.6    146.2  313.8 
 494.690    165.6    146.2  313.8 
 494.710    132.7    146.2  313.8 
 494.730    132.7    148.8  313.8 
 494.750    132.7    148.8  313.8 
 494.770    132.7    147.5  313.8 
 494.790    132.7    147.5  313.8 
 494.810     99.7    147.5  313.8 
 494.830     99.7    144.9  313.8 
 494.850     99.7    144.9  313.8 
 494.870    165.6    148.8  313.8 
 494.890    165.6    148.8  313.8 
 494.910    165.6    148.8  313.8 
 494.930     66.8    150.1  315.5 
 494.950     66.8    150.1  315.5 
 494.970     66.8    150.1  315.5 
 494.990     66.8    148.8  313.8 
 495.010     66.8    148.8  313.8 
 495.030    231.4    147.5  315.5 
 495.050    231.4    147.5  315.5 
 495.070    231.4    147.5  315.5 
 495.090     66.8    148.8  315.5 
 495.110     66.8    148.8  315.5 
 495.130     99.7    148.8  315.5 
 495.150     99.7    147.5  315.5 
 495.170     99.7    147.5  315.5 
 495.190    132.7    147.5  315.5 
 495.210    132.7    147.5  315.5 
 495.230    132.7    147.5  315.5 
 495.250      1.0    144.9  315.5 
 495.270      1.0    144.9  315.5 
 495.290    165.6    144.9  315.5 
 495.310    165.6    144.9  315.5 
 495.330    165.6    144.9  315.5 
 495.350     33.9    143.6  313.8 
 495.370     33.9    143.6  313.8 
 495.390     33.9    143.6  313.8 
 495.410     99.7    143.6  313.8 
 495.430     99.7    143.6  313.8 
 495.450    132.7    143.6  315.5 
 495.470    132.7    143.6  315.5 
 495.490    132.7    143.6  315.5 
 495.510     99.7    143.6  313.8 
 495.530     99.7    143.6  313.8 
 495.550    165.6    143.6  313.8 
 495.570    165.6    144.9  312.0 
 495.590    165.6    144.9  312.0 
 495.610     66.8    144.9  313.8 
 495.630     66.8    144.9  313.8 
 495.650     66.8    144.9  313.8 
 495.670     66.8    146.2  313.8 
 495.690     66.8    146.2  313.8 
 495.710     66.8    146.2  313.8 
 495.730     66.8    146.2  313.8 
 495.750     66.8    146.2  313.8 
 495.770     99.7    146.2  313.8 
 495.790     99.7    146.2  313.8 
 495.810     66.8    146.2  313.8 
 495.830     66.8    147.5  313.8 
 495.850     66.8    147.5  313.8 
 495.870    132.7    147.5  313.8 
 495.890    132.7    147.5  313.8 
 495.910    132.7    147.5  313.8 
 495.930     66.8    147.5  315.5 
 495.950     66.8    147.5  315.5 
 495.970    198.5    147.5  315.5 
 495.990    198.5    148.8  317.3 
 496.010    198.5    148.8  317.3 
 496.030    198.5    147.5  319.1 
 496.050    198.5    147.5  319.1 
