~Version Information
 VERS.                2.0:  CWLS LOG ASCII STANDARD -VERSION 2.0
 WRAP.                 NO:  ONE LINE PER DEPTH STEP
~WELL INFORMATION BLOCK
#MNEM.UNIT       DATA		            DESCRIPTION OF MNEMONIC
#---------    -------------            ------------------------
 STRT.FT  6.030                          :START DEPTH
 STOP.FT  530.850                        :STOP DEPTH
 STEP.FT  0.020                          :STEP    UP_HOLE  
 NULL.    -999.25                        :NULL VALUE
 COMP.    CARLTON G1                     :COMPANY
 WELL.    279453                                                       :WELL
 FLD .    71-B NORTHFIELD                :FIELD\LOCATION
 LOC .    31    112   19                 :LOCATION
 CNTY.    RICE                           :COUNTY
 STAT.    CACCCA                         :STATE
 CTRY.    USA                            :COUNTRY
 SRVC.    TRUCK                          :SERVICE COMPANY
 DATE.    08/29/2018                     :LOG DATE
 API .                                       :API NUMBER
 LIC .                                   :LICENSE NUMBER
~Curve Information Block
#MNEM.UNIT      API CODE     Curve Description
#---------    -------------  ------------------------
 DEPT     .FT        00 001 00 00          :  1  DEPTH   
 GAMMA    .API-GR    00 310 00 00          :  2  GAMMA RAY           
 RES      .OHM       00 000 00 00          :  3  SINGLE POINT RES    
 SP       .MV        00 010 00 00          :  4  SPON POTENTIAL      
~Parameter Information Block
#MNEM.UNIT   Information     Description
#---------- ---------------  ------------------------
 FILE.      PROCESSED          :File Type
 FIID.      9060A              :File Type Identifier
 VERS.      3.60Q              :System Version
 SER .      1                  :System Serial Number
 TRUK.      0.0                :Truck Calibration Number
 TOOL.         202             :Tool Serial Number
 TIME.      1055               :Time    HrHrMinMin
 LAT .                         :Latitude
 LON .                         :Longitude
 LMF .                         :Log Measured From
 DMF .                         :Driller Measured From
 PD  .                         :Permanent Data
 PDEV.FT                       :Elevation Permanent Data
 EKB .FT                       :Elevation Kelly Bushing
 ELEV.FT                       :Elevation DF
 EGL .FT    944 L1             :Elevation Ground Level
 DRDP.FT    27                 :Driller's Depth
 CASD.FT    5.5                :Casing Diameter
 CASB.FT                       :Casing Bottom
 CASX.                         :Casing Type
 CAST.IN    0                  :Casing Thickness
 TNOC.                         :Time Circulation Stopped
 LOGU.                         :Logging Unit
 RECB.      CICHA              :Recorded By
 OSR1.                         :Other Services
 OSR2.                         :Other Services
 OSR3.                         :Other Services
 BS  .IN           6           :Bit Size
 MST .F                        :Mean Surface Temperature
 TGRD.F     0                  :Temperature Gradiant
 MAGN.      0                  :Magnetic Declination
 MDEN.      2.84               :Density Matrix
 MATR.      DOLOMITE           :Neutron Matrix
 DTMT.      44                 :Delta T Matrix
 DTFL.                         :Delta T Fluid
 MUDS.      0                  :Mud Sample Source
 MRS .      0                  :Mud Resistivity
 MTP .      0                  :Mud Temperature
 MFRS.                         :Resistivity Mud Filtrate
 MFTP.                         :Temperature Mud Filtrate
 MCRS.      0                  :Resistivity Mud Cake
 MCTP.                         :Temperature Mud Cake
 FTYP.      0                  :Fluid Type
 FD  .LB/G     0               :Mud Weight
 DFV .S                        :Fluid Viscosity
 FPH .                         :Fuild PH
 ELCO.      2500               :Electron Cutoff
 CASL.IN    4                  :Casing Logger
 LOTD.FT                       :Logger TD
 ARTM.                         :Arrival Time
 DPTM.                         :Departure Time
 RIGN.                         :Rig Number
~Other Information
#MNEM.UNIT  Information      Description
#---------- ---------------  ------------------------
# -------------------------- 
~A DEPTH  GAMMA    RES      SP    
# ...
 528.130     66.8    150.1  200.4 
 528.150     66.8    150.1  200.4 
 528.170    198.5    142.4  198.7 
 528.190    198.5    142.4  198.7 
 528.210     99.7    139.8  196.9 
 528.230     99.7    139.8  196.9 
 528.250    231.4    139.8  198.7 
 528.270    231.4    139.8  198.7 
 528.290     99.7    139.8  195.1 
 528.310     99.7    139.8  195.1 
 528.330     66.8    139.8  195.1 
 528.350     66.8    142.4  195.1 
 528.370     33.9    142.4  195.1 
 528.390     33.9    146.2  193.4 
 528.410     66.8    146.2  193.4 
 528.430     66.8    151.3  193.4 
 528.450     66.8    151.3  193.4 
 528.470     66.8    156.5  193.4 
 528.490      1.0    156.5  193.4 
 528.510      1.0    160.3  193.4 
 528.530    132.7    160.3  193.4 
 528.550    132.7    161.6  191.6 
 528.570    132.7    161.6  191.6 
 528.590    198.5    164.2  191.6 
 528.610    198.5    164.2  191.6 
 528.630    132.7    164.2  189.8 
 528.650    132.7    164.2  189.8 
 528.670     66.8    164.2  189.8 
 528.690     99.7    166.7  189.8 
 528.710     99.7    166.7  189.8 
 528.730     99.7    168.0  189.8 
 528.750     99.7    168.0  189.8 
 528.770    132.7    173.2  188.0 
 528.790    132.7    173.2  188.0 
 528.810    132.7    174.4  189.8 
 528.830    132.7    174.4  189.8 
 528.850    132.7    177.0  189.8 
 528.870    132.7    177.0  189.8 
 528.890    231.4    178.3  189.8 
 528.910     99.7    178.3  189.8 
 528.930     99.7    179.6  189.8 
 528.950     99.7    179.6  189.8 
 528.970     99.7    179.6  188.0 
 528.990      1.0    179.6  188.0 
 529.010    132.7    180.9  189.8 
 529.030    132.7    180.9  189.8 
 529.050     66.8    180.9  189.8 
 529.070     33.9    180.9  188.0 
 529.090     33.9    180.9  188.0 
 529.110      1.0    182.1  189.8 
 529.130     66.8    182.1  189.8 
 529.150     66.8    180.9  189.8 
 529.170     66.8    180.9  189.8 
 529.190      1.0    179.6  189.8 
 529.210     99.7    179.6  189.8 
 529.230     99.7    178.3  189.8 
 529.250     33.9    178.3  189.8 
 529.270    132.7    178.3  188.0 
 529.290    132.7    178.3  188.0 
 529.310    165.6    177.0  189.8 
 529.330     33.9    177.0  189.8 
 529.350     33.9    174.4  188.0 
 529.370    132.7    174.4  188.0 
 529.390    198.5    174.4  188.0 
 529.410     99.7    174.4  188.0 
 529.430     99.7    173.2  186.3 
 529.450    165.6    173.2  186.3 
 529.470    132.7    173.2  186.3 
 529.490    132.7    173.2  188.0 
 529.510    132.7    173.2  188.0 
 529.530     33.9    174.4  186.3 
 529.550    264.3    174.4  186.3 
 529.570    264.3    175.7  188.0 
 529.590     99.7    177.0  189.8 
 529.610     99.7    177.0  189.8 
 529.630     99.7    180.9  189.8 
 529.650     99.7    180.9  189.8 
 529.670     66.8    183.4  191.6 
 529.690    132.7    183.4  191.6 
 529.710    132.7    188.6  191.6 
 529.730    165.6    188.6  191.6 
 529.750    132.7    188.6  195.1 
 529.770    165.6    188.6  195.1 
 529.790    165.6    191.1  195.1 
 529.810     66.8    191.1  198.7 
 529.830    165.6    191.1  198.7 
 529.850     99.7    191.1  198.7 
 529.870    132.7    191.1  198.7 
 529.890     33.9    189.8  200.4 
 529.910     33.9    189.8  202.2 
 529.930     33.9    189.8  202.2 
 529.950    102.9    188.6  204.0 
 529.970  -999.25    188.6  205.8 
 529.990  -999.25    188.6  205.8 
 530.010  -999.25    187.3  207.5 
 530.030  -999.25    188.6  209.3 
 530.050  -999.25    188.6  209.3 
 530.070  -999.25    187.3  209.3 
 530.090  -999.25    186.0  209.3 
 530.110  -999.25    186.0  211.1 
 530.130  -999.25    186.0  211.1 
 530.150  -999.25    187.3  212.8 
 530.170  -999.25    186.0  212.8 
 530.190  -999.25    186.0  212.8 
 530.210  -999.25    186.0  212.8 
 530.230  -999.25    183.4  214.6 
 530.250  -999.25    183.4  214.6 
 530.270  -999.25    182.1  216.4 
 530.290  -999.25    182.1  218.1 
 530.310  -999.25    178.3  218.1 
 530.330  -999.25    178.3  218.1 
 530.350  -999.25    178.3  219.9 
 530.370  -999.25    175.7  223.5 
 530.390  -999.25    175.7  223.5 
 530.410  -999.25    177.0  225.2 
 530.430  -999.25    174.4  227.0 
 530.450  -999.25    173.2  228.8 
 530.470  -999.25    173.2  228.8 
 530.490  -999.25    173.2  232.3 
 530.510  -999.25    171.9  234.1 
 530.530  -999.25    171.9  234.1 
 530.550  -999.25    171.9  237.6 
 530.570  -999.25    169.3  239.4 
 530.590  -999.25    169.3  241.2 
 530.610  -999.25    169.3  241.2 
 530.630  -999.25    168.0  242.9 
 530.650  -999.25    165.5  246.5 
 530.670  -999.25    165.5  246.5 
 530.690  -999.25    165.5  246.5 
 530.710  -999.25    162.9  248.3 
 530.730  -999.25    161.6  250.0 
 530.750  -999.25    156.5  250.0 
 530.770  -999.25    155.2  250.0 
 530.790  -999.25    152.6  250.0 
 530.810  -999.25    152.6  250.0 
 530.830  -999.25    153.9  251.8 
 530.850  -999.25    151.8  248.6 
