~Version Information
 VERS.                2.0:  CWLS LOG ASCII STANDARD -VERSION 2.0
 WRAP.                 NO:  ONE LINE PER DEPTH STEP
~WELL INFORMATION BLOCK
#MNEM.UNIT       DATA		            DESCRIPTION OF MNEMONIC
#---------    -------------            ------------------------
 STRT.FT  6.030                          :START DEPTH
 STOP.FT  530.850                        :STOP DEPTH
 STEP.FT  0.020                          :STEP    UP_HOLE  
 NULL.    -999.25                        :NULL VALUE
 COMP.    CARLTON G1                     :COMPANY
 WELL.    279453                                                       :WELL
 FLD .    71-B NORTHFIELD                :FIELD\LOCATION
 LOC .    31    112   19                 :LOCATION
 CNTY.    RICE                           :COUNTY
 STAT.    CACCCA                         :STATE
 CTRY.    USA                            :COUNTRY
 SRVC.    TRUCK                          :SERVICE COMPANY
 DATE.    08/29/2018                     :LOG DATE
 API .                                       :API NUMBER
 LIC .                                   :LICENSE NUMBER
~Curve Information Block
#MNEM.UNIT      API CODE     Curve Description
#---------    -------------  ------------------------
 DEPT     .FT        00 001 00 00          :  1  DEPTH   
 GAMMA    .API-GR    00 310 00 00          :  2  GAMMA RAY           
 RES      .OHM       00 000 00 00          :  3  SINGLE POINT RES    
 SP       .MV        00 010 00 00          :  4  SPON POTENTIAL      
~Parameter Information Block
#MNEM.UNIT   Information     Description
#---------- ---------------  ------------------------
 FILE.      PROCESSED          :File Type
 FIID.      9060A              :File Type Identifier
 VERS.      3.60Q              :System Version
 SER .      1                  :System Serial Number
 TRUK.      0.0                :Truck Calibration Number
 TOOL.         202             :Tool Serial Number
 TIME.      1055               :Time    HrHrMinMin
 LAT .                         :Latitude
 LON .                         :Longitude
 LMF .                         :Log Measured From
 DMF .                         :Driller Measured From
 PD  .                         :Permanent Data
 PDEV.FT                       :Elevation Permanent Data
 EKB .FT                       :Elevation Kelly Bushing
 ELEV.FT                       :Elevation DF
 EGL .FT    944 L1             :Elevation Ground Level
 DRDP.FT    27                 :Driller's Depth
 CASD.FT    5.5                :Casing Diameter
 CASB.FT                       :Casing Bottom
 CASX.                         :Casing Type
 CAST.IN    0                  :Casing Thickness
 TNOC.                         :Time Circulation Stopped
 LOGU.                         :Logging Unit
 RECB.      CICHA              :Recorded By
 OSR1.                         :Other Services
 OSR2.                         :Other Services
 OSR3.                         :Other Services
 BS  .IN           6           :Bit Size
 MST .F                        :Mean Surface Temperature
 TGRD.F     0                  :Temperature Gradiant
 MAGN.      0                  :Magnetic Declination
 MDEN.      2.84               :Density Matrix
 MATR.      DOLOMITE           :Neutron Matrix
 DTMT.      44                 :Delta T Matrix
 DTFL.                         :Delta T Fluid
 MUDS.      0                  :Mud Sample Source
 MRS .      0                  :Mud Resistivity
 MTP .      0                  :Mud Temperature
 MFRS.                         :Resistivity Mud Filtrate
 MFTP.                         :Temperature Mud Filtrate
 MCRS.      0                  :Resistivity Mud Cake
 MCTP.                         :Temperature Mud Cake
 FTYP.      0                  :Fluid Type
 FD  .LB/G     0               :Mud Weight
 DFV .S                        :Fluid Viscosity
 FPH .                         :Fuild PH
 ELCO.      2500               :Electron Cutoff
 CASL.IN    4                  :Casing Logger
 LOTD.FT                       :Logger TD
 ARTM.                         :Arrival Time
 DPTM.                         :Departure Time
 RIGN.                         :Rig Number
~Other Information
#MNEM.UNIT  Information      Description
#---------- ---------------  ------------------------
# -------------------------- 
~A DEPTH  GAMMA    RES      SP    
# ...
 248.750     99.7    294.6  152.6 
 248.770      1.0    297.2  152.6 
 248.790      1.0    297.2  152.6 
 248.810      1.0    297.2  152.6 
 248.830     33.9    299.8  150.9 
 248.850     33.9    299.8  150.9 
 248.870     33.9    299.8  150.9 
 248.890      1.0    297.2  152.6 
 248.910      1.0    297.2  152.6 
 248.930      1.0    297.2  152.6 
 248.950      1.0    299.8  150.9 
 248.970      1.0    299.8  150.9 
 248.990     33.9    299.8  150.9 
 249.010     33.9    299.8  150.9 
 249.030     33.9    299.8  150.9 
 249.050     99.7    299.8  149.1 
 249.070     99.7    299.8  149.1 
 249.090     99.7    299.8  149.1 
 249.110     66.8    302.4  149.1 
 249.130     66.8    302.4  149.1 
 249.150     66.8    302.4  149.1 
 249.170     33.9    302.4  149.1 
 249.190     33.9    302.4  149.1 
 249.210     33.9    302.4  149.1 
 249.230     66.8    302.4  149.1 
 249.250     66.8    302.4  149.1 
 249.270     99.7    302.4  149.1 
 249.290     99.7    302.4  147.3 
 249.310     99.7    302.4  147.3 
 249.330     33.9    305.0  147.3 
 249.350     33.9    305.0  147.3 
 249.370     33.9    305.0  147.3 
 249.390     99.7    305.0  145.6 
 249.410     99.7    305.0  145.6 
 249.430     99.7    305.0  145.6 
 249.450     33.9    305.0  145.6 
 249.470     33.9    305.0  145.6 
 249.490     33.9    305.0  145.6 
 249.510      1.0    307.6  145.6 
 249.530      1.0    307.6  145.6 
 249.550      1.0    307.6  145.6 
 249.570      1.0    307.6  145.6 
 249.590      1.0    307.6  145.6 
 249.610     33.9    307.6  145.6 
 249.630     33.9    312.8  145.6 
 249.650     33.9    312.8  145.6 
 249.670     33.9    312.8  143.8 
 249.690     33.9    312.8  143.8 
 249.710     33.9    312.8  143.8 
 249.730     33.9    312.8  143.8 
 249.750     33.9    312.8  143.8 
 249.770     33.9    312.8  143.8 
 249.790      1.0    312.8  143.8 
 249.810      1.0    312.8  143.8 
 249.830     33.9    312.8  143.8 
 249.850     33.9    315.5  145.6 
 249.870     33.9    315.5  145.6 
 249.890      1.0    318.1  143.8 
 249.910      1.0    318.1  143.8 
 249.930      1.0    318.1  143.8 
 249.950      1.0    312.8  143.8 
 249.970      1.0    312.8  143.8 
 249.990      1.0    312.8  143.8 
 250.010     66.8    315.5  145.6 
 250.030     66.8    315.5  145.6 
 250.050     66.8    315.5  145.6 
 250.070      1.0    312.8  145.6 
 250.090      1.0    312.8  145.6 
 250.110     33.9    312.8  145.6 
 250.130     33.9    315.5  145.6 
 250.150     33.9    315.5  145.6 
 250.170      1.0    312.8  147.3 
 250.190      1.0    312.8  147.3 
 250.210      1.0    312.8  147.3 
 250.230     33.9    312.8  145.6 
 250.250     33.9    312.8  145.6 
 250.270     33.9    312.8  145.6 
 250.290     33.9    312.8  147.3 
 250.310     33.9    312.8  147.3 
 250.330     33.9    312.8  147.3 
 250.350     33.9    307.6  147.3 
 250.370     33.9    307.6  147.3 
 250.390      1.0    307.6  147.3 
 250.410      1.0    310.2  149.1 
 250.430      1.0    310.2  149.1 
 250.450      1.0    307.6  149.1 
 250.470      1.0    307.6  149.1 
 250.490      1.0    307.6  149.1 
 250.510     33.9    305.0  149.1 
 250.530     33.9    305.0  149.1 
 250.550     33.9    305.0  149.1 
 250.570    132.7    305.0  149.1 
 250.590    132.7    305.0  149.1 
 250.610    132.7    305.0  149.1 
 250.630     66.8    302.4  150.9 
 250.650     66.8    302.4  150.9 
 250.670      1.0    302.4  150.9 
 250.690      1.0    299.8  150.9 
 250.710      1.0    299.8  150.9 
 250.730      1.0    299.8  152.6 
 250.750      1.0    299.8  152.6 
 250.770      1.0    299.8  152.6 
 250.790     66.8    297.2  152.6 
 250.810     66.8    297.2  152.6 
 250.830     66.8    297.2  152.6 
 250.850     66.8    294.6  150.9 
 250.870     66.8    294.6  150.9 
 250.890     66.8    294.6  150.9 
 250.910     66.8    292.0  154.4 
 250.930     66.8    292.0  154.4 
 250.950      1.0    292.0  154.4 
 250.970      1.0    292.0  152.6 
 250.990      1.0    292.0  152.6 
 251.010     33.9    289.4  154.4 
 251.030     33.9    289.4  154.4 
 251.050     33.9    289.4  154.4 
 251.070     33.9    289.4  154.4 
 251.090     33.9    289.4  154.4 
 251.110     33.9    289.4  154.4 
 251.130     33.9    286.8  156.2 
 251.150     33.9    286.8  156.2 
 251.170     33.9    286.8  156.2 
 251.190      1.0    286.8  156.2 
 251.210      1.0    286.8  156.2 
 251.230     33.9    286.8  156.2 
 251.250     33.9    286.8  156.2 
 251.270     33.9    286.8  156.2 
 251.290      1.0    284.2  157.9 
 251.310      1.0    284.2  157.9 
 251.330      1.0    284.2  157.9 
 251.350     33.9    281.6  159.7 
 251.370     33.9    281.6  159.7 
 251.390     33.9    281.6  159.7 
 251.410     33.9    281.6  159.7 
 251.430     33.9    281.6  159.7 
 251.450     33.9    281.6  159.7 
 251.470     33.9    276.4  161.5 
 251.490     33.9    276.4  161.5 
 251.510     66.8    276.4  161.5 
 251.530     66.8    273.8  163.3 
 251.550     66.8    273.8  163.3 
 251.570     66.8    271.2  163.3 
 251.590     66.8    271.2  163.3 
 251.610     66.8    271.2  163.3 
 251.630      1.0    268.5  166.8 
 251.650      1.0    268.5  166.8 
 251.670      1.0    268.5  166.8 
 251.690      1.0    263.3  168.6 
 251.710      1.0    263.3  168.6 
 251.730      1.0    263.3  168.6 
 251.750     33.9    258.1  170.3 
 251.770     33.9    258.1  170.3 
 251.790      1.0    258.1  170.3 
 251.810      1.0    252.9  172.1 
 251.830      1.0    252.9  172.1 
 251.850    165.6    247.6  173.9 
 251.870    165.6    247.6  173.9 
 251.890    165.6    247.6  173.9 
 251.910      1.0    243.7  175.7 
 251.930      1.0    243.7  175.7 
 251.950      1.0    243.7  175.7 
 251.970      1.0    242.5  177.4 
 251.990      1.0    242.5  177.4 
 252.010      1.0    242.5  177.4 
 252.030     99.7    238.6  179.2 
 252.050     99.7    238.6  179.2 
 252.070     33.9    238.6  179.2 
 252.090     33.9    236.0  181.0 
 252.110     33.9    236.0  181.0 
 252.130     33.9    233.5  182.7 
 252.150     33.9    233.5  182.7 
 252.170     33.9    233.5  182.7 
 252.190     33.9    229.6  184.5 
 252.210     33.9    229.6  184.5 
 252.230     33.9    229.6  184.5 
 252.250     33.9    227.1  186.3 
 252.270     33.9    227.1  186.3 
 252.290     33.9    227.1  186.3 
 252.310      1.0    223.2  188.0 
 252.330      1.0    223.2  188.0 
 252.350      1.0    223.2  188.0 
 252.370      1.0    219.4  188.0 
 252.390      1.0    219.4  188.0 
 252.410     33.9    214.2  191.6 
 252.430     33.9    214.2  191.6 
 252.450     33.9    214.2  191.6 
 252.470     33.9    210.4  191.6 
 252.490     33.9    210.4  191.6 
 252.510     33.9    210.4  191.6 
 252.530      1.0    209.1  191.6 
 252.550      1.0    209.1  191.6 
 252.570      1.0    209.1  191.6 
 252.590     33.9    206.5  191.6 
 252.610     33.9    206.5  191.6 
 252.630      1.0    206.5  191.6 
 252.650      1.0    205.2  193.4 
 252.670      1.0    205.2  193.4 
 252.690     33.9    204.0  193.4 
 252.710     33.9    204.0  193.4 
 252.730     33.9    204.0  193.4 
 252.750      1.0    202.7  193.4 
 252.770      1.0    202.7  193.4 
 252.790      1.0    202.7  193.4 
 252.810      1.0    201.4  195.1 
 252.830      1.0    201.4  195.1 
 252.850      1.0    201.4  195.1 
 252.870      1.0    200.1  195.1 
 252.890      1.0    200.1  195.1 
 252.910     33.9    200.1  195.1 
 252.930     33.9    200.1  195.1 
 252.950     33.9    200.1  195.1 
 252.970      1.0    200.1  193.4 
 252.990      1.0    200.1  193.4 
 253.010      1.0    200.1  193.4 
 253.030      1.0    198.8  195.1 
 253.050      1.0    198.8  195.1 
 253.070      1.0    198.8  195.1 
 253.090     33.9    198.8  195.1 
 253.110     33.9    198.8  195.1 
 253.130      1.0    198.8  195.1 
 253.150      1.0    198.8  195.1 
 253.170      1.0    198.8  195.1 
 253.190      1.0    198.8  195.1 
 253.210      1.0    198.8  193.4 
 253.230      1.0    198.8  193.4 
 253.250      1.0    197.5  193.4 
 253.270      1.0    197.5  193.4 
 253.290      1.0    197.5  193.4 
 253.310      1.0    197.5  195.1 
