~Version Information
 VERS.                2.0:  CWLS LOG ASCII STANDARD -VERSION 2.0
 WRAP.                 NO:  ONE LINE PER DEPTH STEP
~WELL INFORMATION BLOCK
#MNEM.UNIT       DATA		            DESCRIPTION OF MNEMONIC
#---------    -------------            ------------------------
 STRT.FT  6.030                          :START DEPTH
 STOP.FT  530.850                        :STOP DEPTH
 STEP.FT  0.020                          :STEP    UP_HOLE  
 NULL.    -999.25                        :NULL VALUE
 COMP.    CARLTON G1                     :COMPANY
 WELL.    279453                                                       :WELL
 FLD .    71-B NORTHFIELD                :FIELD\LOCATION
 LOC .    31    112   19                 :LOCATION
 CNTY.    RICE                           :COUNTY
 STAT.    CACCCA                         :STATE
 CTRY.    USA                            :COUNTRY
 SRVC.    TRUCK                          :SERVICE COMPANY
 DATE.    08/29/2018                     :LOG DATE
 API .                                       :API NUMBER
 LIC .                                   :LICENSE NUMBER
~Curve Information Block
#MNEM.UNIT      API CODE     Curve Description
#---------    -------------  ------------------------
 DEPT     .FT        00 001 00 00          :  1  DEPTH   
 GAMMA    .API-GR    00 310 00 00          :  2  GAMMA RAY           
 RES      .OHM       00 000 00 00          :  3  SINGLE POINT RES    
 SP       .MV        00 010 00 00          :  4  SPON POTENTIAL      
~Parameter Information Block
#MNEM.UNIT   Information     Description
#---------- ---------------  ------------------------
 FILE.      PROCESSED          :File Type
 FIID.      9060A              :File Type Identifier
 VERS.      3.60Q              :System Version
 SER .      1                  :System Serial Number
 TRUK.      0.0                :Truck Calibration Number
 TOOL.         202             :Tool Serial Number
 TIME.      1055               :Time    HrHrMinMin
 LAT .                         :Latitude
 LON .                         :Longitude
 LMF .                         :Log Measured From
 DMF .                         :Driller Measured From
 PD  .                         :Permanent Data
 PDEV.FT                       :Elevation Permanent Data
 EKB .FT                       :Elevation Kelly Bushing
 ELEV.FT                       :Elevation DF
 EGL .FT    944 L1             :Elevation Ground Level
 DRDP.FT    27                 :Driller's Depth
 CASD.FT    5.5                :Casing Diameter
 CASB.FT                       :Casing Bottom
 CASX.                         :Casing Type
 CAST.IN    0                  :Casing Thickness
 TNOC.                         :Time Circulation Stopped
 LOGU.                         :Logging Unit
 RECB.      CICHA              :Recorded By
 OSR1.                         :Other Services
 OSR2.                         :Other Services
 OSR3.                         :Other Services
 BS  .IN           6           :Bit Size
 MST .F                        :Mean Surface Temperature
 TGRD.F     0                  :Temperature Gradiant
 MAGN.      0                  :Magnetic Declination
 MDEN.      2.84               :Density Matrix
 MATR.      DOLOMITE           :Neutron Matrix
 DTMT.      44                 :Delta T Matrix
 DTFL.                         :Delta T Fluid
 MUDS.      0                  :Mud Sample Source
 MRS .      0                  :Mud Resistivity
 MTP .      0                  :Mud Temperature
 MFRS.                         :Resistivity Mud Filtrate
 MFTP.                         :Temperature Mud Filtrate
 MCRS.      0                  :Resistivity Mud Cake
 MCTP.                         :Temperature Mud Cake
 FTYP.      0                  :Fluid Type
 FD  .LB/G     0               :Mud Weight
 DFV .S                        :Fluid Viscosity
 FPH .                         :Fuild PH
 ELCO.      2500               :Electron Cutoff
 CASL.IN    4                  :Casing Logger
 LOTD.FT                       :Logger TD
 ARTM.                         :Arrival Time
 DPTM.                         :Departure Time
 RIGN.                         :Rig Number
~Other Information
#MNEM.UNIT  Information      Description
#---------- ---------------  ------------------------
# -------------------------- 
~A DEPTH  GAMMA    RES      SP    
# ...
 459.430     33.9    143.6  313.8 
 459.450     33.9    143.6  313.8 
 459.470     66.8    143.6  313.8 
 459.490     66.8    144.9  313.8 
 459.510     99.7    144.9  313.8 
 459.530     99.7    142.4  313.8 
 459.550     99.7    142.4  313.8 
 459.570    165.6    142.4  313.8 
 459.590    165.6    142.4  312.0 
 459.610    165.6    142.4  312.0 
 459.630     99.7    142.4  312.0 
 459.650     99.7    141.1  312.0 
 459.670     99.7    141.1  312.0 
 459.690     99.7    143.6  312.0 
 459.710     99.7    143.6  312.0 
 459.730      1.0    143.6  312.0 
 459.750      1.0    144.9  310.2 
 459.770    132.7    144.9  310.2 
 459.790    132.7    143.6  312.0 
 459.810    132.7    143.6  312.0 
 459.830     99.7    143.6  312.0 
 459.850     99.7    144.9  310.2 
 459.870     99.7    144.9  310.2 
 459.890     33.9    143.6  310.2 
 459.910     33.9    143.6  310.2 
 459.930     66.8    143.6  310.2 
 459.950     66.8    143.6  312.0 
 459.970     66.8    143.6  312.0 
 459.990     99.7    143.6  312.0 
 460.010     99.7    144.9  312.0 
 460.030     33.9    144.9  312.0 
 460.050     33.9    144.9  310.2 
 460.070     33.9    144.9  310.2 
 460.090     33.9    144.9  310.2 
 460.110     33.9    143.6  312.0 
 460.130     33.9    143.6  312.0 
 460.150     99.7    146.2  313.8 
 460.170     99.7    146.2  313.8 
 460.190     66.8    146.2  313.8 
 460.210     66.8    144.9  312.0 
 460.230     66.8    144.9  312.0 
 460.250     99.7    144.9  312.0 
 460.270     99.7    146.2  313.8 
 460.290     66.8    146.2  313.8 
 460.310     66.8    144.9  312.0 
 460.330     66.8    144.9  312.0 
 460.350     33.9    144.9  312.0 
 460.370     33.9    144.9  313.8 
 460.390    198.5    144.9  313.8 
 460.410    198.5    144.9  312.0 
 460.430    198.5    144.9  312.0 
 460.450    165.6    144.9  312.0 
 460.470    165.6    144.9  312.0 
 460.490    165.6    144.9  312.0 
 460.510     66.8    144.9  312.0 
 460.530     66.8    144.9  312.0 
 460.550    132.7    144.9  312.0 
 460.570    132.7    144.9  310.2 
 460.590    132.7    144.9  310.2 
 460.610     66.8    144.9  310.2 
 460.630     66.8    143.6  310.2 
 460.650     99.7    143.6  310.2 
 460.670     99.7    144.9  310.2 
 460.690     99.7    144.9  310.2 
 460.710     33.9    144.9  310.2 
 460.730     33.9    144.9  310.2 
 460.750     33.9    144.9  310.2 
 460.770     99.7    144.9  310.2 
 460.790     99.7    143.6  308.5 
 460.810     99.7    143.6  308.5 
 460.830     99.7    144.9  310.2 
 460.850     99.7    144.9  310.2 
 460.870    132.7    144.9  310.2 
 460.890    132.7    146.2  308.5 
 460.910    132.7    146.2  308.5 
 460.930    132.7    146.2  308.5 
 460.950    132.7    146.2  308.5 
 460.970    264.3    146.2  308.5 
 460.990    264.3    146.2  310.2 
 461.010    264.3    146.2  310.2 
 461.030    198.5    146.2  310.2 
 461.050    198.5    144.9  310.2 
 461.070    231.4    144.9  310.2 
 461.090    231.4    146.2  312.0 
 461.110    231.4    146.2  312.0 
 461.130     33.9    146.2  312.0 
 461.150     33.9    147.5  310.2 
 461.170     99.7    147.5  310.2 
 461.190     99.7    146.2  312.0 
 461.210     99.7    146.2  312.0 
 461.230    231.4    146.2  312.0 
 461.250    231.4    146.2  312.0 
 461.270    231.4    146.2  312.0 
 461.290     33.9    146.2  313.8 
 461.310     33.9    146.2  313.8 
 461.330    132.7    146.2  313.8 
 461.350    132.7    146.2  312.0 
 461.370    132.7    146.2  312.0 
 461.390     66.8    146.2  312.0 
 461.410     66.8    144.9  312.0 
 461.430     99.7    144.9  312.0 
 461.450     99.7    144.9  312.0 
 461.470     99.7    144.9  312.0 
 461.490      1.0    144.9  312.0 
 461.510      1.0    144.9  312.0 
 461.530     33.9    144.9  312.0 
 461.550     33.9    144.9  312.0 
 461.570     33.9    144.9  312.0 
 461.590     99.7    144.9  312.0 
 461.610     99.7    144.9  310.2 
 461.630     99.7    144.9  310.2 
 461.650    198.5    144.9  310.2 
 461.670    198.5    144.9  310.2 
 461.690     33.9    144.9  310.2 
 461.710     33.9    144.9  310.2 
 461.730     33.9    144.9  310.2 
 461.750     99.7    144.9  310.2 
 461.770     99.7    144.9  308.5 
 461.790     33.9    144.9  308.5 
 461.810     33.9    144.9  308.5 
 461.830     33.9    144.9  308.5 
 461.850     99.7    144.9  308.5 
 461.870     99.7    144.9  310.2 
 461.890     99.7    144.9  310.2 
 461.910     33.9    144.9  310.2 
 461.930     33.9    144.9  308.5 
 461.950     66.8    144.9  308.5 
 461.970     66.8    144.9  310.2 
 461.990     66.8    144.9  310.2 
 462.010     99.7    144.9  310.2 
 462.030     99.7    144.9  310.2 
 462.050     66.8    144.9  310.2 
 462.070     66.8    146.2  312.0 
 462.090     66.8    146.2  312.0 
 462.110     66.8    146.2  312.0 
 462.130     66.8    146.2  312.0 
 462.150     66.8    146.2  312.0 
 462.170     66.8    146.2  312.0 
 462.190     66.8    144.9  312.0 
 462.210    132.7    144.9  312.0 
 462.230    132.7    146.2  313.8 
 462.250    132.7    146.2  313.8 
 462.270     33.9    146.2  313.8 
 462.290     33.9    144.9  312.0 
 462.310     66.8    144.9  312.0 
 462.330     66.8    144.9  313.8 
 462.350     66.8    144.9  313.8 
 462.370     99.7    144.9  313.8 
 462.390     99.7    144.9  312.0 
 462.410     99.7    144.9  312.0 
 462.430     66.8    144.9  313.8 
 462.450     66.8    144.9  313.8 
 462.470      1.0    144.9  313.8 
 462.490      1.0    143.6  312.0 
 462.510      1.0    143.6  312.0 
 462.530    165.6    143.6  312.0 
 462.550    165.6    142.4  313.8 
 462.570    165.6    142.4  313.8 
 462.590    165.6    143.6  312.0 
 462.610    165.6    143.6  312.0 
 462.630     99.7    143.6  312.0 
 462.650     99.7    142.4  313.8 
 462.670     33.9    142.4  313.8 
 462.690     33.9    141.1  312.0 
 462.710     33.9    141.1  312.0 
 462.730    132.7    141.1  312.0 
 462.750    132.7    141.1  313.8 
 462.770    132.7    141.1  313.8 
 462.790     66.8    141.1  313.8 
 462.810     66.8    141.1  313.8 
 462.830      1.0    141.1  313.8 
 462.850      1.0    139.8  315.5 
 462.870      1.0    139.8  315.5 
 462.890     33.9    139.8  315.5 
 462.910     33.9    139.8  313.8 
 462.930     99.7    139.8  313.8 
 462.950     99.7    138.5  317.3 
 462.970     99.7    138.5  317.3 
 462.990    132.7    138.5  317.3 
 463.010    132.7    137.2  315.5 
 463.030    132.7    137.2  315.5 
 463.050     33.9    137.2  315.5 
 463.070     33.9    137.2  319.1 
 463.090     99.7    137.2  319.1 
 463.110     99.7    137.2  319.1 
 463.130     99.7    137.2  319.1 
 463.150    132.7    137.2  319.1 
 463.170    132.7    135.9  319.1 
 463.190     66.8    135.9  319.1 
 463.210     66.8    134.7  322.6 
 463.230     66.8    134.7  322.6 
 463.250    132.7    134.7  322.6 
 463.270    132.7    133.4  320.8 
 463.290    132.7    133.4  320.8 
 463.310     66.8    133.4  320.8 
 463.330     66.8    133.4  324.4 
 463.350     33.9    133.4  324.4 
 463.370     33.9    129.5  324.4 
 463.390     33.9    129.5  324.4 
 463.410     33.9    129.5  324.4 
 463.430     33.9    128.2  324.4 
 463.450    132.7    128.2  324.4 
 463.470    132.7    127.0  326.2 
 463.490    132.7    127.0  326.2 
 463.510      1.0    127.0  326.2 
 463.530      1.0    124.4  324.4 
 463.550      1.0    124.4  324.4 
 463.570     66.8    121.8  326.2 
 463.590     66.8    121.8  326.2 
 463.610     99.7    121.8  326.2 
 463.630     99.7    120.5  326.2 
 463.650     99.7    120.5  326.2 
 463.670     66.8    120.5  326.2 
 463.690     66.8    119.3  324.4 
 463.710     66.8    119.3  324.4 
 463.730     66.8    116.7  324.4 
 463.750     66.8    116.7  324.4 
 463.770     66.8    116.7  324.4 
 463.790     66.8    116.7  324.4 
 463.810    132.7    116.7  324.4 
 463.830    132.7    116.7  322.6 
 463.850    132.7    116.7  322.6 
 463.870     66.8    116.7  322.6 
 463.890     66.8    119.3  322.6 
 463.910     66.8    119.3  322.6 
 463.930    198.5    119.3  322.6 
 463.950    198.5    121.8  322.6 
 463.970    132.7    121.8  322.6 
 463.990    132.7    123.1  320.8 
