~Version Information
 VERS.                2.0:  CWLS LOG ASCII STANDARD -VERSION 2.0
 WRAP.                 NO:  ONE LINE PER DEPTH STEP
~WELL INFORMATION BLOCK
#MNEM.UNIT       DATA		            DESCRIPTION OF MNEMONIC
#---------    -------------            ------------------------
 STRT.FT  39.400                         :START DEPTH
 STOP.FT  309.900                        :STOP DEPTH
 STEP.FT  0.100                          :STEP    UP_HOLE  
 NULL.    -999.25                        :NULL VALUE
 COMP.    CARLETON                       :COMPANY
 WELL.    658966_PUMPTROLL                                             :WELL
 FLD .    NORTHFIELD 71-B                :FIELD\LOCATION
 LOC .    31    112   19                 :LOCATION
 CNTY.    RICE                           :COUNTY
 STAT.    ACDBCD                         :STATE
 CTRY.    USA                            :COUNTRY
 SRVC.    TRUCK                          :SERVICE COMPANY
 DATE.    03/20/2001                     :LOG DATE
 API .                                       :API NUMBER
 LIC .                                   :LICENSE NUMBER
~Curve Information Block
#MNEM.UNIT      API CODE     Curve Description
#---------    -------------  ------------------------
 DEPT     .FT        00 001 00 00          :  1  DEPTH   
 FLOW_SL  .LIT/MIN   00 000 00 00          :  2  FLOW_SL             
 FLOW_SL  .GAL/MIN   00 000 00 00          :  3  FLOW_SL             
 FLOW_SL  .FT/MIN    00 000 00 00          :  4  FLOW_SL             
 FLOW_SL  .CPS       00 000 00 00          :  5  FLOW_SL             
 RES(FL)  .OHM-M     00 000 00 00          :  6  RES(FL)             
 TEMP     .DEG_F     00 660 00 00          :  7  TEMPERATURE         
 DEL_TEMP .DEG_F     00 000 00 00          :  8  SAMPLE DELTA TEMP   
~Parameter Information Block
#MNEM.UNIT   Information     Description
#---------- ---------------  ------------------------
 FILE.      PROCESSED          :File Type
 FIID.      9721SL             :File Type Identifier
 VERS.      1.0                :System Version
 SER .      1                  :System Serial Number
 TRUK.      .980362            :Truck Calibration Number
 TOOL.        1163             :Tool Serial Number
 TIME.      1855               :Time    HrHrMinMin
 LAT .                         :Latitude
 LON .                         :Longitude
 LMF .                         :Log Measured From
 DMF .                         :Driller Measured From
 PD  .      4101               :Permanent Data
 PDEV.FT                       :Elevation Permanent Data
 EKB .FT                       :Elevation Kelly Bushing
 ELEV.FT                       :Elevation DF
 EGL .FT    948                :Elevation Ground Level
 DRDP.FT    25                 :Driller's Depth
 CASD.FT    6                  :Casing Diameter
 CASB.FT                       :Casing Bottom
 CASX.                         :Casing Type
 CAST.IN    0                  :Casing Thickness
 TNOC.                         :Time Circulation Stopped
 LOGU.      C-2                :Logging Unit
 RECB.      TIPPING            :Recorded By
 OSR1.                         :Other Services
 OSR2.                         :Other Services
 OSR3.                         :Other Services
 BS  .IN           6           :Bit Size
 MST .F                        :Mean Surface Temperature
 TGRD.F     0                  :Temperature Gradiant
 MAGN.      0                  :Magnetic Declination
 MDEN.      2.71               :Density Matrix
 MATR.      Dolomite           :Neutron Matrix
 DTMT.      54                 :Delta T Matrix
 DTFL.                         :Delta T Fluid
 MUDS.      0                  :Mud Sample Source
 MRS .      0                  :Mud Resistivity
 MTP .      0                  :Mud Temperature
 MFRS.                         :Resistivity Mud Filtrate
 MFTP.                         :Temperature Mud Filtrate
 MCRS.      0                  :Resistivity Mud Cake
 MCTP.                         :Temperature Mud Cake
 FTYP.      0                  :Fluid Type
 FD  .LB/G                     :Mud Weight
 DFV .S                        :Fluid Viscosity
 FPH .                         :Fuild PH
 ELCO.      2500               :Electron Cutoff
 CASL.IN                       :Casing Logger
 LOTD.FT                       :Logger TD
 ARTM.                         :Arrival Time
 DPTM.                         :Departure Time
 RIGN.                         :Rig Number
~Other Information
#MNEM.UNIT  Information      Description
#---------- ---------------  ------------------------
# -------------------------- 
~A DEPTH  FLOW_SL FLOW_SL FLOW_SL FLOW_SL RES(FL) TEMP  DEL_TEMP 
# ...
 246.700  37.3     9.9    241.7   92955.7  14.49  66.7  -999.25  
 246.800  37.2     9.8    240.6   92772.9  14.46  66.7  -0.00    
 246.900  37.1     9.8    240.1   92701.7  14.47  66.7  0.00     
 247.000  36.9     9.8    239.1   92548.6  14.48  66.7  0.00     
 247.100  36.5     9.6    236.4   92115.7  14.47  66.7  -0.00    
 247.200  36.2     9.6    234.4   91806.7  14.47  66.7  -0.00    
 247.300  36.1     9.5    234.0   91750.0  14.49  66.7  0.00     
 247.400  36.1     9.5    233.7   91704.3  14.48  66.7  -0.00    
 247.500  36.0     9.5    233.2   91616.7  14.48  66.7  -0.00    
 247.600  35.8     9.5    231.8   91400.0  14.49  66.7  0.01     
 247.700  35.7     9.4    231.1   91296.3  14.46  66.7  -0.02    
 247.800  36.1     9.5    233.9   91728.3  14.50  66.7  0.01     
 247.900  36.7     9.7    237.4   92281.3  14.48  66.7  0.00     
 248.000  36.8     9.7    238.0   92378.3  14.47  66.7  -0.01    
 248.100  36.6     9.7    237.2   92241.7  14.48  66.7  0.01     
 248.200  36.3     9.6    234.7   91858.6  14.50  66.7  0.01     
 248.300  35.9     9.5    232.7   91540.0  14.48  66.7  -0.01    
 248.400  35.9     9.5    232.7   91547.1  14.49  66.7  0.00     
 248.500  36.1     9.5    233.9   91730.0  14.48  66.7  -0.04    
 248.600  36.4     9.6    235.6   92000.0  14.49  66.7  0.04     
 248.700  36.6     9.7    236.8   92183.3  14.48  66.7  0.00     
 248.800  36.5     9.6    236.1   92067.5  14.48  66.7  0.00     
 248.900  36.1     9.5    233.7   91698.6  14.48  66.7  0.00     
 249.000  35.9     9.5    232.2   91468.3  14.46  66.7  -0.01    
 249.100  35.7     9.4    231.1   91287.1  14.46  66.7  0.00     
 249.200  35.6     9.4    230.5   91201.7  14.47  66.7  -999.25  
 249.300  35.5     9.4    230.1   91126.7  14.47  66.7  -0.00    
 249.400  35.5     9.4    229.8   91092.9  14.48  66.7  0.00     
 249.500  35.6     9.4    230.3   91168.3  14.47  66.7  0.00     
 249.600  35.6     9.4    230.3   91165.0  14.46  66.7  0.00     
 249.700  35.5     9.4    229.7   91074.3  14.49  66.7  -0.01    
 249.800  35.3     9.3    228.7   90918.6  14.48  66.7  0.00     
 249.900  35.0     9.2    226.4   90561.4  14.47  66.7  0.00     
 250.000  34.7     9.2    224.5   90256.7  14.46  66.7  -0.01    
 250.100  34.5     9.1    223.5   90101.4  14.48  66.7  0.01     
 250.200  34.4     9.1    222.7   89975.0  14.50  66.7  0.00     
 250.300  34.1     9.0    221.1   89721.7  14.50  66.7  0.00     
 250.400  33.6     8.9    217.5   89158.6  14.48  66.7  0.00     
 250.500  33.1     8.8    214.6   88705.0  14.47  66.7  0.01     
 250.600  33.0     8.7    213.8   88583.3  14.49  66.7  -0.01    
 250.700  32.9     8.7    212.7   88410.0  14.48  66.7  0.01     
 250.800  32.3     8.5    209.4   87888.3  14.46  66.7  -0.01    
 250.900  32.2     8.5    208.6   87774.3  14.48  66.7  -0.00    
 251.000  32.5     8.6    210.7   88093.3  14.49  66.7  0.00     
 251.100  32.8     8.7    212.5   88377.5  14.48  66.7  0.00     
 251.200  33.0     8.7    214.0   88610.0  14.47  66.7  -0.01    
 251.300  33.4     8.8    216.3   88971.7  14.49  66.7  -0.00    
 251.400  34.0     9.0    220.0   89551.7  14.48  66.7  0.00     
 251.500  34.0     9.0    220.5   89623.3  14.47  66.7  0.00     
 251.600  33.3     8.8    215.5   88841.4  14.47  66.7  -0.00    
 251.700  32.5     8.6    210.3   88033.3  14.49  66.7  -0.00    
 251.800  32.0     8.5    207.2   87540.0  14.47  66.7  0.00     
 251.900  31.2     8.2    202.0   86735.0  14.47  66.7  -0.01    
 252.000  30.6     8.1    198.1   86116.7  14.48  66.7  0.00     
 252.100  30.8     8.1    199.5   86341.4  14.47  66.7  -0.01    
 252.200  31.5     8.3    203.9   87038.0  14.49  66.7  0.01     
 252.300  32.5     8.6    210.6   88080.0  14.48  66.7  0.00     
 252.400  33.9     8.9    219.3   89441.7  14.49  66.7  -0.03    
 252.500  34.4     9.1    223.1   90030.0  14.47  66.7  0.02     
 252.600  34.5     9.1    223.2   90054.3  14.47  66.7  0.01     
 252.700  34.5     9.1    223.4   90080.0  14.48  66.7  0.00     
 252.800  34.3     9.1    222.3   89905.7  14.46  66.7  -0.00    
 252.900  33.8     8.9    218.9   89380.0  14.47  66.7  -0.00    
 253.000  33.3     8.8    215.3   88820.0  14.49  66.7  -0.00    
 253.100  32.8     8.7    212.6   88394.3  14.49  66.7  0.00     
 253.200  33.0     8.7    213.8   88584.0  14.48  66.7  -0.01    
 253.300  33.3     8.8    215.8   88898.3  14.49  66.7  0.01     
 253.400  33.3     8.8    215.5   88844.3  14.47  66.7  0.00     
 253.500  33.2     8.8    215.1   88781.7  14.49  66.7  -999.25  
 253.600  33.4     8.8    216.0   88925.0  14.47  66.7  -0.00    
 253.700  33.8     8.9    218.8   89361.4  14.48  66.7  0.00     
 253.800  34.3     9.1    222.0   89870.0  14.48  66.7  0.00     
 253.900  34.3     9.1    222.1   89888.6  14.48  66.7  -0.00    
 254.000  33.5     8.9    217.0   89076.7  14.50  66.7  0.00     
 254.100  32.5     8.6    210.2   88010.0  14.48  66.7  -0.00    
 254.200  31.5     8.3    203.7   86998.3  14.49  66.7  0.00     
 254.300  30.9     8.2    200.4   86475.7  14.48  66.7  0.00     
 254.400  31.3     8.3    202.9   86871.4  14.47  66.7  -0.04    
 254.500  31.9     8.4    206.7   87463.3  14.50  66.7  0.03     
 254.600  32.4     8.6    209.6   87930.0  14.49  66.7  0.00     
 254.700  32.9     8.7    212.9   88435.7  14.49  66.7  -0.00    
 254.800  33.3     8.8    215.5   88852.9  14.48  66.7  0.00     
 254.900  33.7     8.9    218.4   89307.1  14.49  66.7  -0.01    
 255.000  34.5     9.1    223.3   90064.3  14.48  66.7  0.01     
 255.100  34.9     9.2    226.1   90500.0  14.49  66.7  -0.00    
 255.200  35.2     9.3    228.2   90841.4  14.48  66.7  0.00     
 255.300  35.7     9.4    230.9   91265.0  14.48  66.7  -999.25  
 255.400  35.8     9.5    232.0   91423.3  14.49  66.7  0.00     
 255.500  35.8     9.5    231.9   91410.0  14.48  66.7  -0.01    
 255.600  35.8     9.4    231.5   91355.0  14.48  66.7  0.00     
 255.700  35.6     9.4    230.7   91234.3  14.50  66.7  -0.03    
 255.800  35.4     9.3    229.1   90971.7  14.50  66.7  0.03     
 255.900  35.1     9.3    227.1   90658.6  14.48  66.7  -0.00    
 256.000  34.8     9.2    225.1   90345.0  14.49  66.7  0.00     
 256.100  35.1     9.3    227.5   90724.3  14.48  66.7  -0.00    
 256.200  35.9     9.5    232.3   91475.0  14.48  66.7  -0.00    
 256.300  35.8     9.4    231.6   91365.0  14.48  66.7  0.00     
 256.400  34.7     9.2    225.0   90331.4  14.48  66.7  -0.00    
 256.500  33.1     8.7    214.1   88630.0  14.49  66.7  0.00     
 256.600  31.4     8.3    203.1   86903.3  14.50  66.7  -0.01    
 256.700  30.3     8.0    196.3   85837.5  14.47  66.7  0.02     
 256.800  30.3     8.0    195.9   85783.3  14.48  66.7  -0.00    
 256.900  30.4     8.0    197.1   85958.6  14.47  66.7  0.00     
 257.000  30.5     8.1    197.6   86043.3  14.47  66.7  -0.02    
 257.100  30.4     8.0    196.7   85910.0  14.48  66.7  0.01     
 257.200  30.4     8.0    197.1   85961.7  14.48  66.7  -0.00    
 257.300  30.8     8.1    199.1   86281.7  14.48  66.7  0.00     
 257.400  31.4     8.3    203.3   86938.6  14.51  66.7  -0.00    
 257.500  32.0     8.5    207.1   87538.6  14.50  66.7  0.01     
 257.600  32.3     8.5    209.1   87848.6  14.48  66.7  0.00     
 257.700  32.3     8.5    209.3   87872.9  14.50  66.7  -0.00    
 257.800  32.2     8.5    208.6   87765.7  14.49  66.7  0.00     
 257.900  32.1     8.5    207.7   87618.6  14.48  66.7  -0.01    
 258.000  31.8     8.4    206.0   87358.6  14.48  66.7  0.00     
 258.100  31.6     8.3    204.5   87131.7  14.50  66.7  -0.00    
 258.200  31.6     8.4    204.7   87152.5  14.49  66.7  0.01     
 258.300  31.8     8.4    205.9   87341.7  14.48  66.7  -0.01    
 258.400  32.0     8.5    207.3   87555.7  14.51  66.7  0.00     
 258.500  32.3     8.5    208.9   87821.4  14.49  66.7  0.00     
 258.600  32.1     8.5    207.9   87655.7  14.49  66.7  0.00     
 258.700  31.4     8.3    203.1   86905.7  14.48  66.7  0.00     
 258.800  30.2     8.0    195.8   85761.7  14.49  66.7  -0.03    
