~Version Information
 VERS.                2.0:  CWLS LOG ASCII STANDARD -VERSION 2.0
 WRAP.                 NO:  ONE LINE PER DEPTH STEP
~WELL INFORMATION BLOCK
#MNEM.UNIT       DATA		            DESCRIPTION OF MNEMONIC
#---------    -------------            ------------------------
 STRT.FT  39.400                         :START DEPTH
 STOP.FT  309.900                        :STOP DEPTH
 STEP.FT  0.100                          :STEP    UP_HOLE  
 NULL.    -999.25                        :NULL VALUE
 COMP.    CARLETON                       :COMPANY
 WELL.    658966_PUMPTROLL                                             :WELL
 FLD .    NORTHFIELD 71-B                :FIELD\LOCATION
 LOC .    31    112   19                 :LOCATION
 CNTY.    RICE                           :COUNTY
 STAT.    ACDBCD                         :STATE
 CTRY.    USA                            :COUNTRY
 SRVC.    TRUCK                          :SERVICE COMPANY
 DATE.    03/20/2001                     :LOG DATE
 API .                                       :API NUMBER
 LIC .                                   :LICENSE NUMBER
~Curve Information Block
#MNEM.UNIT      API CODE     Curve Description
#---------    -------------  ------------------------
 DEPT     .FT        00 001 00 00          :  1  DEPTH   
 FLOW_SL  .LIT/MIN   00 000 00 00          :  2  FLOW_SL             
 FLOW_SL  .GAL/MIN   00 000 00 00          :  3  FLOW_SL             
 FLOW_SL  .FT/MIN    00 000 00 00          :  4  FLOW_SL             
 FLOW_SL  .CPS       00 000 00 00          :  5  FLOW_SL             
 RES(FL)  .OHM-M     00 000 00 00          :  6  RES(FL)             
 TEMP     .DEG_F     00 660 00 00          :  7  TEMPERATURE         
 DEL_TEMP .DEG_F     00 000 00 00          :  8  SAMPLE DELTA TEMP   
~Parameter Information Block
#MNEM.UNIT   Information     Description
#---------- ---------------  ------------------------
 FILE.      PROCESSED          :File Type
 FIID.      9721SL             :File Type Identifier
 VERS.      1.0                :System Version
 SER .      1                  :System Serial Number
 TRUK.      .980362            :Truck Calibration Number
 TOOL.        1163             :Tool Serial Number
 TIME.      1855               :Time    HrHrMinMin
 LAT .                         :Latitude
 LON .                         :Longitude
 LMF .                         :Log Measured From
 DMF .                         :Driller Measured From
 PD  .      4101               :Permanent Data
 PDEV.FT                       :Elevation Permanent Data
 EKB .FT                       :Elevation Kelly Bushing
 ELEV.FT                       :Elevation DF
 EGL .FT    948                :Elevation Ground Level
 DRDP.FT    25                 :Driller's Depth
 CASD.FT    6                  :Casing Diameter
 CASB.FT                       :Casing Bottom
 CASX.                         :Casing Type
 CAST.IN    0                  :Casing Thickness
 TNOC.                         :Time Circulation Stopped
 LOGU.      C-2                :Logging Unit
 RECB.      TIPPING            :Recorded By
 OSR1.                         :Other Services
 OSR2.                         :Other Services
 OSR3.                         :Other Services
 BS  .IN           6           :Bit Size
 MST .F                        :Mean Surface Temperature
 TGRD.F     0                  :Temperature Gradiant
 MAGN.      0                  :Magnetic Declination
 MDEN.      2.71               :Density Matrix
 MATR.      Dolomite           :Neutron Matrix
 DTMT.      54                 :Delta T Matrix
 DTFL.                         :Delta T Fluid
 MUDS.      0                  :Mud Sample Source
 MRS .      0                  :Mud Resistivity
 MTP .      0                  :Mud Temperature
 MFRS.                         :Resistivity Mud Filtrate
 MFTP.                         :Temperature Mud Filtrate
 MCRS.      0                  :Resistivity Mud Cake
 MCTP.                         :Temperature Mud Cake
 FTYP.      0                  :Fluid Type
 FD  .LB/G                     :Mud Weight
 DFV .S                        :Fluid Viscosity
 FPH .                         :Fuild PH
 ELCO.      2500               :Electron Cutoff
 CASL.IN                       :Casing Logger
 LOTD.FT                       :Logger TD
 ARTM.                         :Arrival Time
 DPTM.                         :Departure Time
 RIGN.                         :Rig Number
~Other Information
#MNEM.UNIT  Information      Description
#---------- ---------------  ------------------------
# -------------------------- 
~A DEPTH  FLOW_SL FLOW_SL FLOW_SL FLOW_SL RES(FL) TEMP  DEL_TEMP 
# ...
 173.500  28.1     7.4    181.7   83557.1  14.50  66.7  -0.00    
 173.600  28.3     7.5    182.9   83747.1  14.49  66.7  0.00     
 173.700  28.5     7.5    184.4   83978.6  14.51  66.7  0.00     
 173.800  28.4     7.5    183.6   83857.1  14.53  66.7  -0.00    
 173.900  28.1     7.4    181.7   83560.0  14.51  66.7  0.01     
 174.000  27.7     7.3    179.5   83205.7  14.51  66.7  0.00     
 174.100  27.6     7.3    178.5   83058.6  14.51  66.7  -0.01    
 174.200  27.7     7.3    179.3   83180.0  14.50  66.7  0.01     
 174.300  27.6     7.3    179.0   83127.1  14.51  66.7  -0.02    
 174.400  27.3     7.2    176.6   82758.6  14.50  66.7  0.00     
 174.500  26.7     7.1    173.1   82211.4  14.52  66.7  0.00     
 174.600  26.6     7.0    172.4   82090.0  14.51  66.7  0.00     
 174.700  26.7     7.1    173.2   82220.0  14.52  66.7  -0.01    
 174.800  27.0     7.1    175.0   82507.5  14.50  66.7  0.00     
 174.900  27.4     7.2    177.2   82848.6  14.50  66.7  0.01     
 175.000  27.5     7.3    178.2   83013.3  14.50  66.7  -0.01    
 175.100  27.7     7.3    179.6   83218.6  14.50  66.7  -0.00    
 175.200  27.9     7.4    180.7   83396.0  14.51  66.7  -0.00    
 175.300  28.0     7.4    181.3   83493.8  14.50  66.7  0.01     
 175.400  27.9     7.4    180.3   83341.4  14.51  66.7  0.01     
 175.500  27.6     7.3    178.7   83077.1  14.51  66.7  -0.01    
 175.600  27.3     7.2    176.8   82790.0  14.50  66.7  0.01     
 175.700  27.4     7.2    177.2   82854.3  14.51  66.7  -0.00    
 175.800  28.0     7.4    181.2   83471.7  14.50  66.7  -0.00    
 175.900  28.7     7.6    185.9   84217.1  14.51  66.7  -0.00    
 176.000  29.5     7.8    191.3   85060.0  14.52  66.7  -0.00    
 176.100  30.7     8.1    198.8   86228.3  14.50  66.7  0.00     
 176.200  32.0     8.4    207.0   87522.5  14.51  66.7  0.00     
 176.300  32.8     8.7    212.2   88335.0  14.49  66.7  -0.00    
 176.400  33.1     8.8    214.5   88697.1  14.51  66.7  0.00     
 176.500  33.5     8.8    216.6   89027.1  14.51  66.7  -0.00    
 176.600  33.6     8.9    217.5   89167.1  14.50  66.7  -0.00    
 176.700  33.7     8.9    218.2   89265.7  14.51  66.7  0.00     
 176.800  33.9     9.0    219.7   89510.0  14.49  66.7  0.00     
 176.900  33.7     8.9    218.0   89235.7  14.51  66.7  -0.00    
 177.000  34.0     9.0    219.9   89530.0  14.50  66.7  -0.00    
 177.100  33.8     8.9    218.7   89343.3  14.50  66.7  -0.00    
 177.200  33.4     8.8    216.3   88980.0  14.50  66.7  0.01     
 177.300  33.0     8.7    213.6   88548.6  14.49  66.7  -0.01    
 177.400  32.5     8.6    210.5   88060.0  14.49  66.7  0.00     
 177.500  32.2     8.5    208.7   87788.3  14.52  66.7  -0.01    
 177.600  32.4     8.5    209.5   87901.7  14.50  66.7  0.00     
 177.700  32.6     8.6    211.3   88197.1  14.50  66.7  0.01     
 177.800  33.0     8.7    213.5   88537.1  14.49  66.7  -0.01    
 177.900  33.2     8.8    215.0   88773.3  14.52  66.7  0.01     
 178.000  33.2     8.8    214.8   88740.0  14.50  66.7  -0.00    
 178.100  32.7     8.6    211.9   88280.0  14.50  66.7  -0.00    
 178.200  32.0     8.4    206.9   87498.6  14.50  66.7  0.00     
 178.300  31.0     8.2    200.5   86494.3  14.49  66.7  0.00     
 178.400  30.2     8.0    195.3   85680.0  14.51  66.7  0.00     
 178.500  29.5     7.8    190.8   84974.3  14.50  66.7  -0.00    
 178.600  28.6     7.5    185.0   84067.1  14.51  66.7  -0.00    
 178.700  27.9     7.4    180.8   83411.7  14.51  66.7  0.01     
 178.800  27.8     7.3    180.0   83290.0  14.51  66.7  -0.01    
 178.900  27.9     7.4    180.6   83385.7  14.51  66.7  0.00     
 179.000  28.1     7.4    181.8   83568.6  14.52  66.7  -0.00    
 179.100  28.4     7.5    183.7   83862.9  14.51  66.7  -999.25  
 179.200  28.6     7.6    185.3   84117.1  14.49  66.7  0.00     
 179.300  28.6     7.6    185.5   84144.3  14.49  66.7  -0.00    
 179.400  28.5     7.5    184.8   84042.9  14.49  66.7  0.00     
 179.500  28.7     7.6    185.5   84150.0  14.51  66.7  0.00     
 179.600  28.6     7.6    185.2   84110.0  14.50  66.7  -0.00    
 179.700  28.7     7.6    186.1   84237.1  14.50  66.7  0.00     
 179.800  29.5     7.8    190.7   84961.7  14.50  66.7  0.00     
 179.900  30.5     8.1    197.7   86062.9  14.51  66.7  -0.00    
 180.000  31.7     8.4    205.4   87264.3  14.50  66.7  -0.01    
 180.100  32.8     8.7    212.4   88361.4  14.51  66.7  0.00     
 180.200  33.4     8.8    216.2   88960.0  14.51  66.7  -0.00    
 180.300  33.6     8.9    217.8   89211.4  14.49  66.7  0.01     
 180.400  33.5     8.8    216.8   89055.7  14.50  66.7  0.00     
 180.500  33.1     8.8    214.6   88705.0  14.49  66.7  -0.01    
 180.600  32.7     8.6    211.6   88240.0  14.51  66.7  -0.00    
 180.700  32.1     8.5    208.2   87698.3  14.50  66.7  0.01     
 180.800  31.5     8.3    203.8   87017.5  14.50  66.7  -0.00    
 180.900  31.4     8.3    203.1   86900.0  14.50  66.7  -0.00    
 181.000  32.3     8.5    208.9   87815.7  14.51  66.7  -0.00    
 181.100  33.4     8.8    216.0   88925.7  14.51  66.7  0.00     
 181.200  34.1     9.0    220.5   89625.7  14.50  66.7  -0.00    
 181.300  34.0     9.0    220.5   89622.9  14.50  66.7  0.01     
 181.400  33.5     8.8    216.9   89067.1  14.50  66.7  -0.00    
 181.500  32.8     8.7    212.3   88338.8  14.51  66.7  -0.00    
 181.600  32.6     8.6    210.9   88132.9  14.50  66.7  -0.00    
 181.700  32.9     8.7    212.8   88428.3  14.49  66.7  0.01     
 181.800  33.1     8.7    214.2   88640.0  14.50  66.7  -0.00    
 181.900  32.9     8.7    213.1   88467.1  14.49  66.7  -0.01    
 182.000  32.4     8.6    209.8   87947.1  14.52  66.7  0.00     
 182.100  31.8     8.4    206.0   87365.7  14.51  66.7  -0.00    
 182.200  31.8     8.4    206.1   87372.9  14.51  66.7  0.00     
 182.300  32.4     8.6    209.9   87964.3  14.51  66.7  0.00     
 182.400  33.0     8.7    213.7   88561.4  14.49  66.7  0.01     
 182.500  33.1     8.8    214.6   88704.3  14.49  66.7  -0.00    
 182.600  32.9     8.7    213.1   88468.6  14.51  66.7  0.00     
 182.700  32.7     8.6    211.7   88248.8  14.50  66.7  -0.01    
 182.800  31.8     8.4    206.2   87391.4  14.50  66.7  0.00     
 182.900  30.9     8.2    200.2   86455.0  14.52  66.7  -0.00    
 183.000  30.1     7.9    194.6   85570.0  14.49  66.7  -0.00    
 183.100  29.7     7.8    192.1   85188.3  14.50  66.7  0.01     
 183.200  29.7     7.9    192.5   85251.4  14.49  66.7  -0.00    
 183.300  30.0     7.9    194.5   85564.3  14.50  66.7  -999.25  
 183.400  30.9     8.2    200.1   86437.1  14.50  66.7  -0.00    
 183.500  32.0     8.5    207.1   87538.6  14.52  66.7  -0.00    
 183.600  33.1     8.8    214.5   88697.1  14.50  66.7  -0.00    
 183.700  34.5     9.1    223.4   90083.3  14.51  66.7  0.00     
 183.800  35.6     9.4    230.8   91237.1  14.50  66.7  0.00     
 183.900  36.2     9.6    234.1   91764.3  14.51  66.7  0.00     
 184.000  36.8     9.7    238.2   92408.6  14.48  66.7  -0.01    
 184.100  37.3     9.8    241.4   92898.6  14.50  66.7  0.00     
 184.200  37.0     9.8    239.8   92651.4  14.50  66.7  -0.00    
 184.300  36.5     9.6    236.1   92070.0  14.50  66.7  -0.00    
 184.400  35.4     9.4    229.3   91014.3  14.50  66.7  0.00     
 184.500  33.9     9.0    219.4   89460.0  14.50  66.7  -0.00    
 184.600  32.4     8.6    209.9   87962.9  14.51  66.7  0.00     
 184.700  31.4     8.3    203.3   86935.0  14.50  66.7  -0.00    
 184.800  30.9     8.2    199.8   86385.7  14.50  66.7  0.00     
 184.900  30.5     8.1    197.7   86062.9  14.50  66.7  -999.25  
 185.000  31.0     8.2    200.4   86484.3  14.51  66.7  0.00     
 185.100  32.0     8.5    207.5   87593.3  14.50  66.7  -0.00    
 185.200  33.4     8.8    216.1   88934.3  14.50  66.7  0.00     
 185.300  34.7     9.2    224.7   90285.7  14.50  66.7  -999.25  
 185.400  35.3     9.3    228.7   90917.5  14.50  66.7  0.00     
 185.500  35.0     9.3    226.9   90631.7  14.49  66.7  -0.01    
 185.600  34.3     9.1    222.0   89864.3  14.50  66.7  -999.25  
