~Version Information
 VERS.                2.0:  CWLS LOG ASCII STANDARD -VERSION 2.0
 WRAP.                 NO:  ONE LINE PER DEPTH STEP
~WELL INFORMATION BLOCK
#MNEM.UNIT       DATA		            DESCRIPTION OF MNEMONIC
#---------    -------------            ------------------------
 STRT.FT  39.400                         :START DEPTH
 STOP.FT  309.900                        :STOP DEPTH
 STEP.FT  0.100                          :STEP    UP_HOLE  
 NULL.    -999.25                        :NULL VALUE
 COMP.    CARLETON                       :COMPANY
 WELL.    658966_PUMPTROLL                                             :WELL
 FLD .    NORTHFIELD 71-B                :FIELD\LOCATION
 LOC .    31    112   19                 :LOCATION
 CNTY.    RICE                           :COUNTY
 STAT.    ACDBCD                         :STATE
 CTRY.    USA                            :COUNTRY
 SRVC.    TRUCK                          :SERVICE COMPANY
 DATE.    03/20/2001                     :LOG DATE
 API .                                       :API NUMBER
 LIC .                                   :LICENSE NUMBER
~Curve Information Block
#MNEM.UNIT      API CODE     Curve Description
#---------    -------------  ------------------------
 DEPT     .FT        00 001 00 00          :  1  DEPTH   
 FLOW_SL  .LIT/MIN   00 000 00 00          :  2  FLOW_SL             
 FLOW_SL  .GAL/MIN   00 000 00 00          :  3  FLOW_SL             
 FLOW_SL  .FT/MIN    00 000 00 00          :  4  FLOW_SL             
 FLOW_SL  .CPS       00 000 00 00          :  5  FLOW_SL             
 RES(FL)  .OHM-M     00 000 00 00          :  6  RES(FL)             
 TEMP     .DEG_F     00 660 00 00          :  7  TEMPERATURE         
 DEL_TEMP .DEG_F     00 000 00 00          :  8  SAMPLE DELTA TEMP   
~Parameter Information Block
#MNEM.UNIT   Information     Description
#---------- ---------------  ------------------------
 FILE.      PROCESSED          :File Type
 FIID.      9721SL             :File Type Identifier
 VERS.      1.0                :System Version
 SER .      1                  :System Serial Number
 TRUK.      .980362            :Truck Calibration Number
 TOOL.        1163             :Tool Serial Number
 TIME.      1855               :Time    HrHrMinMin
 LAT .                         :Latitude
 LON .                         :Longitude
 LMF .                         :Log Measured From
 DMF .                         :Driller Measured From
 PD  .      4101               :Permanent Data
 PDEV.FT                       :Elevation Permanent Data
 EKB .FT                       :Elevation Kelly Bushing
 ELEV.FT                       :Elevation DF
 EGL .FT    948                :Elevation Ground Level
 DRDP.FT    25                 :Driller's Depth
 CASD.FT    6                  :Casing Diameter
 CASB.FT                       :Casing Bottom
 CASX.                         :Casing Type
 CAST.IN    0                  :Casing Thickness
 TNOC.                         :Time Circulation Stopped
 LOGU.      C-2                :Logging Unit
 RECB.      TIPPING            :Recorded By
 OSR1.                         :Other Services
 OSR2.                         :Other Services
 OSR3.                         :Other Services
 BS  .IN           6           :Bit Size
 MST .F                        :Mean Surface Temperature
 TGRD.F     0                  :Temperature Gradiant
 MAGN.      0                  :Magnetic Declination
 MDEN.      2.71               :Density Matrix
 MATR.      Dolomite           :Neutron Matrix
 DTMT.      54                 :Delta T Matrix
 DTFL.                         :Delta T Fluid
 MUDS.      0                  :Mud Sample Source
 MRS .      0                  :Mud Resistivity
 MTP .      0                  :Mud Temperature
 MFRS.                         :Resistivity Mud Filtrate
 MFTP.                         :Temperature Mud Filtrate
 MCRS.      0                  :Resistivity Mud Cake
 MCTP.                         :Temperature Mud Cake
 FTYP.      0                  :Fluid Type
 FD  .LB/G                     :Mud Weight
 DFV .S                        :Fluid Viscosity
 FPH .                         :Fuild PH
 ELCO.      2500               :Electron Cutoff
 CASL.IN                       :Casing Logger
 LOTD.FT                       :Logger TD
 ARTM.                         :Arrival Time
 DPTM.                         :Departure Time
 RIGN.                         :Rig Number
~Other Information
#MNEM.UNIT  Information      Description
#---------- ---------------  ------------------------
# -------------------------- 
~A DEPTH  FLOW_SL FLOW_SL FLOW_SL FLOW_SL RES(FL) TEMP  DEL_TEMP 
# ...
 112.500   8.0     2.1    51.8    63211.7  14.54  66.7  -0.00    
 112.600   9.6     2.5    62.0    64804.3  14.54  66.7  -0.00    
 112.700  11.4     3.0    73.8    66660.0  14.53  66.7  -0.00    
 112.800  13.3     3.5    85.9    68546.7  14.55  66.7  0.01     
 112.900  15.3     4.0    99.1    70622.9  14.55  66.7  -0.00    
 113.000  17.1     4.5    110.7   72436.7  14.54  66.7  -0.01    
 113.100  18.0     4.8    116.8   73398.3  14.55  66.7  0.00     
 113.200  18.1     4.8    117.5   73495.7  14.55  66.7  0.00     
 113.300  17.8     4.7    115.0   73115.0  14.54  66.7  0.00     
 113.400  17.1     4.5    110.5   72396.7  14.54  66.7  0.00     
 113.500  16.1     4.3    104.5   71466.7  14.56  66.7  0.00     
 113.600  15.2     4.0    98.3    70488.6  14.54  66.7  -0.00    
 113.700  14.6     3.9    94.5    69891.7  14.54  66.7  -0.00    
 113.800  14.4     3.8    93.2    69695.0  14.55  66.7  -0.00    
 113.900  14.5     3.8    93.8    69793.3  14.55  66.7  0.00     
 114.000  14.8     3.9    95.7    70080.0  14.55  66.7  -0.00    
 114.100  15.1     4.0    97.9    70426.7  14.54  66.7  0.00     
 114.200  15.4     4.1    99.9    70742.9  14.54  66.7  -0.00    
 114.300  15.8     4.2    102.1   71093.3  14.54  66.7  0.00     
 114.400  16.3     4.3    105.4   71603.3  14.55  66.7  -0.00    
 114.500  17.0     4.5    110.3   72375.0  14.55  66.7  0.00     
 114.600  18.0     4.8    116.8   73398.3  14.54  66.7  0.00     
 114.700  19.1     5.0    123.7   74470.0  14.55  66.7  -0.00    
 114.800  19.5     5.2    126.5   74915.0  14.55  66.7  -0.00    
 114.900  19.0     5.0    123.1   74370.0  14.54  66.7  0.00     
 115.000  17.7     4.7    114.7   73061.4  14.54  66.7  0.00     
 115.100  16.0     4.2    103.6   71320.0  14.55  66.7  -0.00    
 115.200  14.6     3.8    94.2    69856.0  14.55  66.7  0.00     
 115.300  13.3     3.5    86.3    68611.4  14.54  66.7  -0.00    
 115.400  12.7     3.3    82.0    67948.3  14.54  66.7  0.00     
 115.500  13.1     3.5    85.1    68424.3  14.54  66.7  -0.00    
 115.600  14.2     3.7    91.7    69453.3  14.55  66.7  0.00     
 115.700  14.9     3.9    96.3    70188.3  14.54  66.7  -0.00    
 115.800  14.6     3.9    94.8    69943.3  14.54  66.7  0.00     
 115.900  13.4     3.5    86.6    68665.0  14.55  66.7  0.00     
 116.000  11.7     3.1    75.4    66915.0  14.55  66.7  -0.00    
 116.100  10.0     2.6    64.6    65223.3  14.55  66.7  -0.00    
 116.200   8.4     2.2    54.2    63580.0  14.54  66.7  0.01     
 116.300   7.0     1.8    45.3    62194.3  14.55  66.7  0.00     
 116.400   6.2     1.6    39.9    61350.0  14.54  66.7  -0.00    
 116.500   5.5     1.5    35.9    60717.1  14.54  66.7  -0.01    
 116.600   5.0     1.3    32.5    60182.9  14.54  66.7  0.00     
 116.700   4.7     1.2    30.2    59833.3  14.55  66.7  -0.00    
 116.800   4.5     1.2    28.9    59620.0  14.55  66.7  0.01     
 116.900   4.4     1.2    28.8    59605.0  14.54  66.7  -0.00    
 117.000   4.6     1.2    29.9    59784.3  14.54  66.7  -0.00    
 117.100   5.0     1.3    32.2    60135.0  14.54  66.7  0.00     
 117.200   5.4     1.4    35.2    60620.0  14.55  66.7  -0.00    
 117.300   6.1     1.6    39.4    61276.7  14.54  66.7  -0.00    
 117.400   7.0     1.9    45.6    62241.4  14.54  66.7  -0.00    
 117.500   8.4     2.2    54.5    63630.0  14.54  66.7  -0.00    
 117.600  10.1     2.7    65.3    65331.7  14.56  66.7  0.00     
 117.700  12.0     3.2    77.7    67263.3  14.56  66.7  -0.00    
 117.800  14.3     3.8    92.4    69571.4  14.55  66.7  -0.00    
 117.900  16.6     4.4    107.4   71924.3  14.54  66.7  0.00     
 118.000  18.2     4.8    117.9   73556.7  14.54  66.7  -999.25  
 118.100  18.9     5.0    122.2   74235.0  14.56  66.7  -0.00    
 118.200  18.9     5.0    122.2   74231.7  14.55  66.7  -0.00    
 118.300  18.7     4.9    121.1   74058.3  14.55  66.7  0.00     
 118.400  18.9     5.0    122.2   74231.7  14.55  66.7  -0.00    
 118.500  19.4     5.1    125.5   74748.3  14.56  66.7  -0.00    
 118.600  19.8     5.2    128.4   75208.6  14.53  66.7  0.00     
 118.700  19.8     5.2    128.3   75190.0  14.55  66.7  0.00     
 118.800  19.1     5.0    123.8   74481.4  14.54  66.7  0.00     
 118.900  18.1     4.8    117.3   73461.7  14.54  66.7  -0.00    
 119.000  17.0     4.5    110.1   72338.3  14.54  66.7  -0.00    
 119.100  15.5     4.1    100.7   70864.3  14.55  66.7  0.00     
 119.200  13.6     3.6    88.1    68903.3  14.55  66.7  -999.25  
 119.300  11.5     3.0    74.7    66795.0  14.55  66.7  -0.00    
 119.400   9.6     2.5    62.0    64815.7  14.56  66.7  -0.00    
 119.500   8.4     2.2    54.5    63638.3  14.55  66.7  0.00     
 119.600   8.3     2.2    53.6    63487.1  14.55  66.7  -0.00    
 119.700   8.9     2.3    57.6    64113.3  14.55  66.7  0.00     
 119.800  10.0     2.6    64.5    65195.0  14.55  66.7  -0.00    
 119.900  11.5     3.0    74.6    66785.7  14.55  66.7  -0.00    
 120.000  13.5     3.6    87.3    68771.7  14.56  66.7  0.00     
 120.100  15.5     4.1    100.6   70850.0  14.55  66.7  0.00     
 120.200  17.7     4.7    114.6   73040.0  14.55  66.7  -999.25  
 120.300  19.8     5.2    128.4   75215.0  14.56  66.7  -0.00    
 120.400  21.5     5.7    139.3   76906.7  14.54  66.7  0.01     
 120.500  22.1     5.8    142.9   77473.3  14.54  66.7  -0.00    
 120.600  21.5     5.7    139.2   76897.1  14.55  66.7  -0.00    
 120.700  20.3     5.4    131.3   75663.3  14.54  66.7  -0.00    
 120.800  19.1     5.0    123.6   74456.0  14.56  66.7  -0.00    
 120.900  17.9     4.7    115.9   73253.3  14.56  66.7  -0.00    
 121.000  17.1     4.5    110.7   72436.7  14.55  66.7  0.00     
 121.100  17.5     4.6    113.2   72828.3  14.56  66.7  -0.00    
 121.200  18.2     4.8    117.8   73551.4  14.55  66.7  -0.00    
 121.300  17.6     4.6    114.0   72945.0  14.55  66.7  0.00     
 121.400  16.0     4.2    103.9   71370.0  14.55  66.7  -0.00    
 121.500  15.0     4.0    97.1    70310.0  14.54  66.7  0.00     
 121.600  15.2     4.0    98.2    70485.7  14.55  66.7  -0.00    
 121.700  16.3     4.3    105.3   71588.3  14.54  66.7  -999.25  
 121.800  17.9     4.7    116.0   73273.3  14.54  66.7  0.00     
 121.900  19.8     5.2    128.1   75155.0  14.55  66.7  -999.25  
 122.000  21.3     5.6    137.7   76658.3  14.55  66.7  -0.00    
 122.100  22.0     5.8    142.2   77365.0  14.55  66.7  0.00     
 122.200  21.9     5.8    142.0   77334.3  14.54  66.7  -0.00    
 122.300  22.0     5.8    142.5   77412.0  14.55  66.7  -0.00    
 122.400  23.2     6.1    150.2   78625.7  14.55  66.7  -0.00    
 122.500  24.7     6.5    160.1   80177.1  14.54  66.7  -0.00    
 122.600  24.6     6.5    159.1   80013.3  14.54  66.7  -999.25  
 122.700  23.1     6.1    149.4   78491.7  14.55  66.7  0.01     
 122.800  21.5     5.7    139.3   76914.0  14.54  66.7  -0.01    
 122.900  20.2     5.3    130.9   75603.3  14.55  66.7  0.00     
 123.000  19.5     5.1    126.1   74840.0  14.54  66.7  -0.00    
 123.100  19.1     5.0    123.7   74478.3  14.55  66.7  0.00     
 123.200  19.0     5.0    123.1   74376.7  14.55  66.7  0.00     
 123.300  19.1     5.1    124.0   74516.7  14.55  66.7  0.00     
 123.400  20.0     5.3    129.3   75348.3  14.54  66.7  -0.00    
 123.500  21.0     5.5    135.7   76358.3  14.56  66.7  -0.00    
 123.600  21.2     5.6    137.3   76601.7  14.55  66.7  -0.00    
 123.700  20.6     5.4    133.4   75996.7  14.54  66.7  -999.25  
 123.800  19.9     5.2    128.6   75231.7  14.55  66.7  0.01     
 123.900  19.6     5.2    127.2   75021.4  14.54  66.7  -0.01    
 124.000  20.1     5.3    130.2   75491.7  14.54  66.7  0.01     
 124.100  20.7     5.5    134.2   76120.0  14.54  66.7  -0.00    
 124.200  21.5     5.7    139.3   76915.7  14.54  66.7  0.00     
 124.300  22.6     6.0    146.4   78030.0  14.55  66.7  -0.00    
 124.400  23.9     6.3    154.6   79315.7  14.56  66.7  -0.01    
 124.500  25.2     6.7    163.0   80633.3  14.54  66.7  0.00     
 124.600  25.6     6.8    165.4   81008.3  14.54  66.7  0.00     
