~Version Information
 VERS.                2.0:  CWLS LOG ASCII STANDARD -VERSION 2.0
 WRAP.                 NO:  ONE LINE PER DEPTH STEP
~WELL INFORMATION BLOCK
#MNEM.UNIT       DATA		            DESCRIPTION OF MNEMONIC
#---------    -------------            ------------------------
 STRT.FT  27.800                         :START DEPTH
 STOP.FT  314.400                        :STOP DEPTH
 STEP.FT  0.100                          :STEP    UP_HOLE  
 NULL.    -999.25                        :NULL VALUE
 COMP.    CARLETON                       :COMPANY
 WELL.    658966_AMBTROLL                                              :WELL
 FLD .    NORTHFIELD 71-B                :FIELD\LOCATION
 LOC .    31    112   19                 :LOCATION
 CNTY.    RICE                           :COUNTY
 STAT.    ACDBCD                         :STATE
 CTRY.    USA                            :COUNTRY
 SRVC.    TRUCK                          :SERVICE COMPANY
 DATE.    03/20/2001                     :LOG DATE
 API .                                       :API NUMBER
 LIC .                                   :LICENSE NUMBER
~Curve Information Block
#MNEM.UNIT      API CODE     Curve Description
#---------    -------------  ------------------------
 DEPT     .FT        00 001 00 00          :  1  DEPTH   
 FLOW_SL  .LIT/MIN   00 000 00 00          :  2  FLOW_SL             
 FLOW_SL  .GAL/MIN   00 000 00 00          :  3  FLOW_SL             
 FLOW_SL  .FT/MIN    00 000 00 00          :  4  FLOW_SL             
 FLOW_SL  .CPS       00 000 00 00          :  5  FLOW_SL             
 RES(FL)  .OHM-M     00 000 00 00          :  6  RES(FL)             
 TEMP     .DEG_F     00 660 00 00          :  7  TEMPERATURE         
 DEL_TEMP .DEG_F     00 000 00 00          :  8  SAMPLE DELTA TEMP   
~Parameter Information Block
#MNEM.UNIT   Information     Description
#---------- ---------------  ------------------------
 FILE.      PROCESSED          :File Type
 FIID.      9721SL             :File Type Identifier
 VERS.      1.0                :System Version
 SER .      1                  :System Serial Number
 TRUK.      .980362            :Truck Calibration Number
 TOOL.        1163             :Tool Serial Number
 TIME.      1529               :Time    HrHrMinMin
 LAT .                         :Latitude
 LON .                         :Longitude
 LMF .                         :Log Measured From
 DMF .                         :Driller Measured From
 PD  .      4101               :Permanent Data
 PDEV.FT                       :Elevation Permanent Data
 EKB .FT                       :Elevation Kelly Bushing
 ELEV.FT                       :Elevation DF
 EGL .FT    948                :Elevation Ground Level
 DRDP.FT    25                 :Driller's Depth
 CASD.FT    6                  :Casing Diameter
 CASB.FT                       :Casing Bottom
 CASX.                         :Casing Type
 CAST.IN    0                  :Casing Thickness
 TNOC.                         :Time Circulation Stopped
 LOGU.      C-2                :Logging Unit
 RECB.      TIPPING            :Recorded By
 OSR1.                         :Other Services
 OSR2.                         :Other Services
 OSR3.                         :Other Services
 BS  .IN           6           :Bit Size
 MST .F                        :Mean Surface Temperature
 TGRD.F     0                  :Temperature Gradiant
 MAGN.      0                  :Magnetic Declination
 MDEN.      2.71               :Density Matrix
 MATR.      Dolomite           :Neutron Matrix
 DTMT.      54                 :Delta T Matrix
 DTFL.                         :Delta T Fluid
 MUDS.      0                  :Mud Sample Source
 MRS .      0                  :Mud Resistivity
 MTP .      0                  :Mud Temperature
 MFRS.                         :Resistivity Mud Filtrate
 MFTP.                         :Temperature Mud Filtrate
 MCRS.      0                  :Resistivity Mud Cake
 MCTP.                         :Temperature Mud Cake
 FTYP.      0                  :Fluid Type
 FD  .LB/G                     :Mud Weight
 DFV .S                        :Fluid Viscosity
 FPH .                         :Fuild PH
 ELCO.      2500               :Electron Cutoff
 CASL.IN                       :Casing Logger
 LOTD.FT                       :Logger TD
 ARTM.                         :Arrival Time
 DPTM.                         :Departure Time
 RIGN.                         :Rig Number
~Other Information
#MNEM.UNIT  Information      Description
#---------- ---------------  ------------------------
# -------------------------- 
~A DEPTH  FLOW_SL FLOW_SL FLOW_SL FLOW_SL RES(FL) TEMP  DEL_TEMP 
# ...
 161.900  35.3     9.3    228.3   90845.7  14.46  66.7  -0.01    
 162.000  36.0     9.5    233.2   91625.7  14.48  66.7  -0.00    
 162.100  36.2     9.6    234.6   91831.4  14.49  66.7  -0.00    
 162.200  36.2     9.6    234.5   91823.8  14.47  66.7  0.01     
 162.300  36.4     9.6    235.9   92044.3  14.49  66.7  -999.25  
 162.400  36.7     9.7    237.3   92268.6  14.46  66.7  0.00     
 162.500  36.8     9.7    238.0   92375.0  14.47  66.7  -0.00    
 162.600  36.7     9.7    237.8   92340.0  14.48  66.7  0.01     
 162.700  36.5     9.6    236.2   92094.3  14.46  66.7  -0.01    
 162.800  35.9     9.5    232.6   91532.9  14.48  66.7  0.01     
 162.900  35.2     9.3    227.9   90787.1  14.47  66.7  -0.00    
 163.000  34.0     9.0    220.3   89602.9  14.47  66.7  0.00     
 163.100  32.4     8.5    209.5   87912.9  14.48  66.7  -0.00    
 163.200  30.6     8.1    198.0   86114.3  14.46  66.7  -999.25  
 163.300  29.0     7.7    187.6   84475.7  14.49  66.7  0.01     
 163.400  28.0     7.4    181.1   83458.6  14.46  66.7  0.00     
 163.500  27.8     7.3    179.8   83252.9  14.47  66.7  -0.00    
 163.600  27.8     7.3    180.0   83285.7  14.46  66.7  -0.01    
 163.700  27.0     7.1    174.8   82473.3  14.46  66.7  0.00     
 163.800  24.6     6.5    159.1   80018.6  14.48  66.7  -0.00    
 163.900  20.3     5.4    131.1   75635.7  14.47  66.7  0.01     
 164.000  16.4     4.3    106.3   71751.4  14.46  66.7  -0.00    
 164.100  15.8     4.2    102.5   71155.0  14.47  66.7  0.00     
 164.200  17.8     4.7    115.5   73182.9  14.46  66.7  -0.01    
 164.300  21.0     5.6    136.1   76420.0  14.47  66.7  0.00     
 164.400  24.2     6.4    156.6   79622.9  14.46  66.7  -0.01    
 164.500  26.4     7.0    171.0   81871.4  14.49  66.7  0.01     
 164.600  27.7     7.3    179.0   83136.7  14.47  66.7  -0.00    
 164.700  28.6     7.6    185.2   84104.3  14.46  66.7  -0.00    
 164.800  29.4     7.8    190.2   84888.0  14.47  66.7  0.00     
 164.900  29.9     7.9    193.6   85414.3  14.47  66.7  0.00     
 165.000  30.4     8.0    196.9   85935.7  14.46  66.7  -0.00    
 165.100  30.4     8.0    197.1   85960.0  14.47  66.7  -0.00    
 165.200  30.4     8.0    196.9   85941.4  14.46  66.7  -0.00    
 165.300  30.6     8.1    198.0   86111.7  14.48  66.7  0.00     
 165.400  30.7     8.1    199.0   86260.0  14.46  66.7  0.00     
 165.500  30.4     8.0    196.8   85924.3  14.46  66.7  -0.01    
 165.600  29.7     7.8    192.2   85195.0  14.48  66.7  0.01     
 165.700  28.8     7.6    186.2   84257.1  14.46  66.7  -0.01    
 165.800  28.0     7.4    181.4   83511.7  14.47  66.7  0.00     
 165.900  28.2     7.4    182.5   83687.1  14.48  66.7  -0.00    
 166.000  28.6     7.5    185.0   84076.7  14.47  66.7  -0.00    
 166.100  28.7     7.6    185.6   84161.7  14.47  66.7  0.01     
 166.200  28.4     7.5    183.7   83875.0  14.47  66.7  0.00     
 166.300  28.2     7.4    182.4   83665.0  14.45  66.7  -0.00    
 166.400  27.6     7.3    178.5   83054.5  14.46  66.7  -0.00    
 166.500  27.1     7.2    175.5   82586.7  14.46  66.7  -0.00    
 166.600  27.1     7.2    175.6   82592.0  14.46  66.7  0.01     
 166.700  27.0     7.1    175.0   82501.7  14.45  66.7  -0.01    
 166.800  26.7     7.1    172.8   82166.7  14.46  66.7  -0.00    
 166.900  26.5     7.0    171.9   82015.7  14.47  66.7  0.00     
 167.000  26.8     7.1    173.5   82275.0  14.46  66.7  -0.00    
 167.100  27.0     7.1    175.1   82522.0  14.47  66.7  -0.00    
 167.200  27.0     7.1    175.0   82510.0  14.46  66.7  -0.00    
 167.300  26.8     7.1    173.6   82286.0  14.48  66.7  0.00     
 167.400  26.3     7.0    170.4   81786.3  14.47  66.7  0.00     
 167.500  26.1     6.9    169.0   81561.7  14.46  66.7  -0.00    
 167.600  26.0     6.9    168.6   81501.7  14.48  66.7  0.01     
 167.700  26.1     6.9    169.3   81613.3  14.46  66.7  -0.01    
 167.800  26.6     7.0    171.9   82025.0  14.48  66.7  -999.25  
 167.900  27.1     7.1    175.2   82530.0  14.47  66.7  0.00     
 168.000  27.4     7.2    177.4   82876.7  14.46  66.7  0.01     
 168.100  27.6     7.3    178.9   83120.0  14.47  66.7  0.01     
 168.200  27.5     7.3    178.3   83020.0  14.46  66.7  -0.01    
 168.300  27.2     7.2    175.8   82635.7  14.46  66.7  -0.00    
 168.400  26.9     7.1    174.2   82378.3  14.46  66.7  -0.00    
 168.500  27.0     7.1    175.1   82521.7  14.47  66.7  0.01     
 168.600  27.5     7.3    178.1   82993.3  14.46  66.7  -0.00    
 168.700  28.3     7.5    183.3   83811.4  14.46  66.7  0.00     
 168.800  29.2     7.7    189.3   84750.0  14.46  66.7  -0.01    
 168.900  30.1     8.0    194.9   85620.0  14.47  66.7  0.00     
 169.000  30.7     8.1    199.0   86265.0  14.46  66.7  0.00     
 169.100  31.1     8.2    201.1   86595.0  14.46  66.7  -0.00    
 169.200  31.2     8.2    202.1   86748.6  14.46  66.7  0.01     
 169.300  31.6     8.3    204.3   87098.3  14.46  66.7  -0.01    
 169.400  32.0     8.5    207.2   87545.0  14.47  66.7  0.01     
 169.500  32.3     8.5    208.9   87818.3  14.47  66.7  -0.01    
 169.600  32.1     8.5    207.7   87623.3  14.48  66.7  0.01     
 169.700  31.8     8.4    206.1   87378.3  14.48  66.7  -0.01    
 169.800  31.6     8.3    204.6   87141.4  14.47  66.7  0.00     
 169.900  31.4     8.3    203.3   86933.3  14.46  66.7  -0.00    
 170.000  30.4     8.0    196.8   85911.4  14.47  66.7  -0.00    
 170.100  28.9     7.6    187.0   84386.7  14.47  66.7  0.01     
 170.200  27.6     7.3    178.6   83068.3  14.47  66.7  -999.25  
 170.300  26.9     7.1    173.9   82338.3  14.46  66.7  0.00     
 170.400  26.8     7.1    173.3   82234.3  14.47  66.7  -0.01    
 170.500  26.9     7.1    174.0   82343.3  14.48  66.7  0.00     
 170.600  27.0     7.1    174.9   82481.7  14.48  66.7  0.01     
 170.700  27.5     7.3    178.0   82977.1  14.46  66.7  -0.01    
 170.800  28.6     7.6    185.1   84094.3  14.47  66.7  0.00     
 170.900  29.8     7.9    193.0   85321.7  14.47  66.7  0.01     
 171.000  30.5     8.1    197.5   86033.3  14.47  66.7  -0.00    
 171.100  30.9     8.2    200.0   86422.9  14.47  66.7  -0.00    
 171.200  31.1     8.2    201.4   86646.7  14.46  66.7  -0.00    
 171.300  31.2     8.2    202.1   86755.0  14.47  66.7  0.00     
 171.400  31.3     8.3    203.0   86883.3  14.46  66.7  -0.00    
 171.500  31.7     8.4    205.3   87248.6  14.46  66.7  0.01     
 171.600  32.4     8.6    209.6   87920.0  14.46  66.7  0.00     
 171.700  33.4     8.8    216.0   88923.3  14.47  66.7  -0.01    
 171.800  34.7     9.2    224.9   90315.7  14.46  66.7  -0.00    
 171.900  35.5     9.4    229.8   91085.0  14.47  66.7  0.00     
 172.000  35.6     9.4    230.7   91231.7  14.46  66.7  0.00     
 172.100  35.4     9.4    229.3   91011.4  14.46  66.7  -0.00    
 172.200  34.9     9.2    225.8   90466.7  14.48  66.7  0.00     
 172.300  34.4     9.1    222.4   89932.9  14.46  66.7  -0.00    
 172.400  34.1     9.0    221.0   89705.0  14.48  66.7  0.00     
 172.500  33.9     9.0    219.6   89488.3  14.46  66.7  -0.01    
 172.600  33.7     8.9    218.4   89301.4  14.46  66.7  0.01     
 172.700  34.0     9.0    220.0   89555.0  14.48  66.7  -0.00    
 172.800  34.0     9.0    220.1   89573.3  14.47  66.7  0.00     
 172.900  33.6     8.9    217.5   89163.3  14.47  66.7  -0.00    
 173.000  33.0     8.7    213.6   88555.7  14.47  66.7  0.00     
 173.100  32.4     8.6    209.8   87960.0  14.46  66.7  0.00     
 173.200  31.7     8.4    205.1   87211.7  14.47  66.7  -0.01    
 173.300  30.9     8.2    200.1   86443.3  14.47  66.7  0.00     
 173.400  30.1     8.0    195.1   85660.0  14.46  66.7  -0.00    
 173.500  29.2     7.7    188.9   84680.0  14.47  66.7  0.00     
 173.600  28.3     7.5    183.0   83760.0  14.47  66.7  0.00     
 173.700  27.5     7.3    178.3   83020.0  14.46  66.7  -0.01    
 173.800  27.5     7.3    178.1   82985.0  14.47  66.7  0.00     
 173.900  28.2     7.4    182.4   83658.3  14.47  66.7  0.00     
 174.000  28.7     7.6    185.7   84188.3  14.46  66.7  -0.00    
