~Version Information
 VERS.                2.0:  CWLS LOG ASCII STANDARD -VERSION 2.0
 WRAP.                 NO:  ONE LINE PER DEPTH STEP
~WELL INFORMATION BLOCK
#MNEM.UNIT       DATA		            DESCRIPTION OF MNEMONIC
#---------    -------------            ------------------------
 STRT.FT  27.800                         :START DEPTH
 STOP.FT  314.400                        :STOP DEPTH
 STEP.FT  0.100                          :STEP    UP_HOLE  
 NULL.    -999.25                        :NULL VALUE
 COMP.    CARLETON                       :COMPANY
 WELL.    658966_AMBTROLL                                              :WELL
 FLD .    NORTHFIELD 71-B                :FIELD\LOCATION
 LOC .    31    112   19                 :LOCATION
 CNTY.    RICE                           :COUNTY
 STAT.    ACDBCD                         :STATE
 CTRY.    USA                            :COUNTRY
 SRVC.    TRUCK                          :SERVICE COMPANY
 DATE.    03/20/2001                     :LOG DATE
 API .                                       :API NUMBER
 LIC .                                   :LICENSE NUMBER
~Curve Information Block
#MNEM.UNIT      API CODE     Curve Description
#---------    -------------  ------------------------
 DEPT     .FT        00 001 00 00          :  1  DEPTH   
 FLOW_SL  .LIT/MIN   00 000 00 00          :  2  FLOW_SL             
 FLOW_SL  .GAL/MIN   00 000 00 00          :  3  FLOW_SL             
 FLOW_SL  .FT/MIN    00 000 00 00          :  4  FLOW_SL             
 FLOW_SL  .CPS       00 000 00 00          :  5  FLOW_SL             
 RES(FL)  .OHM-M     00 000 00 00          :  6  RES(FL)             
 TEMP     .DEG_F     00 660 00 00          :  7  TEMPERATURE         
 DEL_TEMP .DEG_F     00 000 00 00          :  8  SAMPLE DELTA TEMP   
~Parameter Information Block
#MNEM.UNIT   Information     Description
#---------- ---------------  ------------------------
 FILE.      PROCESSED          :File Type
 FIID.      9721SL             :File Type Identifier
 VERS.      1.0                :System Version
 SER .      1                  :System Serial Number
 TRUK.      .980362            :Truck Calibration Number
 TOOL.        1163             :Tool Serial Number
 TIME.      1529               :Time    HrHrMinMin
 LAT .                         :Latitude
 LON .                         :Longitude
 LMF .                         :Log Measured From
 DMF .                         :Driller Measured From
 PD  .      4101               :Permanent Data
 PDEV.FT                       :Elevation Permanent Data
 EKB .FT                       :Elevation Kelly Bushing
 ELEV.FT                       :Elevation DF
 EGL .FT    948                :Elevation Ground Level
 DRDP.FT    25                 :Driller's Depth
 CASD.FT    6                  :Casing Diameter
 CASB.FT                       :Casing Bottom
 CASX.                         :Casing Type
 CAST.IN    0                  :Casing Thickness
 TNOC.                         :Time Circulation Stopped
 LOGU.      C-2                :Logging Unit
 RECB.      TIPPING            :Recorded By
 OSR1.                         :Other Services
 OSR2.                         :Other Services
 OSR3.                         :Other Services
 BS  .IN           6           :Bit Size
 MST .F                        :Mean Surface Temperature
 TGRD.F     0                  :Temperature Gradiant
 MAGN.      0                  :Magnetic Declination
 MDEN.      2.71               :Density Matrix
 MATR.      Dolomite           :Neutron Matrix
 DTMT.      54                 :Delta T Matrix
 DTFL.                         :Delta T Fluid
 MUDS.      0                  :Mud Sample Source
 MRS .      0                  :Mud Resistivity
 MTP .      0                  :Mud Temperature
 MFRS.                         :Resistivity Mud Filtrate
 MFTP.                         :Temperature Mud Filtrate
 MCRS.      0                  :Resistivity Mud Cake
 MCTP.                         :Temperature Mud Cake
 FTYP.      0                  :Fluid Type
 FD  .LB/G                     :Mud Weight
 DFV .S                        :Fluid Viscosity
 FPH .                         :Fuild PH
 ELCO.      2500               :Electron Cutoff
 CASL.IN                       :Casing Logger
 LOTD.FT                       :Logger TD
 ARTM.                         :Arrival Time
 DPTM.                         :Departure Time
 RIGN.                         :Rig Number
~Other Information
#MNEM.UNIT  Information      Description
#---------- ---------------  ------------------------
# -------------------------- 
~A DEPTH  FLOW_SL FLOW_SL FLOW_SL FLOW_SL RES(FL) TEMP  DEL_TEMP 
# ...
 137.500  23.8     6.3    153.9   79201.4  14.49  66.7  -0.00    
 137.600  24.4     6.4    157.7   79802.9  14.49  66.7  0.00     
 137.700  25.2     6.7    163.4   80685.7  14.47  66.7  -0.00    
 137.800  25.8     6.8    167.3   81291.4  14.49  66.7  0.00     
 137.900  25.6     6.8    166.0   81097.1  14.47  66.7  -0.00    
 138.000  25.0     6.6    161.5   80398.3  14.49  66.7  0.00     
 138.100  23.9     6.3    154.6   79307.5  14.49  66.7  0.00     
 138.200  22.1     5.8    143.0   77492.5  14.48  66.7  -0.00    
 138.300  20.4     5.4    132.1   75792.5  14.48  66.7  -0.00    
 138.400  19.0     5.0    122.8   74331.7  14.48  66.7  -0.00    
 138.500  17.7     4.7    114.7   73057.1  14.49  66.7  0.01     
 138.600  16.8     4.4    109.0   72177.1  14.48  66.7  -0.00    
 138.700  16.9     4.5    109.6   72265.7  14.49  66.7  0.00     
 138.800  17.2     4.5    111.1   72503.8  14.47  66.7  -0.00    
 138.900  16.6     4.4    107.3   71900.0  14.49  66.7  0.01     
 139.000  15.2     4.0    98.4    70517.1  14.48  66.7  -0.00    
 139.100  13.6     3.6    88.0    68881.3  14.47  66.7  -0.00    
 139.200  12.8     3.4    82.8    68063.3  14.47  66.7  0.00     
 139.300  12.7     3.4    82.2    67970.0  14.47  66.7  -0.00    
 139.400  13.3     3.5    86.1    68588.6  14.49  66.7  -0.00    
 139.500  14.5     3.8    94.1    69828.3  14.48  66.7  -0.00    
 139.600  16.4     4.3    106.0   71702.9  14.48  66.7  0.00     
 139.700  18.3     4.8    118.5   73662.0  14.48  66.7  0.00     
 139.800  19.9     5.3    129.1   75314.3  14.47  66.7  -0.01    
 139.900  20.9     5.5    135.4   76298.3  14.49  66.7  0.01     
 140.000  20.2     5.3    130.8   75584.3  14.48  66.7  0.00     
 140.100  18.6     4.9    120.1   73912.9  14.48  66.7  0.00     
 140.200  17.9     4.7    115.8   73227.1  14.47  66.7  -0.00    
 140.300  18.3     4.8    118.7   73681.3  14.48  66.7  -0.00    
 140.400  19.5     5.1    126.0   74828.3  14.48  66.7  0.00     
 140.500  20.6     5.4    133.3   75977.5  14.47  66.7  0.00     
 140.600  21.5     5.7    139.2   76901.4  14.47  66.7  -0.00    
 140.700  21.7     5.7    140.5   77108.6  14.48  66.7  -0.00    
 140.800  21.7     5.7    140.3   77077.1  14.49  66.7  0.00     
 140.900  22.0     5.8    142.3   77387.1  14.46  66.7  -0.00    
 141.000  22.1     5.9    143.4   77555.0  14.48  66.7  -0.00    
 141.100  21.9     5.8    141.7   77291.4  14.48  66.7  -999.25  
 141.200  21.2     5.6    137.4   76610.0  14.49  66.7  -999.25  
 141.300  20.2     5.3    130.8   75582.9  14.48  66.7  -0.00    
 141.400  19.4     5.1    125.5   74757.1  14.49  66.7  0.00     
 141.500  19.3     5.1    124.7   74630.0  14.48  66.7  -0.00    
 141.600  20.0     5.3    129.8   75422.9  14.48  66.7  -0.00    
 141.700  21.2     5.6    137.5   76625.7  14.48  66.7  -0.00    
 141.800  21.5     5.7    139.2   76894.3  14.49  66.7  0.00     
 141.900  21.3     5.6    138.0   76708.0  14.49  66.7  0.00     
 142.000  21.7     5.7    140.4   77090.0  14.48  66.7  -0.01    
 142.100  22.6     6.0    146.2   77990.0  14.49  66.7  0.01     
 142.200  22.8     6.0    147.6   78211.4  14.48  66.7  -0.00    
 142.300  21.4     5.6    138.4   76772.9  14.49  66.7  0.00     
 142.400  19.3     5.1    124.8   74638.8  14.47  66.7  -0.01    
 142.500  18.0     4.8    116.6   73356.7  14.49  66.7  0.00     
 142.600  18.0     4.8    116.8   73391.3  14.50  66.7  0.01     
 142.700  19.7     5.2    127.5   75068.6  14.49  66.7  0.00     
 142.800  21.7     5.7    140.7   77140.0  14.47  66.7  -0.00    
 142.900  22.9     6.0    148.0   78284.3  14.47  66.7  -0.00    
 143.000  23.2     6.1    150.3   78643.3  14.48  66.7  0.00     
 143.100  23.4     6.2    151.3   78785.7  14.47  66.7  -0.00    
 143.200  23.3     6.2    151.1   78758.9  14.47  66.7  0.00     
 143.300  23.7     6.3    153.3   79108.6  14.48  66.7  -0.00    
 143.400  23.5     6.2    152.4   78958.6  14.48  66.7  0.00     
 143.500  23.0     6.1    148.7   78383.3  14.48  66.7  0.00     
 143.600  22.0     5.8    142.2   77375.7  14.46  66.7  -0.01    
 143.700  20.5     5.4    132.7   75878.6  14.48  66.7  0.01     
 143.800  19.3     5.1    125.1   74683.3  14.47  66.7  -0.00    
 143.900  17.8     4.7    115.2   73144.3  14.48  66.7  0.00     
 144.000  16.0     4.2    103.3   71278.3  14.46  66.7  -0.00    
 144.100  14.2     3.8    92.1    69528.3  14.48  66.7  0.01     
 144.200  12.8     3.4    82.7    68048.3  14.47  66.7  -0.01    
 144.300  12.3     3.3    79.9    67620.0  14.47  66.7  0.00     
 144.400  13.6     3.6    87.8    68845.7  14.49  66.7  0.00     
 144.500  15.7     4.1    101.6   71003.3  14.48  66.7  0.00     
 144.600  18.1     4.8    117.5   73500.0  14.47  66.7  -0.01    
 144.700  20.8     5.5    134.6   76175.7  14.48  66.7  0.00     
 144.800  22.4     5.9    145.3   77854.3  14.46  66.7  -0.00    
 144.900  21.8     5.8    141.2   77217.1  14.48  66.7  0.01     
 145.000  19.3     5.1    124.8   74638.6  14.48  66.7  -0.00    
 145.100  16.0     4.2    103.3   71275.0  14.48  66.7  0.00     
 145.200  14.0     3.7    90.4    69255.7  14.48  66.7  -0.00    
 145.300  13.2     3.5    85.7    68525.0  14.47  66.7  -0.00    
 145.400  13.8     3.6    89.4    69100.0  14.48  66.7  0.00     
 145.500  15.0     4.0    97.2    70315.0  14.48  66.7  -0.01    
 145.600  16.4     4.3    106.2   71738.6  14.48  66.7  0.00     
 145.700  17.7     4.7    114.8   73070.0  14.47  66.7  -0.00    
 145.800  18.2     4.8    118.1   73601.7  14.47  66.7  0.00     
 145.900  17.8     4.7    115.6   73195.7  14.47  66.7  0.01     
 146.000  17.2     4.6    111.5   72564.3  14.49  66.7  -0.01    
 146.100  17.3     4.6    112.0   72643.3  14.48  66.7  -0.00    
 146.200  17.0     4.5    110.1   72345.0  14.50  66.7  0.01     
 146.300  16.1     4.3    104.4   71442.9  14.47  66.7  -0.00    
 146.400  15.1     4.0    98.1    70455.0  14.49  66.7  0.01     
 146.500  14.1     3.7    91.2    69386.7  14.47  66.7  -0.01    
 146.600  12.6     3.3    81.8    67914.3  14.49  66.7  0.01     
 146.700  11.0     2.9    71.0    66211.7  14.47  66.7  0.01     
 146.800   9.4     2.5    61.0    64654.3  14.46  66.7  -0.01    
 146.900   9.1     2.4    58.8    64312.5  14.50  66.7  0.01     
 147.000  10.4     2.8    67.4    65655.7  14.46  66.7  -0.00    
 147.100  12.5     3.3    81.0    67780.0  14.46  66.7  -999.25  
 147.200  15.1     4.0    97.8    70421.7  14.48  66.7  -0.01    
 147.300  18.6     4.9    120.3   73945.7  14.48  66.7  0.00     
 147.400  22.5     5.9    145.5   77885.0  14.47  66.7  -0.00    
 147.500  26.0     6.9    168.1   81420.0  14.49  66.7  -0.00    
 147.600  28.9     7.6    187.0   84390.0  14.49  66.7  0.00     
 147.700  30.9     8.2    199.9   86407.1  14.47  66.7  -0.00    
 147.800  31.4     8.3    203.5   86965.0  14.46  66.7  0.00     
 147.900  31.1     8.2    201.6   86671.7  14.46  66.7  0.00     
 148.000  31.0     8.2    200.8   86543.3  14.47  66.7  -0.00    
 148.100  31.4     8.3    203.4   86955.7  14.49  66.7  0.00     
 148.200  32.1     8.5    208.0   87665.0  14.46  66.7  -0.00    
 148.300  32.3     8.5    209.4   87884.3  14.48  66.7  -0.00    
 148.400  31.8     8.4    205.8   87330.0  14.47  66.7  -0.00    
 148.500  30.4     8.0    196.6   85881.7  14.48  66.7  0.01     
 148.600  29.3     7.7    189.9   84840.0  14.47  66.7  0.00     
 148.700  29.2     7.7    189.2   84727.1  14.47  66.7  -0.01    
 148.800  29.6     7.8    191.4   85070.0  14.47  66.7  0.01     
 148.900  30.2     8.0    195.7   85747.1  14.46  66.7  -0.01    
 149.000  30.6     8.1    198.4   86175.7  14.48  66.7  -0.00    
 149.100  30.4     8.0    196.8   85920.0  14.49  66.7  -0.00    
 149.200  30.2     8.0    195.2   85671.4  14.49  66.7  0.00     
 149.300  29.8     7.9    193.1   85336.7  14.48  66.7  0.00     
 149.400  29.4     7.8    190.3   84897.1  14.47  66.7  0.00     
 149.500  29.0     7.7    187.6   84473.3  14.48  66.7  0.00     
 149.600  28.6     7.5    184.9   84062.9  14.48  66.7  -0.00    
