~Version Information
 VERS.                2.0:  CWLS LOG ASCII STANDARD -VERSION 2.0
 WRAP.                 NO:  ONE LINE PER DEPTH STEP
~WELL INFORMATION BLOCK
#MNEM.UNIT       DATA		            DESCRIPTION OF MNEMONIC
#---------    -------------            ------------------------
 STRT.FT  27.800                         :START DEPTH
 STOP.FT  314.400                        :STOP DEPTH
 STEP.FT  0.100                          :STEP    UP_HOLE  
 NULL.    -999.25                        :NULL VALUE
 COMP.    CARLETON                       :COMPANY
 WELL.    658966_AMBTROLL                                              :WELL
 FLD .    NORTHFIELD 71-B                :FIELD\LOCATION
 LOC .    31    112   19                 :LOCATION
 CNTY.    RICE                           :COUNTY
 STAT.    ACDBCD                         :STATE
 CTRY.    USA                            :COUNTRY
 SRVC.    TRUCK                          :SERVICE COMPANY
 DATE.    03/20/2001                     :LOG DATE
 API .                                       :API NUMBER
 LIC .                                   :LICENSE NUMBER
~Curve Information Block
#MNEM.UNIT      API CODE     Curve Description
#---------    -------------  ------------------------
 DEPT     .FT        00 001 00 00          :  1  DEPTH   
 FLOW_SL  .LIT/MIN   00 000 00 00          :  2  FLOW_SL             
 FLOW_SL  .GAL/MIN   00 000 00 00          :  3  FLOW_SL             
 FLOW_SL  .FT/MIN    00 000 00 00          :  4  FLOW_SL             
 FLOW_SL  .CPS       00 000 00 00          :  5  FLOW_SL             
 RES(FL)  .OHM-M     00 000 00 00          :  6  RES(FL)             
 TEMP     .DEG_F     00 660 00 00          :  7  TEMPERATURE         
 DEL_TEMP .DEG_F     00 000 00 00          :  8  SAMPLE DELTA TEMP   
~Parameter Information Block
#MNEM.UNIT   Information     Description
#---------- ---------------  ------------------------
 FILE.      PROCESSED          :File Type
 FIID.      9721SL             :File Type Identifier
 VERS.      1.0                :System Version
 SER .      1                  :System Serial Number
 TRUK.      .980362            :Truck Calibration Number
 TOOL.        1163             :Tool Serial Number
 TIME.      1529               :Time    HrHrMinMin
 LAT .                         :Latitude
 LON .                         :Longitude
 LMF .                         :Log Measured From
 DMF .                         :Driller Measured From
 PD  .      4101               :Permanent Data
 PDEV.FT                       :Elevation Permanent Data
 EKB .FT                       :Elevation Kelly Bushing
 ELEV.FT                       :Elevation DF
 EGL .FT    948                :Elevation Ground Level
 DRDP.FT    25                 :Driller's Depth
 CASD.FT    6                  :Casing Diameter
 CASB.FT                       :Casing Bottom
 CASX.                         :Casing Type
 CAST.IN    0                  :Casing Thickness
 TNOC.                         :Time Circulation Stopped
 LOGU.      C-2                :Logging Unit
 RECB.      TIPPING            :Recorded By
 OSR1.                         :Other Services
 OSR2.                         :Other Services
 OSR3.                         :Other Services
 BS  .IN           6           :Bit Size
 MST .F                        :Mean Surface Temperature
 TGRD.F     0                  :Temperature Gradiant
 MAGN.      0                  :Magnetic Declination
 MDEN.      2.71               :Density Matrix
 MATR.      Dolomite           :Neutron Matrix
 DTMT.      54                 :Delta T Matrix
 DTFL.                         :Delta T Fluid
 MUDS.      0                  :Mud Sample Source
 MRS .      0                  :Mud Resistivity
 MTP .      0                  :Mud Temperature
 MFRS.                         :Resistivity Mud Filtrate
 MFTP.                         :Temperature Mud Filtrate
 MCRS.      0                  :Resistivity Mud Cake
 MCTP.                         :Temperature Mud Cake
 FTYP.      0                  :Fluid Type
 FD  .LB/G                     :Mud Weight
 DFV .S                        :Fluid Viscosity
 FPH .                         :Fuild PH
 ELCO.      2500               :Electron Cutoff
 CASL.IN                       :Casing Logger
 LOTD.FT                       :Logger TD
 ARTM.                         :Arrival Time
 DPTM.                         :Departure Time
 RIGN.                         :Rig Number
~Other Information
#MNEM.UNIT  Information      Description
#---------- ---------------  ------------------------
# -------------------------- 
~A DEPTH  FLOW_SL FLOW_SL FLOW_SL FLOW_SL RES(FL) TEMP  DEL_TEMP 
# ...
 308.300  -7.5    -2.0    -48.8   47451.7  14.49  66.7  -0.00    
 308.400  -6.5    -1.7    -42.2   48484.3  14.49  66.7  0.00     
 308.500  -6.4    -1.7    -41.3   48630.0  14.49  66.7  0.01     
 308.600  -6.9    -1.8    -44.5   48125.0  14.50  66.7  -0.01    
 308.700  -7.6    -2.0    -48.9   47441.7  14.49  66.7  -0.00    
 308.800  -8.3    -2.2    -53.7   46694.3  14.50  66.7  0.00     
 308.900  -8.9    -2.3    -57.4   46111.7  14.48  66.7  -0.00    
 309.000  -9.3    -2.4    -60.0   45708.3  14.50  66.7  -0.00    
 309.100  -9.7    -2.6    -62.7   45286.7  14.50  66.7  0.01     
 309.200  -10.1   -2.7    -65.4   44858.8  14.49  66.7  -0.00    
 309.300  -10.4   -2.8    -67.6   44506.7  14.49  66.7  -0.00    
 309.400  -10.6   -2.8    -68.3   44400.0  14.49  66.7  0.00     
 309.500  -10.4   -2.7    -67.1   44591.7  14.48  66.7  0.00     
 309.600  -9.9    -2.6    -64.3   45023.3  14.49  66.7  0.00     
 309.700  -9.3    -2.5    -60.4   45643.3  14.49  66.7  -0.01    
 309.800  -8.6    -2.3    -55.5   46408.6  14.49  66.7  0.01     
 309.900  -8.0    -2.1    -51.8   46995.0  14.49  66.7  -0.00    
 310.000  -8.0    -2.1    -51.6   47023.3  14.49  66.7  0.00     
 310.100  -8.3    -2.2    -53.9   46651.7  14.47  66.7  0.00     
 310.200  -8.7    -2.3    -56.4   46266.7  14.49  66.7  -0.00    
 310.300  -8.9    -2.4    -57.8   46054.3  14.49  66.7  0.00     
 310.400  -8.7    -2.3    -56.6   46230.0  14.48  66.7  -0.00    
 310.500  -8.2    -2.2    -52.8   46833.3  14.48  66.7  0.00     
 310.600  -7.4    -1.9    -47.7   47628.3  14.49  66.7  -0.00    
 310.700  -6.9    -1.8    -44.9   48075.7  14.48  66.7  0.01     
 310.800  -6.9    -1.8    -44.9   48073.3  14.47  66.7  -0.00    
 310.900  -7.1    -1.9    -45.9   47918.3  14.48  66.7  0.00     
 311.000  -7.3    -1.9    -47.3   47686.7  14.47  66.7  0.00     
 311.100  -7.5    -2.0    -48.9   47446.0  14.47  66.7  0.00     
 311.200  -7.8    -2.1    -50.3   47224.3  14.46  66.7  0.00     
 311.300  -7.9    -2.1    -51.1   47101.7  14.46  66.7  -0.01    
 311.400  -7.8    -2.1    -50.8   47144.3  14.47  66.7  -0.00    
 311.500  -7.7    -2.0    -49.7   47321.7  14.48  66.7  0.01     
 311.600  -7.4    -2.0    -48.2   47546.7  14.46  66.7  -0.00    
 311.700  -7.2    -1.9    -46.8   47765.7  14.47  66.7  -0.00    
 311.800  -7.1    -1.9    -45.9   47916.7  14.47  66.7  -999.25  
 311.900  -7.0    -1.8    -45.3   48008.3  14.47  66.7  0.00     
 312.000  -6.9    -1.8    -44.4   48140.0  14.45  66.7  -0.00    
 312.100  -6.7    -1.8    -43.2   48333.3  14.46  66.7  0.00     
 312.200  -6.5    -1.7    -42.0   48528.3  14.46  66.7  -0.00    
 312.300  -6.3    -1.7    -40.6   48742.9  14.47  66.7  -0.00    
 312.400  -6.1    -1.6    -39.3   48940.0  14.47  66.7  0.00     
 312.500  -5.9    -1.6    -38.5   49070.0  14.46  66.7  -0.00    
 312.600  -5.9    -1.6    -38.3   49098.6  14.46  66.7  0.00     
 312.700  -6.0    -1.6    -38.8   49025.0  14.46  66.7  0.01     
 312.800  -6.0    -1.6    -38.9   49015.0  14.45  66.7  -0.00    
 312.900  -5.7    -1.5    -36.9   49326.3  14.45  66.7  -0.01    
 313.000  -5.0    -1.3    -32.4   50030.0  14.46  66.7  0.01     
 313.100  -4.2    -1.1    -27.4   50810.0  14.45  66.7  -0.00    
 313.200  -3.4    -0.9    -22.1   51631.4  14.46  66.7  -0.00    
 313.300  -2.9    -0.8    -18.5   52208.0  14.46  66.7  0.00     
 313.400  -2.4    -0.6    -15.7   52635.7  14.45  66.7  -0.00    
 313.500  -2.1    -0.6    -13.8   52943.3  14.45  66.7  0.00     
 313.600  -1.9    -0.5    -12.5   53138.3  14.45  66.7  -0.00    
 313.700  -1.7    -0.5    -11.3   53325.7  14.45  66.7  0.00     
 313.800  -1.6    -0.4    -10.1   53513.3 -999.25 66.7  -0.01    
 313.900  -1.4    -0.4    -8.9    53708.6 -999.25 66.7  0.01     
 314.000  -1.1    -0.3    -7.4    53940.0 -999.25 -999.25 -999.25  
 314.100  -0.9    -0.2    -5.6    54216.3 -999.25 -999.25 -999.25  
 314.200  -0.6    -0.1    -3.7    54527.8 -999.25 -999.25 -999.25  
 314.300  -999.25 -999.25 -999.25 -999.25 -999.25 -999.25 -999.25  
 314.400  -999.25 -999.25 -999.25 -999.25 -999.25 -999.25 -999.25  
