~Version Information
 VERS.                2.0:  CWLS LOG ASCII STANDARD -VERSION 2.0
 WRAP.                 NO:  ONE LINE PER DEPTH STEP
~WELL INFORMATION BLOCK
#MNEM.UNIT       DATA		            DESCRIPTION OF MNEMONIC
#---------    -------------            ------------------------
 STRT.FT  27.800                         :START DEPTH
 STOP.FT  314.400                        :STOP DEPTH
 STEP.FT  0.100                          :STEP    UP_HOLE  
 NULL.    -999.25                        :NULL VALUE
 COMP.    CARLETON                       :COMPANY
 WELL.    658966_AMBTROLL                                              :WELL
 FLD .    NORTHFIELD 71-B                :FIELD\LOCATION
 LOC .    31    112   19                 :LOCATION
 CNTY.    RICE                           :COUNTY
 STAT.    ACDBCD                         :STATE
 CTRY.    USA                            :COUNTRY
 SRVC.    TRUCK                          :SERVICE COMPANY
 DATE.    03/20/2001                     :LOG DATE
 API .                                       :API NUMBER
 LIC .                                   :LICENSE NUMBER
~Curve Information Block
#MNEM.UNIT      API CODE     Curve Description
#---------    -------------  ------------------------
 DEPT     .FT        00 001 00 00          :  1  DEPTH   
 FLOW_SL  .LIT/MIN   00 000 00 00          :  2  FLOW_SL             
 FLOW_SL  .GAL/MIN   00 000 00 00          :  3  FLOW_SL             
 FLOW_SL  .FT/MIN    00 000 00 00          :  4  FLOW_SL             
 FLOW_SL  .CPS       00 000 00 00          :  5  FLOW_SL             
 RES(FL)  .OHM-M     00 000 00 00          :  6  RES(FL)             
 TEMP     .DEG_F     00 660 00 00          :  7  TEMPERATURE         
 DEL_TEMP .DEG_F     00 000 00 00          :  8  SAMPLE DELTA TEMP   
~Parameter Information Block
#MNEM.UNIT   Information     Description
#---------- ---------------  ------------------------
 FILE.      PROCESSED          :File Type
 FIID.      9721SL             :File Type Identifier
 VERS.      1.0                :System Version
 SER .      1                  :System Serial Number
 TRUK.      .980362            :Truck Calibration Number
 TOOL.        1163             :Tool Serial Number
 TIME.      1529               :Time    HrHrMinMin
 LAT .                         :Latitude
 LON .                         :Longitude
 LMF .                         :Log Measured From
 DMF .                         :Driller Measured From
 PD  .      4101               :Permanent Data
 PDEV.FT                       :Elevation Permanent Data
 EKB .FT                       :Elevation Kelly Bushing
 ELEV.FT                       :Elevation DF
 EGL .FT    948                :Elevation Ground Level
 DRDP.FT    25                 :Driller's Depth
 CASD.FT    6                  :Casing Diameter
 CASB.FT                       :Casing Bottom
 CASX.                         :Casing Type
 CAST.IN    0                  :Casing Thickness
 TNOC.                         :Time Circulation Stopped
 LOGU.      C-2                :Logging Unit
 RECB.      TIPPING            :Recorded By
 OSR1.                         :Other Services
 OSR2.                         :Other Services
 OSR3.                         :Other Services
 BS  .IN           6           :Bit Size
 MST .F                        :Mean Surface Temperature
 TGRD.F     0                  :Temperature Gradiant
 MAGN.      0                  :Magnetic Declination
 MDEN.      2.71               :Density Matrix
 MATR.      Dolomite           :Neutron Matrix
 DTMT.      54                 :Delta T Matrix
 DTFL.                         :Delta T Fluid
 MUDS.      0                  :Mud Sample Source
 MRS .      0                  :Mud Resistivity
 MTP .      0                  :Mud Temperature
 MFRS.                         :Resistivity Mud Filtrate
 MFTP.                         :Temperature Mud Filtrate
 MCRS.      0                  :Resistivity Mud Cake
 MCTP.                         :Temperature Mud Cake
 FTYP.      0                  :Fluid Type
 FD  .LB/G                     :Mud Weight
 DFV .S                        :Fluid Viscosity
 FPH .                         :Fuild PH
 ELCO.      2500               :Electron Cutoff
 CASL.IN                       :Casing Logger
 LOTD.FT                       :Logger TD
 ARTM.                         :Arrival Time
 DPTM.                         :Departure Time
 RIGN.                         :Rig Number
~Other Information
#MNEM.UNIT  Information      Description
#---------- ---------------  ------------------------
# -------------------------- 
~A DEPTH  FLOW_SL FLOW_SL FLOW_SL FLOW_SL RES(FL) TEMP  DEL_TEMP 
# ...
 210.700  34.5     9.1    223.7   90131.7  14.46  66.7  0.00     
 210.800  35.0     9.2    226.3   90545.7  14.46  66.7  -0.00    
 210.900  36.1     9.5    233.9   91735.0  14.46  66.7  0.00     
 211.000  37.1     9.8    240.1   92704.3  14.45  66.7  -0.00    
 211.100  37.6     9.9    243.3   93206.7  14.47  66.7  0.00     
 211.200  37.6     9.9    243.3   93200.0  14.47  66.7  0.01     
 211.300  37.0     9.8    239.6   92628.6  14.46  66.7  -0.00    
 211.400  36.5     9.6    236.3   92110.0  14.47  66.7  0.00     
 211.500  36.4     9.6    235.5   91975.0  14.47  66.7  -0.01    
 211.600  36.5     9.7    236.6   92148.3  14.47  66.7  0.00     
 211.700  36.8     9.7    238.3   92412.9  14.46  66.7  0.00     
 211.800  37.3     9.8    241.4   92896.7  14.47  66.7  0.00     
 211.900  37.9    10.0    245.2   93497.1  14.46  66.7  -0.01    
 212.000  38.2    10.1    247.4   93838.3  14.46  66.7  -0.00    
 212.100  38.0    10.0    245.7   93581.4  14.47  66.7  -0.00    
 212.200  37.0     9.8    239.3   92576.3  14.47  66.7  0.01     
 212.300  36.1     9.5    233.6   91686.7  14.47  66.7  -0.00    
 212.400  36.0     9.5    232.8   91553.3  14.47  66.7  0.00     
 212.500  36.4     9.6    235.4   91960.0  14.46  66.7  0.00     
 212.600  36.5     9.7    236.6   92158.6  14.46  66.7  0.00     
 212.700  36.2     9.6    234.4   91805.0  14.46  66.7  -0.00    
 212.800  36.0     9.5    233.1   91605.7  14.46  66.7  0.00     
 212.900  35.8     9.5    232.0   91425.7  14.47  66.7  0.00     
 213.000  35.9     9.5    232.6   91531.4  14.47  66.7  -0.00    
 213.100  36.5     9.6    236.1   92078.6  14.47  66.7  0.00     
 213.200  37.3     9.9    241.6   92926.7  14.47  66.7  -0.00    
 213.300  37.7    10.0    244.1   93328.6  14.46  66.7  -0.00    
 213.400  37.7    10.0    243.9   93301.7  14.48  66.7  0.01     
 213.500  37.7     9.9    243.8   93278.3  14.46  66.7  -0.02    
 213.600  38.0    10.0    245.8   93590.0  14.47  66.7  0.00     
 213.700  38.6    10.2    250.0   94248.6  14.46  66.7  0.00     
 213.800  39.2    10.3    253.5   94800.0  14.46  66.7  0.00     
 213.900  39.2    10.4    253.8   94848.6  14.46  66.7  -0.00    
 214.000  38.8    10.2    251.2   94431.7  14.46  66.7  -0.00    
 214.100  38.2    10.1    247.6   93870.0  14.46  66.7  0.00     
 214.200  37.8    10.0    245.0   93461.4  14.46  66.7  -0.00    
 214.300  37.9    10.0    245.5   93552.9  14.47  66.7  -0.00    
 214.400  38.5    10.2    249.3   94135.0  14.47  66.7  -0.00    
 214.500  39.1    10.3    253.3   94764.3  14.46  66.7  -0.01    
 214.600  39.2    10.3    253.5   94798.6  14.47  66.7  0.01     
 214.700  38.7    10.2    250.5   94324.3  14.47  66.7  0.00     
 214.800  38.0    10.0    246.2   93647.1  14.46  66.7  0.00     
 214.900  37.5     9.9    242.9   93132.9  14.48  66.7  -0.01    
 215.000  37.6     9.9    243.6   93251.4  14.48  66.7  0.01     
 215.100  38.2    10.1    247.6   93876.3  14.47  66.7  -0.01    
 215.200  38.8    10.2    251.1   94425.7  14.46  66.7  0.01     
 215.300  38.7    10.2    250.8   94374.3  14.45  66.7  -0.00    
 215.400  38.8    10.3    251.5   94490.0  14.45  66.7  -0.01    
 215.500  39.1    10.3    253.0   94714.3  14.46  66.7  0.00     
 215.600  39.2    10.4    253.8   94842.9  14.46  66.7  0.01     
 215.700  39.3    10.4    254.4   94934.3  14.47  66.7  -0.00    
 215.800  39.4    10.4    255.4   95098.3  14.46  66.7  -0.00    
 215.900  39.1    10.3    253.1   94730.0  14.48  66.7  -0.00    
 216.000  38.3    10.1    247.8   93910.0  14.48  66.7  0.01     
 216.100  37.8    10.0    244.8   93432.9  14.46  66.7  0.00     
 216.200  37.8    10.0    244.5   93390.0  14.45  66.7  -0.00    
 216.300  38.1    10.1    246.4   93692.9  14.46  66.7  -0.00    
 216.400  38.2    10.1    247.2   93818.3  14.47  66.7  0.00     
 216.500  38.0    10.0    246.2   93650.0  14.46  66.7  0.00     
 216.600  37.9    10.0    245.3   93513.3  14.46  66.7  -0.00    
 216.700  37.2     9.8    241.0   92845.0  14.46  66.7  0.00     
 216.800  36.6     9.7    237.2   92243.3  14.45  66.7  -0.01    
 216.900  36.5     9.6    236.5   92132.9  14.46  66.7  0.01     
 217.000  36.5     9.7    236.6   92145.7  14.47  66.7  -0.00    
 217.100  36.4     9.6    235.8   92025.7  14.47  66.7  0.00     
 217.200  36.6     9.7    236.8   92182.9  14.47  66.7  -0.00    
 217.300  36.9     9.7    238.7   92484.3  14.47  66.7  0.01     
 217.400  36.5     9.6    236.3   92110.0  14.46  66.7  -0.01    
 217.500  35.4     9.3    229.1   90984.3  14.46  66.7  0.00     
 217.600  34.3     9.1    221.8   89840.0  14.46  66.7  -0.00    
 217.700  32.7     8.6    211.5   88227.1  14.46  66.7  0.00     
 217.800  29.3     7.7    189.7   84812.9  14.46  66.7  -0.01    
 217.900  24.1     6.4    156.0   79531.4  14.47  66.7  0.01     
 218.000  20.3     5.4    131.2   75642.9  14.47  66.7  0.01     
 218.100  20.2     5.3    130.9   75591.4  14.45  66.7  -0.00    
 218.200  22.4     5.9    144.9   77795.7  14.47  66.7  -0.00    
 218.300  24.6     6.5    159.1   80015.0  14.45  66.7  -0.01    
 218.400  25.4     6.7    164.3   80830.0  14.47  66.7  0.00     
 218.500  24.9     6.6    161.2   80338.6  14.46  66.7  0.00     
 218.600  24.9     6.6    161.5   80395.7  14.46  66.7  -0.00    
 218.700  26.7     7.1    173.0   82191.4  14.46  66.7  -0.01    
 218.800  30.0     7.9    194.4   85540.0  14.47  66.7  0.01     
 218.900  33.5     8.9    217.1   89105.0  14.45  66.7  -999.25  
 219.000  35.4     9.4    229.3   91004.3  14.46  66.7  -0.01    
 219.100  35.7     9.4    231.0   91270.0  14.47  66.7  0.01     
 219.200  35.4     9.3    228.9   90950.0  14.46  66.7  -0.01    
 219.300  35.4     9.4    229.5   91043.3  14.47  66.7  -0.00    
 219.400  35.6     9.4    230.7   91231.7  14.46  66.7  0.01     
 219.500  35.6     9.4    230.3   91167.1  14.46  66.7  -0.00    
 219.600  35.3     9.3    228.7   90915.7  14.47  66.7  0.00     
 219.700  34.9     9.2    226.0   90495.7  14.46  66.7  0.00     
 219.800  34.0     9.0    220.1   89567.1  14.46  66.7  -0.00    
 219.900  33.1     8.7    214.2   88644.3  14.46  66.7  -0.00    
 220.000  32.7     8.6    211.8   88267.1  14.46  66.7  0.01     
 220.100  32.9     8.7    213.2   88482.9  14.46  66.7  -0.02    
 220.200  33.5     8.8    216.8   89054.3  14.47  66.7  0.01     
 220.300  34.2     9.0    221.6   89810.0  14.46  66.7  -0.00    
 220.400  34.7     9.2    224.6   90270.0  14.47  66.7  -0.00    
 220.500  34.8     9.2    225.3   90387.1  14.46  66.7  0.00     
 220.600  34.8     9.2    225.3   90384.3  14.46  66.7  -0.00    
 220.700  34.8     9.2    225.3   90374.3  14.46  66.7  0.00     
 220.800  34.9     9.2    226.0   90495.7  14.46  66.7  -0.01    
 220.900  34.7     9.2    224.6   90272.9  14.48  66.7  -0.00    
 221.000  34.0     9.0    220.4   89607.1  14.46  66.7  0.01     
 221.100  33.4     8.8    216.4   88981.4  14.47  66.7  0.00     
 221.200  33.0     8.7    213.7   88564.3  14.46  66.7  -0.00    
 221.300  32.9     8.7    213.0   88450.0  14.45  66.7  -0.00    
 221.400  33.4     8.8    216.1   88946.7  14.48  66.7  -0.00    
 221.500  34.2     9.0    221.6   89800.0  14.46  66.7  -0.00    
 221.600  35.0     9.3    226.7   90607.1  14.47  66.7  0.00     
 221.700  35.5     9.4    229.8   91083.3  14.47  66.7  0.00     
 221.800  35.8     9.4    231.5   91356.7  14.46  66.7  -0.00    
 221.900  36.1     9.5    233.9   91732.9  14.46  66.7  0.00     
 222.000  36.2     9.6    234.1   91755.7  14.46  66.7  -0.00    
 222.100  36.0     9.5    233.2   91624.3  14.46  66.7  -0.00    
 222.200  36.0     9.5    233.2   91624.3  14.47  66.7  0.00     
 222.300  36.0     9.5    233.2   91620.0  14.45  66.7  0.00     
 222.400  36.0     9.5    233.4   91651.7  14.47  66.7  0.00     
 222.500  36.2     9.6    234.1   91765.0  14.46  66.7  -0.00    
 222.600  36.3     9.6    235.2   91931.4  14.46  66.7  0.00     
 222.700  36.4     9.6    235.9   92040.0  14.47  66.7  -0.01    
 222.800  36.4     9.6    235.9   92034.3  14.47  66.7  0.01     
