~Version Information
 VERS.                2.0:  CWLS LOG ASCII STANDARD -VERSION 2.0
 WRAP.                 NO:  ONE LINE PER DEPTH STEP
~WELL INFORMATION BLOCK
#MNEM.UNIT       DATA		            DESCRIPTION OF MNEMONIC
#---------    -------------            ------------------------
 STRT.FT  39.400                         :START DEPTH
 STOP.FT  309.900                        :STOP DEPTH
 STEP.FT  0.100                          :STEP    UP_HOLE  
 NULL.    -999.25                        :NULL VALUE
 COMP.    CARLETON                       :COMPANY
 WELL.    658966_PUMPTROLL                                             :WELL
 FLD .    NORTHFIELD 71-B                :FIELD\LOCATION
 LOC .    31    112   19                 :LOCATION
 CNTY.    RICE                           :COUNTY
 STAT.    ACDBCD                         :STATE
 CTRY.    USA                            :COUNTRY
 SRVC.    TRUCK                          :SERVICE COMPANY
 DATE.    03/20/2001                     :LOG DATE
 API .                                       :API NUMBER
 LIC .                                   :LICENSE NUMBER
~Curve Information Block
#MNEM.UNIT      API CODE     Curve Description
#---------    -------------  ------------------------
 DEPT     .FT        00 001 00 00          :  1  DEPTH   
 FLOW_SL  .LIT/MIN   00 000 00 00          :  2  FLOW_SL             
 FLOW_SL  .GAL/MIN   00 000 00 00          :  3  FLOW_SL             
 FLOW_SL  .FT/MIN    00 000 00 00          :  4  FLOW_SL             
 FLOW_SL  .CPS       00 000 00 00          :  5  FLOW_SL             
 RES(FL)  .OHM-M     00 000 00 00          :  6  RES(FL)             
 TEMP     .DEG_F     00 660 00 00          :  7  TEMPERATURE         
 DEL_TEMP .DEG_F     00 000 00 00          :  8  SAMPLE DELTA TEMP   
~Parameter Information Block
#MNEM.UNIT   Information     Description
#---------- ---------------  ------------------------
 FILE.      PROCESSED          :File Type
 FIID.      9721SL             :File Type Identifier
 VERS.      1.0                :System Version
 SER .      1                  :System Serial Number
 TRUK.      .980362            :Truck Calibration Number
 TOOL.        1163             :Tool Serial Number
 TIME.      1855               :Time    HrHrMinMin
 LAT .                         :Latitude
 LON .                         :Longitude
 LMF .                         :Log Measured From
 DMF .                         :Driller Measured From
 PD  .      4101               :Permanent Data
 PDEV.FT                       :Elevation Permanent Data
 EKB .FT                       :Elevation Kelly Bushing
 ELEV.FT                       :Elevation DF
 EGL .FT    948                :Elevation Ground Level
 DRDP.FT    25                 :Driller's Depth
 CASD.FT    6                  :Casing Diameter
 CASB.FT                       :Casing Bottom
 CASX.                         :Casing Type
 CAST.IN    0                  :Casing Thickness
 TNOC.                         :Time Circulation Stopped
 LOGU.      C-2                :Logging Unit
 RECB.      TIPPING            :Recorded By
 OSR1.                         :Other Services
 OSR2.                         :Other Services
 OSR3.                         :Other Services
 BS  .IN           6           :Bit Size
 MST .F                        :Mean Surface Temperature
 TGRD.F     0                  :Temperature Gradiant
 MAGN.      0                  :Magnetic Declination
 MDEN.      2.71               :Density Matrix
 MATR.      Dolomite           :Neutron Matrix
 DTMT.      54                 :Delta T Matrix
 DTFL.                         :Delta T Fluid
 MUDS.      0                  :Mud Sample Source
 MRS .      0                  :Mud Resistivity
 MTP .      0                  :Mud Temperature
 MFRS.                         :Resistivity Mud Filtrate
 MFTP.                         :Temperature Mud Filtrate
 MCRS.      0                  :Resistivity Mud Cake
 MCTP.                         :Temperature Mud Cake
 FTYP.      0                  :Fluid Type
 FD  .LB/G                     :Mud Weight
 DFV .S                        :Fluid Viscosity
 FPH .                         :Fuild PH
 ELCO.      2500               :Electron Cutoff
 CASL.IN                       :Casing Logger
 LOTD.FT                       :Logger TD
 ARTM.                         :Arrival Time
 DPTM.                         :Departure Time
 RIGN.                         :Rig Number
~Other Information
#MNEM.UNIT  Information      Description
#---------- ---------------  ------------------------
# -------------------------- 
~A DEPTH  FLOW_SL FLOW_SL FLOW_SL FLOW_SL RES(FL) TEMP  DEL_TEMP 
# ...
  51.500  -15.3   -4.0    -99.1   39577.1  14.54  66.7  -999.25  
  51.600  -15.4   -4.1    -99.5   39522.9  14.54  66.7  -0.00    
  51.700  -15.6   -4.1    -100.8  39308.6  14.54  66.7  0.00     
  51.800  -16.1   -4.3    -104.4  38756.7  14.53  66.7  -0.00    
  51.900  -16.3   -4.3    -105.8  38525.7  14.54  66.7  -0.00    
  52.000  -16.0   -4.2    -103.7  38861.7  14.54  66.7  0.00     
  52.100  -15.4   -4.1    -99.6   39504.3  14.54  66.7  -0.00    
  52.200  -14.3   -3.8    -92.8   40570.0  14.55  66.7  -0.00    
  52.300  -13.6   -3.6    -88.0   41325.7  14.53  66.7  0.00     
  52.400  -13.4   -3.5    -86.9   41498.3  14.53  66.7  0.00     
  52.500  -13.1   -3.5    -84.6   41850.0  14.54  66.7  -999.25  
  52.600  -12.0   -3.2    -77.9   42908.6  14.54  66.7  -0.00    
  52.700  -10.7   -2.8    -69.1   44273.3  14.55  66.7  -0.00    
  52.800  -9.8    -2.6    -63.6   45140.0  14.54  66.7  0.00     
  52.900  -9.7    -2.6    -62.8   45265.0  14.53  66.7  0.00     
  53.000  -10.0   -2.6    -64.8   44955.0  14.53  66.7  0.00     
  53.100  -10.6   -2.8    -68.4   44391.4  14.55  66.7  -0.01    
  53.200  -11.1   -2.9    -72.1   43813.3  14.54  66.7  0.00     
  53.300  -11.4   -3.0    -73.7   43561.7  14.54  66.7  0.00     
  53.400  -11.3   -3.0    -73.3   43626.7  14.54  66.7  0.00     
  53.500  -10.9   -2.9    -70.4   44070.0  14.54  66.7  -0.00    
  53.600  -10.2   -2.7    -66.0   44770.0  14.54  66.7  -0.00    
  53.700  -9.6    -2.5    -62.1   45381.7  14.54  66.7  0.00     
  53.800  -9.3    -2.5    -60.3   45660.0  14.54  66.7  -0.00    
  53.900  -9.3    -2.5    -60.3   45650.0  14.54  66.7  -0.00    
  54.000  -9.6    -2.5    -62.1   45371.4  14.54  66.7  0.00     
  54.100  -10.0   -2.7    -65.0   44925.7  14.54  66.7  -0.00    
  54.200  -10.4   -2.7    -67.2   44581.4  14.55  66.7  0.00     
  54.300  -10.4   -2.8    -67.5   44534.3  14.54  66.7  -0.00    
  54.400  -10.7   -2.8    -69.3   44240.0  14.53  66.7  -0.00    
  54.500  -11.8   -3.1    -76.3   43155.0  14.54  66.7  0.01     
  54.600  -13.5   -3.6    -87.3   41434.3  14.54  66.7  0.00     
  54.700  -14.7   -3.9    -95.1   40205.0  14.55  66.7  -0.00    
  54.800  -15.3   -4.0    -99.0   39604.3  14.54  66.7  0.00     
  54.900  -15.2   -4.0    -98.6   39652.9  14.54  66.7  -0.00    
  55.000  -14.9   -3.9    -96.6   39980.0  14.54  66.7  0.00     
  55.100  -14.6   -3.9    -94.4   40318.3  14.55  66.7  -0.01    
  55.200  -14.4   -3.8    -93.0   40543.3  14.54  66.7  -0.00    
  55.300  -14.1   -3.7    -91.0   40848.3  14.53  66.7  0.01     
  55.400  -13.6   -3.6    -88.3   41271.7  14.54  66.7  0.00     
  55.500  -12.9   -3.4    -83.7   41991.7  14.54  66.7  -0.00    
  55.600  -11.9   -3.2    -77.3   42998.3  14.54  66.7  0.00     
  55.700  -11.5   -3.0    -74.7   43401.7  14.55  66.7  -0.00    
  55.800  -11.5   -3.0    -74.3   43460.0  14.56  66.7  -0.00    
  55.900  -11.0   -2.9    -71.5   43900.0  14.55  66.7  0.00     
  56.000  -10.3   -2.7    -66.6   44665.0  14.54  66.7  0.01     
  56.100  -9.2    -2.4    -59.6   45774.3  14.55  66.7  -0.00    
  56.200  -8.6    -2.3    -55.4   46425.0  14.54  66.7  -0.00    
  56.300  -8.4    -2.2    -54.1   46631.7  14.54  66.7  0.00     
  56.400  -8.4    -2.2    -54.4   46577.1  14.54  66.7  0.01     
  56.500  -8.6    -2.3    -55.8   46365.0  14.54  66.7  -0.01    
  56.600  -8.6    -2.3    -55.9   46353.3  14.54  66.7  0.00     
  56.700  -8.4    -2.2    -54.4   46578.6  14.54  66.7  -0.00    
  56.800  -8.4    -2.2    -54.6   46552.9  14.53  66.7  0.01     
  56.900  -8.9    -2.3    -57.5   46100.0  14.54  66.7  -0.00    
  57.000  -9.5    -2.5    -61.4   45480.0  14.55  66.7  -0.00    
  57.100  -10.2   -2.7    -65.8   44794.3  14.55  66.7  0.00     
  57.200  -10.5   -2.8    -68.2   44420.0  14.55  66.7  0.00     
  57.300  -10.5   -2.8    -67.8   44475.7  14.54  66.7  0.00     
  57.400  -10.2   -2.7    -66.1   44748.3  14.55  66.7  -0.00    
  57.500  -10.2   -2.7    -66.4   44708.6  14.55  66.7  -0.00    
  57.600  -11.0   -2.9    -71.5   43901.7  14.55  66.7  0.00     
  57.700  -12.3   -3.3    -79.8   42606.7  14.55  66.7  0.00     
  57.800  -13.9   -3.7    -89.9   41025.7  14.54  66.7  0.00     
  57.900  -15.2   -4.0    -98.4   39684.3  14.55  66.7  -0.00    
  58.000  -15.5   -4.1    -100.2  39405.0  14.54  66.7  0.00     
  58.100  -14.8   -3.9    -95.6   40135.7  14.55  66.7  -0.00    
  58.200  -13.7   -3.6    -88.7   41208.3  14.55  66.7  0.00     
  58.300  -13.0   -3.4    -84.1   41931.4  14.55  66.7  -0.01    
  58.400  -12.4   -3.3    -80.5   42488.3  14.54  66.7  0.00     
  58.500  -11.9   -3.1    -76.9   43057.1  14.55  66.7  -0.00    
  58.600  -11.5   -3.0    -74.6   43418.3  14.55  66.7  0.00     
  58.700  -11.3   -3.0    -73.3   43621.4  14.54  66.7  0.00     
  58.800  -11.2   -2.9    -72.2   43790.0  14.54  66.7  -0.00    
  58.900  -11.2   -3.0    -72.6   43728.3  14.55  66.7  0.00     
  59.000  -11.5   -3.0    -74.6   43415.7  14.55  66.7  -0.00    
  59.100  -11.6   -3.1    -75.3   43301.7  14.56  66.7  -999.25  
  59.200  -11.6   -3.1    -75.3   43303.3  14.55  66.7  -0.00    
  59.300  -12.1   -3.2    -78.1   42874.3  14.54  66.7  0.00     
  59.400  -13.2   -3.5    -85.4   41726.7  14.54  66.7  -0.00    
  59.500  -14.7   -3.9    -95.4   40165.7  14.55  66.7  0.00     
  59.600  -16.0   -4.2    -103.7  38857.1  14.54  66.7  -0.00    
  59.700  -16.5   -4.3    -106.6  38410.0  14.55  66.7  0.00     
  59.800  -16.2   -4.3    -104.8  38695.7  14.54  66.7  -0.00    
  59.900  -15.4   -4.1    -99.6   39503.3  14.55  66.7  0.00     
  60.000  -14.0   -3.7    -90.8   40873.3  14.54  66.7  0.00     
  60.100  -12.2   -3.2    -78.9   42737.1  14.55  66.7  -0.00    
  60.200  -10.2   -2.7    -66.2   44728.6  14.54  66.7  -0.01    
  60.300  -9.5    -2.5    -61.8   45424.0  14.55  66.7  0.00     
  60.400  -10.1   -2.7    -65.2   44891.4  14.55  66.7  0.00     
  60.500  -11.3   -3.0    -72.9   43680.0  14.54  66.7  0.00     
  60.600  -12.5   -3.3    -81.1   42403.3  14.54  66.7  0.00     
  60.700  -13.4   -3.5    -86.7   41525.7  14.55  66.7  0.00     
  60.800  -13.4   -3.6    -87.0   41471.7  14.55  66.7  0.00     
  60.900  -13.5   -3.6    -87.5   41390.0  14.56  66.7  -0.01    
  61.000  -14.4   -3.8    -93.1   40520.0  14.54  66.7  -0.00    
  61.100  -15.5   -4.1    -100.6  39346.7  14.54  66.7  -999.25  
  61.200  -16.4   -4.3    -106.0  38497.1  14.53  66.7  0.00     
  61.300  -16.0   -4.2    -103.7  38855.0  14.56  66.7  -0.00    
  61.400  -15.0   -4.0    -97.1   39890.0  14.55  66.7  -0.00    
  61.500  -14.2   -3.8    -92.3   40653.3  14.55  66.7  -0.00    
  61.600  -14.3   -3.8    -92.5   40611.4  14.55  66.7  0.00     
  61.700  -14.6   -3.9    -94.6   40290.0  14.54  66.7  -0.00    
  61.800  -15.0   -4.0    -97.2   39878.6  14.55  66.7  -999.25  
  61.900  -15.4   -4.1    -99.8   39477.1  14.54  66.7  -999.25  
  62.000  -15.7   -4.1    -101.4  39214.3  14.54  66.7  0.00     
  62.100  -15.7   -4.1    -101.4  39223.3  14.55  66.7  -0.00    
  62.200  -15.4   -4.1    -99.9   39453.3  14.55  66.7  -0.00    
  62.300  -15.1   -4.0    -97.6   39810.0  14.55  66.7  0.00     
  62.400  -15.0   -4.0    -97.4   39842.9  14.54  66.7  0.00     
  62.500  -15.0   -4.0    -96.8   39936.7  14.55  66.7  -0.00    
  62.600  -14.7   -3.9    -95.0   40230.0  14.55  66.7  0.00     
  62.700  -14.4   -3.8    -93.5   40451.7  14.55  66.7  -0.00    
  62.800  -14.2   -3.7    -91.9   40714.3  14.54  66.7  -0.01    
  62.900  -13.6   -3.6    -88.2   41288.0  14.55  66.7  0.00     
  63.000  -12.2   -3.2    -79.1   42708.6  14.55  66.7  -0.00    
  63.100  -10.3   -2.7    -67.0   44608.3  14.54  66.7  0.00     
  63.200  -8.9    -2.4    -57.8   46043.3  14.55  66.7  -0.00    
  63.300  -8.1    -2.1    -52.5   46881.7  14.54  66.7  -0.00    
  63.400  -8.0    -2.1    -51.8   46985.7  14.54  66.7  0.00     
  63.500  -8.7    -2.3    -56.1   46308.6  14.55  66.7  -0.00    
  63.600  -10.1   -2.7    -65.1   44900.0  14.55  66.7  -0.00    
