~Version Information
 VERS.                2.0:  CWLS LOG ASCII STANDARD -VERSION 2.0
 WRAP.                 NO:  ONE LINE PER DEPTH STEP
~WELL INFORMATION BLOCK
#MNEM.UNIT       DATA		            DESCRIPTION OF MNEMONIC
#---------    -------------            ------------------------
 STRT.FT  27.800                         :START DEPTH
 STOP.FT  314.400                        :STOP DEPTH
 STEP.FT  0.100                          :STEP    UP_HOLE  
 NULL.    -999.25                        :NULL VALUE
 COMP.    CARLETON                       :COMPANY
 WELL.    658966_AMBTROLL                                              :WELL
 FLD .    NORTHFIELD 71-B                :FIELD\LOCATION
 LOC .    31    112   19                 :LOCATION
 CNTY.    RICE                           :COUNTY
 STAT.    ACDBCD                         :STATE
 CTRY.    USA                            :COUNTRY
 SRVC.    TRUCK                          :SERVICE COMPANY
 DATE.    03/20/2001                     :LOG DATE
 API .                                       :API NUMBER
 LIC .                                   :LICENSE NUMBER
~Curve Information Block
#MNEM.UNIT      API CODE     Curve Description
#---------    -------------  ------------------------
 DEPT     .FT        00 001 00 00          :  1  DEPTH   
 FLOW_SL  .LIT/MIN   00 000 00 00          :  2  FLOW_SL             
 FLOW_SL  .GAL/MIN   00 000 00 00          :  3  FLOW_SL             
 FLOW_SL  .FT/MIN    00 000 00 00          :  4  FLOW_SL             
 FLOW_SL  .CPS       00 000 00 00          :  5  FLOW_SL             
 RES(FL)  .OHM-M     00 000 00 00          :  6  RES(FL)             
 TEMP     .DEG_F     00 660 00 00          :  7  TEMPERATURE         
 DEL_TEMP .DEG_F     00 000 00 00          :  8  SAMPLE DELTA TEMP   
~Parameter Information Block
#MNEM.UNIT   Information     Description
#---------- ---------------  ------------------------
 FILE.      PROCESSED          :File Type
 FIID.      9721SL             :File Type Identifier
 VERS.      1.0                :System Version
 SER .      1                  :System Serial Number
 TRUK.      .980362            :Truck Calibration Number
 TOOL.        1163             :Tool Serial Number
 TIME.      1529               :Time    HrHrMinMin
 LAT .                         :Latitude
 LON .                         :Longitude
 LMF .                         :Log Measured From
 DMF .                         :Driller Measured From
 PD  .      4101               :Permanent Data
 PDEV.FT                       :Elevation Permanent Data
 EKB .FT                       :Elevation Kelly Bushing
 ELEV.FT                       :Elevation DF
 EGL .FT    948                :Elevation Ground Level
 DRDP.FT    25                 :Driller's Depth
 CASD.FT    6                  :Casing Diameter
 CASB.FT                       :Casing Bottom
 CASX.                         :Casing Type
 CAST.IN    0                  :Casing Thickness
 TNOC.                         :Time Circulation Stopped
 LOGU.      C-2                :Logging Unit
 RECB.      TIPPING            :Recorded By
 OSR1.                         :Other Services
 OSR2.                         :Other Services
 OSR3.                         :Other Services
 BS  .IN           6           :Bit Size
 MST .F                        :Mean Surface Temperature
 TGRD.F     0                  :Temperature Gradiant
 MAGN.      0                  :Magnetic Declination
 MDEN.      2.71               :Density Matrix
 MATR.      Dolomite           :Neutron Matrix
 DTMT.      54                 :Delta T Matrix
 DTFL.                         :Delta T Fluid
 MUDS.      0                  :Mud Sample Source
 MRS .      0                  :Mud Resistivity
 MTP .      0                  :Mud Temperature
 MFRS.                         :Resistivity Mud Filtrate
 MFTP.                         :Temperature Mud Filtrate
 MCRS.      0                  :Resistivity Mud Cake
 MCTP.                         :Temperature Mud Cake
 FTYP.      0                  :Fluid Type
 FD  .LB/G                     :Mud Weight
 DFV .S                        :Fluid Viscosity
 FPH .                         :Fuild PH
 ELCO.      2500               :Electron Cutoff
 CASL.IN                       :Casing Logger
 LOTD.FT                       :Logger TD
 ARTM.                         :Arrival Time
 DPTM.                         :Departure Time
 RIGN.                         :Rig Number
~Other Information
#MNEM.UNIT  Information      Description
#---------- ---------------  ------------------------
# -------------------------- 
~A DEPTH  FLOW_SL FLOW_SL FLOW_SL FLOW_SL RES(FL) TEMP  DEL_TEMP 
# ...
  88.700  -18.5   -4.9    -119.6  36368.3  14.49  66.7  0.00     
  88.800  -18.7   -4.9    -120.8  36183.3  14.47  66.7  -0.00    
  88.900  -18.8   -5.0    -121.8  36032.0  14.47  66.7  0.01     
  89.000  -18.9   -5.0    -122.3  35951.7  14.46  66.7  -0.00    
  89.100  -18.9   -5.0    -122.1  35978.6  14.47  66.7  -0.01    
  89.200  -18.8   -5.0    -121.8  36026.7  14.49  66.7  0.00     
  89.300  -18.8   -5.0    -121.5  36078.0  14.47  66.7  0.00     
  89.400  -18.8   -5.0    -122.0  35990.0  14.47  66.7  0.00     
  89.500  -18.8   -5.0    -121.8  36028.0  14.48  66.7  -0.00    
  89.600  -18.3   -4.8    -118.7  36510.0  14.48  66.7  -0.00    
  89.700  -17.4   -4.6    -112.6  37474.3  14.48  66.7  -0.00    
  89.800  -16.6   -4.4    -107.2  38311.7  14.48  66.7  0.00     
  89.900  -15.8   -4.2    -102.4  39071.7  14.48  66.7  0.00     
  90.000  -15.5   -4.1    -100.3  39388.0  14.47  66.7  -0.00    
  90.100  -15.4   -4.1    -99.5   39518.6  14.48  66.7  -0.00    
  90.200  -15.0   -4.0    -97.4   39851.7  14.50  66.7  0.00     
  90.300  -15.2   -4.0    -98.2   39722.0  14.49  66.7  0.00     
  90.400  -16.4   -4.3    -105.9  38508.6  14.48  66.7  0.00     
  90.500  -17.5   -4.6    -113.5  37320.0  14.48  66.7  0.00     
  90.600  -17.6   -4.7    -114.0  37248.3  14.47  66.7  -0.01    
  90.700  -17.0   -4.5    -110.0  37876.7  14.48  66.7  0.00     
  90.800  -16.2   -4.3    -105.2  38630.0  14.47  66.7  0.00     
  90.900  -15.3   -4.0    -99.2   39563.3  14.48  66.7  -0.01    
  91.000  -14.4   -3.8    -93.4   40473.3  14.48  66.7  -999.25  
  91.100  -13.6   -3.6    -88.1   41305.0  14.48  66.7  0.00     
  91.200  -13.1   -3.5    -84.7   41840.0  14.50  66.7  -999.25  
  91.300  -12.6   -3.3    -81.4   42347.1  14.48  66.7  -0.00    
  91.400  -11.8   -3.1    -76.4   43143.3  14.47  66.7  -0.00    
  91.500  -11.0   -2.9    -71.2   43946.7  14.48  66.7  0.00     
  91.600  -10.5   -2.8    -67.9   44468.3  14.48  66.7  0.00     
  91.700  -10.4   -2.7    -67.4   44546.7  14.47  66.7  -0.00    
  91.800  -10.9   -2.9    -70.7   44025.7  14.46  66.7  -0.00    
  91.900  -11.6   -3.1    -75.3   43306.7  14.48  66.7  0.00     
  92.000  -11.9   -3.1    -76.8   43071.7  14.47  66.7  -0.01    
  92.100  -11.5   -3.0    -74.7   43408.3  14.48  66.7  0.00     
  92.200  -10.9   -2.9    -70.7   44028.3  14.47  66.7  0.00     
  92.300  -10.1   -2.7    -65.6   44827.1  14.48  66.7  -0.00    
  92.400  -9.5    -2.5    -61.8   45420.0  14.48  66.7  0.00     
  92.500  -9.4    -2.5    -60.6   45610.0  14.48  66.7  -0.00    
  92.600  -9.3    -2.5    -60.3   45663.3  14.47  66.7  0.00     
  92.700  -9.2    -2.4    -59.5   45787.1  14.48  66.7  -0.00    
  92.800  -8.9    -2.4    -57.7   46056.7  14.47  66.7  0.00     
  92.900  -8.5    -2.2    -55.0   46483.3  14.47  66.7  -0.00    
  93.000  -7.8    -2.1    -50.7   47153.3  14.48  66.7  -0.00    
  93.100  -6.9    -1.8    -45.0   48058.3  14.48  66.7  0.00     
  93.200  -6.2    -1.6    -40.1   48822.0  14.46  66.7  -0.00    
  93.300  -5.9    -1.6    -38.1   49130.0  14.47  66.7  -0.00    
  93.400  -6.0    -1.6    -39.1   48981.7  14.48  66.7  -0.00    
  93.500  -6.5    -1.7    -42.0   48523.3  14.48  66.7  0.00     
  93.600  -7.1    -1.9    -45.7   47938.3  14.48  66.7  0.00     
  93.700  -7.7    -2.0    -49.9   47285.0  14.48  66.7  -0.00    
  93.800  -8.4    -2.2    -54.7   46536.7  14.48  66.7  -999.25  
  93.900  -9.3    -2.4    -60.0   45701.7  14.48  66.7  0.00     
  94.000  -10.0   -2.6    -64.9   44941.7  14.47  66.7  0.01     
  94.100  -10.6   -2.8    -68.9   44316.7  14.47  66.7  -0.00    
  94.200  -11.2   -2.9    -72.3   43780.0  14.49  66.7  -0.00    
  94.300  -11.7   -3.1    -75.6   43266.7  14.49  66.7  -0.00    
  94.400  -12.1   -3.2    -78.4   42820.0  14.50  66.7  0.00     
  94.500  -12.5   -3.3    -80.8   42453.3  14.46  66.7  -0.00    
  94.600  -12.9   -3.4    -83.5   42028.3  14.48  66.7  0.00     
  94.700  -12.8   -3.4    -83.0   42095.0  14.48  66.7  0.01     
  94.800  -12.0   -3.2    -77.6   42950.0  14.46  66.7  -0.01    
  94.900  -10.6   -2.8    -68.8   44318.3  14.47  66.7  -0.00    
  95.000  -9.4    -2.5    -60.7   45588.3  14.48  66.7  0.00     
  95.100  -8.7    -2.3    -56.3   46285.0  14.48  66.7  -0.00    
  95.200  -9.1    -2.4    -58.8   45891.7  14.48  66.7  -0.00    
  95.300  -9.9    -2.6    -64.3   45023.3  14.47  66.7  -999.25  
  95.400  -10.8   -2.8    -69.8   44161.7  14.49  66.7  0.00     
  95.500  -11.5   -3.0    -74.5   43431.7  14.47  66.7  -0.00    
  95.600  -12.1   -3.2    -78.2   42858.3  14.49  66.7  0.00     
  95.700  -12.4   -3.3    -80.0   42565.0  14.49  66.7  0.00     
  95.800  -12.4   -3.3    -80.0   42573.3  14.48  66.7  0.00     
  95.900  -12.5   -3.3    -80.8   42448.3  14.48  66.7  -0.00    
  96.000  -12.9   -3.4    -83.3   42054.0  14.48  66.7  0.01     
  96.100  -13.1   -3.5    -85.1   41773.3  14.46  66.7  -0.01    
  96.200  -13.0   -3.4    -84.2   41918.3  14.48  66.7  -0.00    
  96.300  -12.5   -3.3    -80.8   42448.3  14.47  66.7  0.00     
  96.400  -11.9   -3.1    -77.0   43048.3  14.48  66.7  -0.00    
  96.500  -11.6   -3.1    -75.2   43325.0  14.48  66.7  0.00     
  96.600  -12.0   -3.2    -77.4   42981.7  14.48  66.7  0.00     
  96.700  -12.8   -3.4    -82.7   42146.7  14.46  66.7  -0.00    
  96.800  -13.5   -3.6    -87.2   41446.0  14.47  66.7  -0.00    
  96.900  -13.8   -3.6    -89.1   41150.0  14.48  66.7  0.01     
  97.000  -13.8   -3.6    -89.3   41111.7  14.47  66.7  -0.00    
  97.100  -13.4   -3.5    -86.7   41530.0  14.48  66.7  -0.00    
  97.200  -12.8   -3.4    -83.0   42098.3  14.47  66.7  0.00     
  97.300  -12.7   -3.4    -82.3   42214.3  14.48  66.7  -0.00    
  97.400  -12.5   -3.3    -81.1   42401.7  14.47  66.7  -999.25  
  97.500  -12.3   -3.2    -79.3   42675.0  14.48  66.7  0.00     
  97.600  -12.4   -3.3    -80.5   42495.0  14.46  66.7  0.00     
  97.700  -13.2   -3.5    -85.7   41676.0  14.47  66.7  -0.00    
  97.800  -14.5   -3.8    -93.6   40436.7  14.49  66.7  -0.00    
  97.900  -15.6   -4.1    -101.2  39246.7  14.48  66.7  0.00     
  98.000  -16.3   -4.3    -105.3  38610.0  14.48  66.7  0.01     
  98.100  -16.8   -4.4    -108.9  38046.7  14.47  66.7  0.01     
  98.200  -17.4   -4.6    -112.7  37445.0  14.46  66.7  -0.01    
  98.300  -17.7   -4.7    -114.4  37185.0  14.49  66.7  -0.00    
  98.400  -17.6   -4.7    -114.2  37210.0  14.49  66.7  -0.00    
  98.500  -17.1   -4.5    -111.0  37720.0  14.49  66.7  -0.00    
  98.600  -16.5   -4.4    -106.9  38352.0  14.49  66.7  0.00     
  98.700  -16.1   -4.3    -104.2  38780.0  14.48  66.7  -0.00    
  98.800  -15.7   -4.2    -101.9  39142.0  14.47  66.7  0.01     
  98.900  -15.0   -4.0    -97.3   39861.7  14.48  66.7  -0.01    
  99.000  -14.0   -3.7    -90.4   40936.0  14.48  66.7  0.00     
  99.100  -12.8   -3.4    -82.6   42168.3  14.47  66.7  -0.01    
  99.200  -11.5   -3.0    -74.2   43482.0  14.48  66.7  0.00     
  99.300  -10.5   -2.8    -68.0   44451.7  14.47  66.7  -0.00    
  99.400  -10.3   -2.7    -66.7   44662.0  14.48  66.7  0.01     
  99.500  -10.8   -2.9    -69.9   44155.7  14.47  66.7  -0.01    
  99.600  -11.7   -3.1    -75.6   43265.0  14.48  66.7  0.01     
  99.700  -12.5   -3.3    -80.9   42430.0  14.46  66.7  -0.00    
  99.800  -12.9   -3.4    -83.8   41976.7  14.48  66.7  -0.00    
  99.900  -13.2   -3.5    -85.1   41765.7  14.48  66.7  -999.25  
 100.000  -13.2   -3.5    -85.2   41756.0  14.48  66.7  0.01     
 100.100  -12.7   -3.3    -82.0   42260.0  14.47  66.7  -0.01    
 100.200  -11.5   -3.0    -74.6   43421.4  14.48  66.7  0.01     
 100.300  -10.2   -2.7    -66.1   44748.0  14.47  66.7  0.00     
 100.400  -9.1    -2.4    -58.7   45908.3  14.46  66.7  -0.00    
 100.500  -8.1    -2.1    -52.3   46914.3  14.48  66.7  -0.01    
 100.600  -7.2    -1.9    -46.3   47850.0  14.49  66.7  0.01     
 100.700  -6.2    -1.6    -40.4   48775.0  14.47  66.7  0.00     
 100.800  -5.5    -1.5    -35.8   49494.0  14.47  66.7  0.00     
