~Version Information
 VERS.                2.0:  CWLS LOG ASCII STANDARD -VERSION 2.0
 WRAP.                 NO:  ONE LINE PER DEPTH STEP
~WELL INFORMATION BLOCK
#MNEM.UNIT       DATA		            DESCRIPTION OF MNEMONIC
#---------    -------------            ------------------------
 STRT.FT  27.800                         :START DEPTH
 STOP.FT  314.400                        :STOP DEPTH
 STEP.FT  0.100                          :STEP    UP_HOLE  
 NULL.    -999.25                        :NULL VALUE
 COMP.    CARLETON                       :COMPANY
 WELL.    658966_AMBTROLL                                              :WELL
 FLD .    NORTHFIELD 71-B                :FIELD\LOCATION
 LOC .    31    112   19                 :LOCATION
 CNTY.    RICE                           :COUNTY
 STAT.    ACDBCD                         :STATE
 CTRY.    USA                            :COUNTRY
 SRVC.    TRUCK                          :SERVICE COMPANY
 DATE.    03/20/2001                     :LOG DATE
 API .                                       :API NUMBER
 LIC .                                   :LICENSE NUMBER
~Curve Information Block
#MNEM.UNIT      API CODE     Curve Description
#---------    -------------  ------------------------
 DEPT     .FT        00 001 00 00          :  1  DEPTH   
 FLOW_SL  .LIT/MIN   00 000 00 00          :  2  FLOW_SL             
 FLOW_SL  .GAL/MIN   00 000 00 00          :  3  FLOW_SL             
 FLOW_SL  .FT/MIN    00 000 00 00          :  4  FLOW_SL             
 FLOW_SL  .CPS       00 000 00 00          :  5  FLOW_SL             
 RES(FL)  .OHM-M     00 000 00 00          :  6  RES(FL)             
 TEMP     .DEG_F     00 660 00 00          :  7  TEMPERATURE         
 DEL_TEMP .DEG_F     00 000 00 00          :  8  SAMPLE DELTA TEMP   
~Parameter Information Block
#MNEM.UNIT   Information     Description
#---------- ---------------  ------------------------
 FILE.      PROCESSED          :File Type
 FIID.      9721SL             :File Type Identifier
 VERS.      1.0                :System Version
 SER .      1                  :System Serial Number
 TRUK.      .980362            :Truck Calibration Number
 TOOL.        1163             :Tool Serial Number
 TIME.      1529               :Time    HrHrMinMin
 LAT .                         :Latitude
 LON .                         :Longitude
 LMF .                         :Log Measured From
 DMF .                         :Driller Measured From
 PD  .      4101               :Permanent Data
 PDEV.FT                       :Elevation Permanent Data
 EKB .FT                       :Elevation Kelly Bushing
 ELEV.FT                       :Elevation DF
 EGL .FT    948                :Elevation Ground Level
 DRDP.FT    25                 :Driller's Depth
 CASD.FT    6                  :Casing Diameter
 CASB.FT                       :Casing Bottom
 CASX.                         :Casing Type
 CAST.IN    0                  :Casing Thickness
 TNOC.                         :Time Circulation Stopped
 LOGU.      C-2                :Logging Unit
 RECB.      TIPPING            :Recorded By
 OSR1.                         :Other Services
 OSR2.                         :Other Services
 OSR3.                         :Other Services
 BS  .IN           6           :Bit Size
 MST .F                        :Mean Surface Temperature
 TGRD.F     0                  :Temperature Gradiant
 MAGN.      0                  :Magnetic Declination
 MDEN.      2.71               :Density Matrix
 MATR.      Dolomite           :Neutron Matrix
 DTMT.      54                 :Delta T Matrix
 DTFL.                         :Delta T Fluid
 MUDS.      0                  :Mud Sample Source
 MRS .      0                  :Mud Resistivity
 MTP .      0                  :Mud Temperature
 MFRS.                         :Resistivity Mud Filtrate
 MFTP.                         :Temperature Mud Filtrate
 MCRS.      0                  :Resistivity Mud Cake
 MCTP.                         :Temperature Mud Cake
 FTYP.      0                  :Fluid Type
 FD  .LB/G                     :Mud Weight
 DFV .S                        :Fluid Viscosity
 FPH .                         :Fuild PH
 ELCO.      2500               :Electron Cutoff
 CASL.IN                       :Casing Logger
 LOTD.FT                       :Logger TD
 ARTM.                         :Arrival Time
 DPTM.                         :Departure Time
 RIGN.                         :Rig Number
~Other Information
#MNEM.UNIT  Information      Description
#---------- ---------------  ------------------------
# -------------------------- 
~A DEPTH  FLOW_SL FLOW_SL FLOW_SL FLOW_SL RES(FL) TEMP  DEL_TEMP 
# ...
 100.900  -5.2    -1.4    -33.8   49807.1  14.49  66.7  -0.00    
 101.000  -5.4    -1.4    -35.0   49625.0  14.47  66.7  0.00     
 101.100  -5.9    -1.6    -38.2   49116.7  14.48  66.7  -999.25  
 101.200  -6.6    -1.7    -42.8   48405.0  14.47  66.7  0.00     
 101.300  -7.5    -2.0    -48.8   47451.7  14.47  66.7  -0.00    
 101.400  -8.8    -2.3    -56.9   46188.6  14.49  66.7  0.00     
 101.500  -10.1   -2.7    -65.3   44873.3  14.47  66.7  -0.01    
 101.600  -11.1   -2.9    -72.0   43818.3  14.49  66.7  0.01     
 101.700  -11.9   -3.1    -76.8   43076.0  14.47  66.7  -0.01    
 101.800  -12.3   -3.3    -79.7   42616.7  14.47  66.7  0.01     
 101.900  -12.4   -3.3    -80.4   42508.3  14.46  66.7  -0.01    
 102.000  -12.1   -3.2    -78.7   42782.0  14.46  66.7  0.00     
 102.100  -11.6   -3.1    -75.2   43318.3  14.47  66.7  -0.00    
 102.200  -11.1   -2.9    -72.1   43806.0  14.47  66.7  0.00     
 102.300  -11.0   -2.9    -71.0   43988.3  14.48  66.7  -0.00    
 102.400  -11.3   -3.0    -73.1   43653.3  14.47  66.7  0.00     
 102.500  -12.0   -3.2    -77.9   42896.7  14.46  66.7  -0.01    
 102.600  -12.6   -3.3    -81.5   42343.3  14.48  66.7  0.01     
 102.700  -12.7   -3.4    -82.4   42196.7  14.47  66.7  -0.00    
 102.800  -12.8   -3.4    -82.8   42131.7  14.47  66.7  0.00     
 102.900  -12.9   -3.4    -83.6   42010.0  14.47  66.7  -0.01    
 103.000  -13.0   -3.4    -83.9   41958.3  14.48  66.7  0.00     
 103.100  -12.9   -3.4    -83.6   42004.0  14.49  66.7  0.00     
 103.200  -12.8   -3.4    -82.8   42130.0  14.48  66.7  -999.25  
 103.300  -12.4   -3.3    -80.3   42532.9  14.48  66.7  0.00     
 103.400  -11.9   -3.2    -77.2   43003.3  14.48  66.7  -0.01    
 103.500  -11.4   -3.0    -73.7   43565.7  14.49  66.7  0.00     
 103.600  -10.5   -2.8    -68.2   44414.3  14.48  66.7  0.00     
 103.700  -9.9    -2.6    -64.3   45036.7  14.49  66.7  -0.00    
 103.800  -9.5    -2.5    -61.4   45478.3  14.48  66.7  0.00     
 103.900  -8.9    -2.4    -57.9   46037.1  14.46  66.7  0.00     
 104.000  -8.4    -2.2    -54.5   46570.0  14.46  66.7  -0.00    
 104.100  -7.9    -2.1    -51.1   47090.0  14.47  66.7  -0.00    
 104.200  -7.0    -1.9    -45.5   47972.9  14.49  66.7  -999.25  
 104.300  -5.8    -1.5    -37.5   49225.0  14.49  66.7  -0.00    
 104.400  -4.5    -1.2    -29.2   50534.3  14.48  66.7  -0.00    
 104.500  -3.6    -1.0    -23.3   51445.7  14.48  66.7  0.01     
 104.600  -3.3    -0.9    -21.5   51726.0  14.47  66.7  -0.00    
 104.700  -3.4    -0.9    -21.8   51688.6  14.49  66.7  -0.00    
 104.800  -3.6    -0.9    -23.1   51481.4  14.47  66.7  0.01     
 104.900  -3.9    -1.0    -25.1   51172.9  14.48  66.7  0.00     
 105.000  -4.3    -1.1    -27.5   50785.7  14.46  66.7  -0.01    
 105.100  -4.6    -1.2    -29.9   50415.0  14.49  66.7  0.00     
 105.200  -4.9    -1.3    -31.7   50131.7  14.48  66.7  -0.00    
 105.300  -5.0    -1.3    -32.7   49981.4  14.49  66.7  0.00     
 105.400  -5.0    -1.3    -32.6   50000.0  14.47  66.7  0.00     
 105.500  -4.9    -1.3    -31.5   50164.3  14.48  66.7  0.00     
 105.600  -4.7    -1.2    -30.2   50370.0  14.47  66.7  0.00     
 105.700  -4.8    -1.3    -30.9   50267.1  14.48  66.7  -0.00    
 105.800  -5.3    -1.4    -34.0   49773.3  14.47  66.7  -0.00    
 105.900  -5.8    -1.5    -37.6   49218.0  14.48  66.7  0.00     
 106.000  -6.4    -1.7    -41.3   48626.7  14.47  66.7  -0.00    
 106.100  -6.9    -1.8    -45.0   48054.0  14.48  66.7  -0.00    
 106.200  -7.4    -2.0    -48.1   47568.3  14.49  66.7  0.01     
 106.300  -7.7    -2.0    -49.7   47320.0  14.47  66.7  0.00     
 106.400  -7.4    -1.9    -47.8   47616.7  14.47  66.7  0.01     
 106.500  -6.8    -1.8    -44.1   48201.7  14.46  66.7  -0.02    
 106.600  -6.2    -1.6    -40.4   48773.3  14.49  66.7  0.00     
 106.700  -5.8    -1.5    -37.3   49265.0  14.48  66.7  0.00     
 106.800  -5.5    -1.4    -35.4   49563.3  14.48  66.7  0.00     
 106.900  -5.4    -1.4    -35.0   49618.3  14.47  66.7  -0.00    
 107.000  -5.4    -1.4    -34.9   49628.0  14.48  66.7  0.01     
 107.100  -5.2    -1.4    -33.4   49868.6  14.46  66.7  -0.01    
 107.200  -4.6    -1.2    -29.9   50411.7  14.48  66.7  -0.00    
 107.300  -4.1    -1.1    -26.4   50970.0  14.48  66.7  -0.00    
 107.400  -3.7    -1.0    -24.0   51340.0  14.49  66.7  0.00     
 107.500  -3.4    -0.9    -22.3   51615.0  14.48  66.7  0.01     
 107.600  -3.4    -0.9    -21.8   51678.3  14.47  66.7  -0.01    
 107.700  -3.6    -0.9    -23.0   51496.7  14.48  66.7  0.01     
 107.800  -3.8    -1.0    -24.8   51223.3  14.47  66.7  0.00     
 107.900  -4.1    -1.1    -26.6   50937.1  14.47  66.7  -0.01    
 108.000  -4.3    -1.1    -27.7   50756.0  14.48  66.7  0.00     
 108.100  -4.3    -1.1    -28.0   50713.3  14.46  66.7  0.00     
 108.200  -4.2    -1.1    -27.2   50846.7  14.46  66.7  -0.01    
 108.300  -3.9    -1.0    -25.0   51191.7  14.48  66.7  0.01     
 108.400  -3.4    -0.9    -22.0   51650.0  14.46  66.7  -0.01    
 108.500  -3.0    -0.8    -19.4   52055.0  14.51  66.7  0.01     
 108.600  -2.7    -0.7    -17.7   52326.0  14.48  66.7  -0.00    
 108.700  -2.5    -0.7    -16.0   52588.6  14.47  66.7  -999.25  
 108.800  -2.2    -0.6    -14.4   52852.0  14.48  66.7  0.00     
 108.900  -2.0    -0.5    -12.9   53086.7  14.47  66.7  -0.00    
 109.000  -1.7    -0.4    -10.9   53393.3  14.47  66.7  0.00     
 109.100  -1.3    -0.3    -8.4    53788.3  14.48  66.7  -0.00    
 109.200  -0.9    -0.2    -5.5    54235.7  14.49  66.7  -0.00    
 109.300  -0.5    -0.1    -3.4    54573.3  14.50  66.7  0.00     
 109.400  -0.3    -0.1    -2.0    54785.7  14.48  66.7  0.00     
 109.500  -0.1    -0.0    -0.9    54953.3  14.49  66.7  -0.00    
 109.600   0.0     0.0     0.1    55120.0  14.47  66.7  0.00     
 109.700   0.2     0.0     1.1    55276.7  14.49  66.7  0.01     
 109.800   0.3     0.1     1.8    55387.1  14.48  66.7  -0.01    
 109.900   0.4     0.1     2.3    55465.7  14.48  66.7  -0.01    
 110.000   0.4     0.1     2.7    55527.1  14.49  66.7  0.00     
 110.100   0.5     0.1     3.0    55573.3  14.49  66.7  -0.00    
 110.200   0.5     0.1     3.1    55587.1  14.49  66.7  -0.00    
 110.300   0.5     0.1     3.1    55582.9  14.50  66.7  0.00     
 110.400   0.5     0.1     3.1    55587.1  14.48  66.7  0.00     
 110.500   0.5     0.1     3.3    55621.7  14.49  66.7  -0.00    
 110.600   0.6     0.2     3.7    55678.3  14.50  66.7  0.00     
 110.700   0.6     0.2     4.1    55736.7  14.49  66.7  -0.01    
 110.800   0.7     0.2     4.4    55793.3  14.49  66.7  0.01     
 110.900   0.7     0.2     4.6    55825.0  14.48  66.7  -0.00    
 111.000   0.7     0.2     4.8    55847.1  14.48  66.7  0.00     
 111.100   0.8     0.2     5.0    55877.1  14.49  66.7  -0.00    
 111.200   0.8     0.2     5.2    55916.7  14.48  66.7  0.00     
 111.300   0.8     0.2     5.4    55948.6  14.49  66.7  -0.00    
 111.400   0.9     0.2     5.6    55976.7  14.48  66.7  0.00     
 111.500   0.9     0.2     5.8    56004.3  14.48  66.7  -0.00    
 111.600   0.9     0.2     6.0    56041.4  14.49  66.7  0.00     
 111.700   1.0     0.3     6.4    56101.7  14.47  66.7  -0.01    
 111.800   1.0     0.3     6.8    56161.7  14.48  66.7  -0.00    
 111.900   1.1     0.3     7.2    56228.3  14.50  66.7  -999.25  
 112.000   1.2     0.3     7.6    56293.3  14.49  66.7  -0.00    
 112.100   1.3     0.3     8.2    56377.5  14.49  66.7  -0.00    
 112.200   1.4     0.4     8.8    56473.3  14.49  66.7  0.00     
 112.300   1.4     0.4     9.4    56570.0  14.49  66.7  -999.25  
 112.400   1.6     0.4    10.1    56687.1  14.50  66.7  0.00     
 112.500   1.7     0.4    11.0    56821.4  14.48  66.7  -0.00    
 112.600   1.8     0.5    11.9    56960.0  14.47  66.7  -0.00    
 112.700   2.0     0.5    12.9    57118.6  14.48  66.7  -0.00    
 112.800   2.2     0.6    14.1    57314.3  14.48  66.7  0.00     
 112.900   2.4     0.6    15.7    57553.3  14.48  66.7  -0.00    
 113.000   2.7     0.7    17.5    57838.3  14.50  66.7  0.01     
