~Version Information
 VERS.                2.0:  CWLS LOG ASCII STANDARD -VERSION 2.0
 WRAP.                 NO:  ONE LINE PER DEPTH STEP
~WELL INFORMATION BLOCK
#MNEM.UNIT       DATA		            DESCRIPTION OF MNEMONIC
#---------    -------------            ------------------------
 STRT.FT  39.400                         :START DEPTH
 STOP.FT  309.900                        :STOP DEPTH
 STEP.FT  0.100                          :STEP    UP_HOLE  
 NULL.    -999.25                        :NULL VALUE
 COMP.    CARLETON                       :COMPANY
 WELL.    658966_PUMPTROLL                                             :WELL
 FLD .    NORTHFIELD 71-B                :FIELD\LOCATION
 LOC .    31    112   19                 :LOCATION
 CNTY.    RICE                           :COUNTY
 STAT.    ACDBCD                         :STATE
 CTRY.    USA                            :COUNTRY
 SRVC.    TRUCK                          :SERVICE COMPANY
 DATE.    03/20/2001                     :LOG DATE
 API .                                       :API NUMBER
 LIC .                                   :LICENSE NUMBER
~Curve Information Block
#MNEM.UNIT      API CODE     Curve Description
#---------    -------------  ------------------------
 DEPT     .FT        00 001 00 00          :  1  DEPTH   
 FLOW_SL  .LIT/MIN   00 000 00 00          :  2  FLOW_SL             
 FLOW_SL  .GAL/MIN   00 000 00 00          :  3  FLOW_SL             
 FLOW_SL  .FT/MIN    00 000 00 00          :  4  FLOW_SL             
 FLOW_SL  .CPS       00 000 00 00          :  5  FLOW_SL             
 RES(FL)  .OHM-M     00 000 00 00          :  6  RES(FL)             
 TEMP     .DEG_F     00 660 00 00          :  7  TEMPERATURE         
 DEL_TEMP .DEG_F     00 000 00 00          :  8  SAMPLE DELTA TEMP   
~Parameter Information Block
#MNEM.UNIT   Information     Description
#---------- ---------------  ------------------------
 FILE.      PROCESSED          :File Type
 FIID.      9721SL             :File Type Identifier
 VERS.      1.0                :System Version
 SER .      1                  :System Serial Number
 TRUK.      .980362            :Truck Calibration Number
 TOOL.        1163             :Tool Serial Number
 TIME.      1855               :Time    HrHrMinMin
 LAT .                         :Latitude
 LON .                         :Longitude
 LMF .                         :Log Measured From
 DMF .                         :Driller Measured From
 PD  .      4101               :Permanent Data
 PDEV.FT                       :Elevation Permanent Data
 EKB .FT                       :Elevation Kelly Bushing
 ELEV.FT                       :Elevation DF
 EGL .FT    948                :Elevation Ground Level
 DRDP.FT    25                 :Driller's Depth
 CASD.FT    6                  :Casing Diameter
 CASB.FT                       :Casing Bottom
 CASX.                         :Casing Type
 CAST.IN    0                  :Casing Thickness
 TNOC.                         :Time Circulation Stopped
 LOGU.      C-2                :Logging Unit
 RECB.      TIPPING            :Recorded By
 OSR1.                         :Other Services
 OSR2.                         :Other Services
 OSR3.                         :Other Services
 BS  .IN           6           :Bit Size
 MST .F                        :Mean Surface Temperature
 TGRD.F     0                  :Temperature Gradiant
 MAGN.      0                  :Magnetic Declination
 MDEN.      2.71               :Density Matrix
 MATR.      Dolomite           :Neutron Matrix
 DTMT.      54                 :Delta T Matrix
 DTFL.                         :Delta T Fluid
 MUDS.      0                  :Mud Sample Source
 MRS .      0                  :Mud Resistivity
 MTP .      0                  :Mud Temperature
 MFRS.                         :Resistivity Mud Filtrate
 MFTP.                         :Temperature Mud Filtrate
 MCRS.      0                  :Resistivity Mud Cake
 MCTP.                         :Temperature Mud Cake
 FTYP.      0                  :Fluid Type
 FD  .LB/G                     :Mud Weight
 DFV .S                        :Fluid Viscosity
 FPH .                         :Fuild PH
 ELCO.      2500               :Electron Cutoff
 CASL.IN                       :Casing Logger
 LOTD.FT                       :Logger TD
 ARTM.                         :Arrival Time
 DPTM.                         :Departure Time
 RIGN.                         :Rig Number
~Other Information
#MNEM.UNIT  Information      Description
#---------- ---------------  ------------------------
# -------------------------- 
~A DEPTH  FLOW_SL FLOW_SL FLOW_SL FLOW_SL RES(FL) TEMP  DEL_TEMP 
  39.400  -999.25 -999.25 -999.25 -999.25 -999.25 -999.25 -999.25  
  39.500  -999.25 -999.25 -999.25 -999.25 -999.25 -999.25 -999.25  
  39.600  -999.25 -999.25 -999.25 -999.25 -999.25 -999.25 -999.25  
  39.700  -999.25 -999.25 -999.25 -999.25 -999.25 -999.25 -999.25  
  39.800  -999.25 -999.25 -999.25 -999.25 -999.25 -999.25 -999.25  
  39.900  -999.25 -999.25 -999.25 -999.25 -999.25 -999.25 -999.25  
  40.000  -999.25 -999.25 -999.25 -999.25 -999.25 -999.25 -999.25  
  40.100  -999.25 -999.25 -999.25 -999.25 -999.25 -999.25 -999.25  
  40.200  -999.25 -999.25 -999.25 -999.25 -999.25 -999.25 -999.25  
  40.300  -999.25 -999.25 -999.25 -999.25 -999.25 -999.25 -999.25  
  40.400  -999.25 -999.25 -999.25 -999.25 -999.25 -999.25 -999.25  
  40.500  -999.25 -999.25 -999.25 -999.25 -999.25 -999.25 -999.25  
  40.600  -999.25 -999.25 -999.25 -999.25 -999.25 -999.25 -999.25  
  40.700  -999.25 -999.25 -999.25 -999.25 -999.25 -999.25 -999.25  
  40.800  -999.25 -999.25 -999.25 -999.25 -999.25 -999.25 -999.25  
  40.900  -999.25 -999.25 -999.25 -999.25 -999.25 -999.25 -999.25  
  41.000  -999.25 -999.25 -999.25 -999.25 -999.25 -999.25 -999.25  
  41.100  -999.25 -999.25 -999.25 -999.25 -999.25 -999.25 -999.25  
  41.200  -999.25 -999.25 -999.25 -999.25 -999.25 -999.25 -999.25  
  41.300  -999.25 -999.25 -999.25 -999.25 -999.25 -999.25 -999.25  
  41.400  -999.25 -999.25 -999.25 -999.25 -999.25 -999.25 -999.25  
  41.500  -999.25 -999.25 -999.25 -999.25 -999.25 -999.25 -999.25  
  41.600  -999.25 -999.25 -999.25 -999.25 -999.25 -999.25 -999.25  
  41.700  -999.25 -999.25 -999.25 -999.25 -999.25 -999.25 -999.25  
  41.800  -999.25 -999.25 -999.25 -999.25 -999.25 -999.25 -999.25  
  41.900  -999.25 -999.25 -999.25 -999.25 -999.25 -999.25 -999.25  
  42.000  -999.25 -999.25 -999.25 -999.25 -999.25 -999.25 -999.25  
  42.100  -999.25 -999.25 -999.25 -999.25 -999.25 -999.25 -999.25  
  42.200  -999.25 -999.25 -999.25 -999.25 -999.25 -999.25 -999.25  
  42.300  -999.25 -999.25 -999.25 -999.25 -999.25 -999.25 -999.25  
  42.400  -999.25 -999.25 -999.25 -999.25 -999.25 -999.25 -999.25  
  42.500  -999.25 -999.25 -999.25 -999.25 -999.25 -999.25 -999.25  
  42.600  -999.25 -999.25 -999.25 -999.25 -999.25 -999.25 -999.25  
  42.700  -999.25 -999.25 -999.25 -999.25 -999.25 -999.25 -999.25  
  42.800  -999.25 -999.25 -999.25 -999.25 -999.25 -999.25 -999.25  
  42.900  -999.25 -999.25 -999.25 -999.25 -999.25 -999.25 -999.25  
  43.000  -999.25 -999.25 -999.25 -999.25 -999.25 -999.25 -999.25  
  43.100  -999.25 -999.25 -999.25 -999.25  14.54  -999.25 -999.25  
  43.200  -999.25 -999.25 -999.25 -999.25  14.54  -999.25 -999.25  
  43.300  -999.25 -999.25 -999.25 -999.25  14.54  66.7  -999.25  
  43.400  -999.25 -999.25 -999.25 -999.25  14.54  66.7  -999.25  
  43.500  -999.25 -999.25 -999.25 -999.25  14.54  66.7  -999.25  
  43.600  -11.4   -3.0    -74.0   43518.3  14.53  66.7  0.00     
  43.700  -11.5   -3.0    -74.7   43395.0  14.55  66.7  0.00     
  43.800  -11.4   -3.0    -73.8   43538.6  14.55  66.7  0.00     
  43.900  -11.2   -3.0    -72.3   43777.1  14.54  66.7  -0.00    
  44.000  -11.0   -2.9    -71.4   43925.0  14.54  66.7  -0.00    
  44.100  -10.8   -2.9    -70.2   44101.7  14.53  66.7  0.00     
  44.200  -10.5   -2.8    -68.1   44436.7  14.54  66.7  -0.01    
  44.300  -10.3   -2.7    -66.5   44683.3  14.53  66.7  0.00     
  44.400  -10.3   -2.7    -66.5   44678.6  14.54  66.7  -0.00    
  44.500  -11.0   -2.9    -71.1   43968.6  14.54  66.7  0.00     
  44.600  -12.1   -3.2    -78.6   42791.7  14.54  66.7  0.00     
  44.700  -13.3   -3.5    -86.1   41623.8  14.55  66.7  -0.00    
  44.800  -14.0   -3.7    -90.8   40876.7  14.54  66.7  0.00     
  44.900  -14.3   -3.8    -92.5   40613.3  14.54  66.7  -0.00    
  45.000  -14.4   -3.8    -93.3   40494.3  14.54  66.7  0.00     
  45.100  -14.8   -3.9    -95.6   40125.0  14.54  66.7  -0.00    
  45.200  -15.1   -4.0    -97.5   39835.0  14.55  66.7  0.00     
  45.300  -15.1   -4.0    -97.6   39815.0  14.55  66.7  -0.00    
  45.400  -15.0   -4.0    -96.9   39933.3  14.54  66.7  0.00     
  45.500  -15.1   -4.0    -97.5   39838.3  14.55  66.7  -0.00    
  45.600  -15.7   -4.1    -101.6  39181.7  14.54  66.7  0.00     
  45.700  -16.2   -4.3    -104.9  38676.7  14.54  66.7  -0.00    
  45.800  -16.3   -4.3    -105.2  38621.7  14.54  66.7  -999.25  
  45.900  -16.1   -4.2    -104.1  38801.7  14.55  66.7  -0.00    
  46.000  -16.0   -4.2    -103.5  38895.0  14.55  66.7  0.00     
  46.100  -16.2   -4.3    -105.1  38648.3  14.55  66.7  -0.00    
  46.200  -16.4   -4.3    -106.1  38483.3  14.54  66.7  0.00     
  46.300  -15.9   -4.2    -103.1  38958.3  14.54  66.7  -0.00    
  46.400  -15.4   -4.1    -99.8   39470.0  14.54  66.7  -0.00    
  46.500  -15.2   -4.0    -98.1   39735.7  14.54  66.7  0.01     
  46.600  -15.2   -4.0    -98.2   39721.7  14.54  66.7  -0.00    
  46.700  -15.1   -4.0    -97.8   39790.0  14.54  66.7  0.00     
  46.800  -14.4   -3.8    -93.4   40475.0  14.55  66.7  0.00     
  46.900  -13.0   -3.4    -84.3   41902.9  14.55  66.7  -0.01    
  47.000  -11.9   -3.1    -77.1   43025.0  14.55  66.7  -0.00    
  47.100  -11.7   -3.1    -75.7   43247.1  14.55  66.7  0.00     
  47.200  -11.9   -3.1    -77.1   43027.1  14.55  66.7  -0.00    
  47.300  -12.1   -3.2    -78.5   42806.7  14.54  66.7  0.00     
  47.400  -12.3   -3.3    -79.9   42582.9  14.54  66.7  -0.00    
  47.500  -12.9   -3.4    -83.4   42035.0  14.54  66.7  -0.00    
  47.600  -13.8   -3.6    -89.3   41123.3  14.53  66.7  0.00     
  47.700  -14.9   -3.9    -96.3   40021.4  14.54  66.7  0.00     
  47.800  -15.5   -4.1    -100.7  39337.1  14.54  66.7  0.00     
  47.900  -15.4   -4.1    -99.7   39493.3  14.54  66.7  -999.25  
  48.000  -14.7   -3.9    -95.1   40201.7  14.54  66.7  0.00     
  48.100  -14.2   -3.7    -91.7   40737.1  14.55  66.7  -0.00    
  48.200  -14.4   -3.8    -93.0   40542.0  14.54  66.7  -0.00    
  48.300  -14.6   -3.9    -94.5   40308.3  14.54  66.7  0.00     
  48.400  -14.5   -3.8    -93.6   40445.0  14.54  66.7  -0.00    
  48.500  -13.9   -3.7    -90.2   40967.1  14.54  66.7  0.00     
  48.600  -13.2   -3.5    -85.3   41742.9  14.54  66.7  0.00     
  48.700  -12.2   -3.2    -78.9   42748.3  14.54  66.7  -0.01    
  48.800  -11.0   -2.9    -71.4   43923.3  14.54  66.7  0.00     
  48.900  -9.8    -2.6    -63.3   45191.3  14.55  66.7  -0.00    
  49.000  -9.1    -2.4    -58.8   45896.7  14.53  66.7  -0.00    
  49.100  -9.0    -2.4    -58.3   45973.3  14.55  66.7  0.00     
  49.200  -9.1    -2.4    -58.8   45886.0  14.55  66.7  -0.00    
  49.300  -9.1    -2.4    -58.6   45921.7  14.54  66.7  0.00     
  49.400  -8.8    -2.3    -57.1   46151.4  14.54  66.7  -0.00    
  49.500  -8.6    -2.3    -56.0   46331.4  14.54  66.7  0.00     
  49.600  -8.7    -2.3    -56.2   46295.0  14.55  66.7  0.00     
  49.700  -8.8    -2.3    -57.1   46152.9  14.54  66.7  -0.00    
  49.800  -9.0    -2.4    -58.1   46001.4  14.54  66.7  -0.00    
  49.900  -9.2    -2.4    -59.7   45750.0  14.54  66.7  0.00     
  50.000  -9.7    -2.6    -62.9   45257.1  14.54  66.7  -0.00    
  50.100  -10.4   -2.7    -67.1   44588.3  14.54  66.7  0.00     
  50.200  -11.1   -2.9    -72.0   43821.4  14.54  66.7  -0.00    
  50.300  -11.9   -3.1    -77.0   43048.0  14.54  66.7  0.00     
  50.400  -12.5   -3.3    -81.0   42411.4  14.54  66.7  0.00     
  50.500  -12.9   -3.4    -83.4   42041.7  14.54  66.7  -0.00    
  50.600  -13.0   -3.4    -84.2   41912.9  14.53  66.7  0.00     
  50.700  -13.0   -3.4    -84.2   41906.7  14.55  66.7  -0.00    
  50.800  -13.1   -3.5    -85.1   41775.0  14.54  66.7  0.00     
  50.900  -13.4   -3.5    -86.6   41542.9  14.54  66.7  -0.00    
  51.000  -13.8   -3.6    -89.1   41146.7  14.53  66.7  0.00     
  51.100  -14.3   -3.8    -92.7   40586.7  14.54  66.7  -0.00    
  51.200  -15.0   -4.0    -97.1   39898.6  14.54  66.7  -0.00    
  51.300  -15.3   -4.0    -99.2   39558.3  14.53  66.7  0.00     
  51.400  -15.3   -4.1    -99.3   39551.7  14.54  66.7  0.00     
