~Version Information
 VERS.                2.0:  CWLS LOG ASCII STANDARD -VERSION 2.0
 WRAP.                 NO:  ONE LINE PER DEPTH STEP
~WELL INFORMATION BLOCK
#MNEM.UNIT       DATA		            DESCRIPTION OF MNEMONIC
#---------    -------------            ------------------------
 STRT.FT  39.400                         :START DEPTH
 STOP.FT  309.900                        :STOP DEPTH
 STEP.FT  0.100                          :STEP    UP_HOLE  
 NULL.    -999.25                        :NULL VALUE
 COMP.    CARLETON                       :COMPANY
 WELL.    658966_PUMPTROLL                                             :WELL
 FLD .    NORTHFIELD 71-B                :FIELD\LOCATION
 LOC .    31    112   19                 :LOCATION
 CNTY.    RICE                           :COUNTY
 STAT.    ACDBCD                         :STATE
 CTRY.    USA                            :COUNTRY
 SRVC.    TRUCK                          :SERVICE COMPANY
 DATE.    03/20/2001                     :LOG DATE
 API .                                       :API NUMBER
 LIC .                                   :LICENSE NUMBER
~Curve Information Block
#MNEM.UNIT      API CODE     Curve Description
#---------    -------------  ------------------------
 DEPT     .FT        00 001 00 00          :  1  DEPTH   
 FLOW_SL  .LIT/MIN   00 000 00 00          :  2  FLOW_SL             
 FLOW_SL  .GAL/MIN   00 000 00 00          :  3  FLOW_SL             
 FLOW_SL  .FT/MIN    00 000 00 00          :  4  FLOW_SL             
 FLOW_SL  .CPS       00 000 00 00          :  5  FLOW_SL             
 RES(FL)  .OHM-M     00 000 00 00          :  6  RES(FL)             
 TEMP     .DEG_F     00 660 00 00          :  7  TEMPERATURE         
 DEL_TEMP .DEG_F     00 000 00 00          :  8  SAMPLE DELTA TEMP   
~Parameter Information Block
#MNEM.UNIT   Information     Description
#---------- ---------------  ------------------------
 FILE.      PROCESSED          :File Type
 FIID.      9721SL             :File Type Identifier
 VERS.      1.0                :System Version
 SER .      1                  :System Serial Number
 TRUK.      .980362            :Truck Calibration Number
 TOOL.        1163             :Tool Serial Number
 TIME.      1855               :Time    HrHrMinMin
 LAT .                         :Latitude
 LON .                         :Longitude
 LMF .                         :Log Measured From
 DMF .                         :Driller Measured From
 PD  .      4101               :Permanent Data
 PDEV.FT                       :Elevation Permanent Data
 EKB .FT                       :Elevation Kelly Bushing
 ELEV.FT                       :Elevation DF
 EGL .FT    948                :Elevation Ground Level
 DRDP.FT    25                 :Driller's Depth
 CASD.FT    6                  :Casing Diameter
 CASB.FT                       :Casing Bottom
 CASX.                         :Casing Type
 CAST.IN    0                  :Casing Thickness
 TNOC.                         :Time Circulation Stopped
 LOGU.      C-2                :Logging Unit
 RECB.      TIPPING            :Recorded By
 OSR1.                         :Other Services
 OSR2.                         :Other Services
 OSR3.                         :Other Services
 BS  .IN           6           :Bit Size
 MST .F                        :Mean Surface Temperature
 TGRD.F     0                  :Temperature Gradiant
 MAGN.      0                  :Magnetic Declination
 MDEN.      2.71               :Density Matrix
 MATR.      Dolomite           :Neutron Matrix
 DTMT.      54                 :Delta T Matrix
 DTFL.                         :Delta T Fluid
 MUDS.      0                  :Mud Sample Source
 MRS .      0                  :Mud Resistivity
 MTP .      0                  :Mud Temperature
 MFRS.                         :Resistivity Mud Filtrate
 MFTP.                         :Temperature Mud Filtrate
 MCRS.      0                  :Resistivity Mud Cake
 MCTP.                         :Temperature Mud Cake
 FTYP.      0                  :Fluid Type
 FD  .LB/G                     :Mud Weight
 DFV .S                        :Fluid Viscosity
 FPH .                         :Fuild PH
 ELCO.      2500               :Electron Cutoff
 CASL.IN                       :Casing Logger
 LOTD.FT                       :Logger TD
 ARTM.                         :Arrival Time
 DPTM.                         :Departure Time
 RIGN.                         :Rig Number
~Other Information
#MNEM.UNIT  Information      Description
#---------- ---------------  ------------------------
# -------------------------- 
~A DEPTH  FLOW_SL FLOW_SL FLOW_SL FLOW_SL RES(FL) TEMP  DEL_TEMP 
# ...
 295.500   8.4     2.2    54.2    63591.4  14.52  66.7  0.00     
 295.600   8.8     2.3    57.1    64042.9  14.52  66.7  -0.00    
 295.700   9.0     2.4    58.1    64195.7  14.53  66.7  -0.00    
 295.800   8.6     2.3    55.7    63820.0  14.52  66.7  0.00     
 295.900   7.5     2.0    48.7    62726.7  14.52  66.7  -0.03    
 296.000   6.4     1.7    41.5    61600.0  14.52  66.7  0.03     
 296.100   5.6     1.5    36.6    60826.3  14.52  66.7  -0.02    
 296.200   5.1     1.3    32.7    60221.4  14.52  66.7  0.01     
 296.300   4.7     1.3    30.7    59913.3  14.50  66.7  0.01     
 296.400   4.5     1.2    29.3    59685.0  14.52  66.7  0.00     
 296.500   4.3     1.1    27.8    59458.6  14.51  66.7  0.00     
 296.600   4.1     1.1    26.3    59211.7  14.51  66.7  -0.00    
 296.700   3.7     1.0    24.3    58901.4  14.51  66.7  -0.00    
 296.800   3.5     0.9    22.3    58598.3  14.52  66.7  0.00     
 296.900   3.2     0.8    20.5    58302.5  14.53  66.7  -0.03    
 297.000   2.9     0.8    18.7    58030.0  14.53  66.7  0.02     
 297.100   2.7     0.7    17.3    57805.0  14.54  66.7  0.01     
 297.200   2.4     0.6    15.7    57565.0  14.52  66.7  -0.01    
 297.300   2.2     0.6    14.1    57303.3  14.52  66.7  -0.03    
 297.400   1.8     0.5    11.9    56958.6  14.53  66.7  0.04     
 297.500   1.4     0.4     9.1    56530.0  14.53  66.7  -0.00    
 297.600   1.0     0.3     6.4    56096.3  14.52  66.7  0.00     
 297.700   0.6     0.2     3.9    55708.3  14.52  66.7  0.00     
 297.800   0.2     0.1     1.3    55297.1  14.52  66.7  -0.00    
 297.900  -0.2    -0.1    -1.3    54902.5  14.52  66.7  -0.00    
 298.000  -0.4    -0.1    -2.4    54720.0  14.52  66.7  0.00     
 298.100  -0.5    -0.1    -3.3    54581.4  14.53  66.7  -0.00    
 298.200  -0.7    -0.2    -4.4    54411.7  14.53  66.7  -999.25  
 298.300  -0.9    -0.2    -5.6    54223.3  14.53  66.7  -0.00    
 298.400  -1.0    -0.3    -6.7    54045.7  14.53  66.7  0.00     
 298.500  -1.2    -0.3    -7.9    53866.7  14.53  66.7  0.00     
 298.600  -1.4    -0.4    -9.1    53678.6  14.53  66.7  0.00     
 298.700  -1.6    -0.4    -10.3   53480.0  14.53  66.7  -0.00    
 298.800  -1.8    -0.5    -11.4   53315.0  14.52  66.7  0.00     
 298.900  -1.9    -0.5    -12.4   53154.3  14.53  66.7  -0.00    
 299.000  -2.1    -0.6    -13.6   52965.0  14.52  66.7  0.00     
 299.100  -2.3    -0.6    -14.7   52795.0  14.52  66.7  0.00     
 299.200  -2.5    -0.6    -15.9   52610.0  14.53  66.7  -0.03    
 299.300  -2.6    -0.7    -16.9   52460.0  14.52  66.7  0.03     
 299.400  -2.7    -0.7    -17.6   52345.7  14.52  66.7  -0.03    
 299.500  -2.8    -0.7    -18.3   52235.0  14.54  66.7  0.03     
 299.600  -2.9    -0.8    -18.8   52160.0  14.51  66.7  -0.02    
 299.700  -3.0    -0.8    -19.2   52087.5  14.52  66.7  0.02     
 299.800  -3.0    -0.8    -19.7   52010.0  14.53  66.7  -0.06    
 299.900  -3.2    -0.8    -20.4   51905.7  14.52  66.8  0.06     
 300.000  -3.3    -0.9    -21.4   51751.7  14.52  66.7  -0.00    
 300.100  -3.5    -0.9    -22.6   51567.1  14.52  66.7  -999.25  
 300.200  -3.7    -1.0    -23.9   51365.0  14.53  66.7  0.00     
 300.300  -3.9    -1.0    -25.2   51150.0  14.51  66.7  0.00     
 300.400  -4.1    -1.1    -26.8   50902.9  14.52  66.7  0.00     
 300.500  -4.4    -1.2    -28.6   50628.6  14.52  66.7  -0.00    
 300.600  -4.7    -1.2    -30.5   50321.7  14.52  66.7  -0.00    
 300.700  -5.1    -1.3    -32.8   49963.8  14.51  66.7  0.00     
 300.800  -5.4    -1.4    -34.7   49660.0  14.51  66.7  -0.00    
 300.900  -5.6    -1.5    -36.3   49408.6  14.51  66.7  0.00     
 301.000  -5.9    -1.6    -38.1   49131.4  14.51  66.7  0.00     
 301.100  -6.2    -1.6    -39.9   48856.0  14.50  66.7  -0.00    
 301.200  -6.4    -1.7    -41.3   48628.3  14.52  66.7  -0.01    
 301.300  -6.6    -1.7    -42.4   48456.7  14.51  66.7  0.01     
 301.400  -6.6    -1.8    -43.0   48365.7  14.52  66.7  -0.00    
 301.500  -6.6    -1.7    -42.6   48430.0  14.51  66.7  -0.00    
 301.600  -6.4    -1.7    -41.6   48588.3  14.51  66.7  -0.00    
 301.700  -6.4    -1.7    -41.2   48655.0  14.51  66.7  0.00     
 301.800  -6.4    -1.7    -41.3   48625.0  14.51  66.7  0.00     
 301.900  -6.4    -1.7    -41.6   48578.3  14.51  66.7  -0.01    
 302.000  -6.5    -1.7    -42.3   48480.0  14.50  66.7  -0.01    
 302.100  -6.9    -1.8    -44.4   48150.0  14.52  66.7  0.01     
 302.200  -7.2    -1.9    -46.8   47763.3  14.51  66.7  0.00     
 302.300  -7.8    -2.0    -50.2   47236.7  14.51  66.7  -0.00    
 302.400  -8.5    -2.2    -55.0   46490.0  14.51  66.7  0.00     
 302.500  -9.5    -2.5    -61.3   45496.3  14.51  66.7  -0.00    
 302.600  -10.5   -2.8    -67.8   44487.1  14.51  66.7  0.00     
 302.700  -11.0   -2.9    -71.3   43928.6  14.51  66.7  -0.02    
 302.800  -11.4   -3.0    -74.1   43502.9  14.52  66.7  -0.00    
 302.900  -11.4   -3.0    -73.6   43572.9  14.51  66.7  -999.25  
 303.000  -11.0   -2.9    -71.3   43931.4  14.51  66.7  0.01     
 303.100  -10.9   -2.9    -70.4   44078.3  14.50  66.7  0.02     
 303.200  -10.7   -2.8    -69.0   44290.0  14.49  66.7  -0.01    
 303.300  -10.4   -2.7    -67.2   44573.8  14.50  66.7  0.00     
 303.400  -10.0   -2.7    -65.0   44918.3  14.50  66.7  -0.01    
 303.500  -9.2    -2.4    -59.7   45756.7  14.50  66.7  0.00     
 303.600  -7.9    -2.1    -51.0   47105.7  14.51  66.7  0.00     
 303.700  -7.0    -1.9    -45.4   47985.0  14.52  66.7  0.00     
 303.800  -7.3    -1.9    -47.0   47747.1  14.50  66.7  0.00     
 303.900  -7.9    -2.1    -50.9   47136.7  14.50  66.7  -0.03    
 304.000  -8.5    -2.2    -54.8   46515.0  14.49  66.7  0.03     
 304.100  -9.0    -2.4    -58.0   46011.7  14.50  66.7  0.00     
 304.200  -9.3    -2.4    -60.0   45710.0  14.49  66.7  -999.25  
 304.300  -9.4    -2.5    -60.9   45560.0  14.49  66.7  -0.00    
 304.400  -9.6    -2.5    -61.9   45410.0  14.49  66.7  -0.00    
 304.500  -9.8    -2.6    -63.5   45158.0  14.50  66.7  -0.00    
 304.600  -10.1   -2.7    -65.4   44858.6  14.50  66.7  0.00     
 304.700  -10.3   -2.7    -66.6   44676.7  14.50  66.7  0.00     
 304.800  -10.2   -2.7    -66.0   44764.4  14.49  66.7  -0.00    
 304.900  -9.3    -2.5    -60.3   45660.0  14.50  66.7  -0.00    
 305.000  -8.6    -2.3    -55.4   46418.3  14.50  66.7  0.00     
 305.100  -8.1    -2.1    -52.6   46862.0  14.51  66.7  0.00     
 305.200  -8.1    -2.1    -52.6   46862.9  14.50  66.7  -0.03    
 305.300  -8.5    -2.2    -55.1   46476.7  14.51  66.7  0.03     
 305.400  -8.8    -2.3    -57.2   46147.1  14.51  66.7  -999.25  
 305.500  -8.8    -2.3    -56.8   46200.0  14.52  66.7  -0.00    
 305.600  -8.2    -2.2    -53.0   46794.3  14.51  66.7  0.00     
 305.700  -7.4    -2.0    -47.9   47603.3  14.51  66.7  -0.01    
 305.800  -6.8    -1.8    -44.0   48207.1  14.50  66.7  0.00     
 305.900  -6.9    -1.8    -45.0   48054.3  14.50  66.7  0.00     
 306.000  -7.4    -2.0    -48.2   47547.1  14.50  66.7  -0.00    
 306.100  -8.0    -2.1    -51.6   47018.3  14.50  66.7  0.00     
 306.200  -8.4    -2.2    -54.4   46584.3  14.49  66.7  0.00     
 306.300  -8.7    -2.3    -56.5   46251.4  14.49  66.7  0.00     
 306.400  -8.9    -2.4    -57.8   46053.3  14.49  66.7  -999.25  
 306.500  -9.0    -2.4    -58.1   46008.3  14.49  66.7  0.00     
 306.600  -8.8    -2.3    -57.1   46156.7  14.49  66.7  0.00     
 306.700  -8.5    -2.2    -55.1   46468.6  14.48  66.7  -0.03    
 306.800  -8.2    -2.2    -53.2   46768.6  14.49  66.7  0.01     
 306.900  -8.0    -2.1    -51.9   46970.0  14.49  66.7  0.02     
 307.000  -7.8    -2.1    -50.7   47165.0  14.47  66.7  -0.00    
 307.100  -7.6    -2.0    -49.3   47372.0  14.48  66.7  0.00     
 307.200  -7.4    -2.0    -47.9   47601.7  14.47  66.7  -0.00    
 307.300  -7.1    -1.9    -45.8   47933.3  14.47  66.7  0.00     
 307.400  -6.7    -1.8    -43.4   48305.0  14.48  66.7  0.00     
 307.500  -6.4    -1.7    -41.2   48653.3  14.46  66.7  -0.01    
 307.600  -6.1    -1.6    -39.6   48900.0  14.47  66.7  -0.00    
