~Version Information
 VERS.                2.0:  CWLS LOG ASCII STANDARD -VERSION 2.0
 WRAP.                 NO:  ONE LINE PER DEPTH STEP
~WELL INFORMATION BLOCK
#MNEM.UNIT       DATA		            DESCRIPTION OF MNEMONIC
#---------    -------------            ------------------------
 STRT.FT  27.800                         :START DEPTH
 STOP.FT  314.400                        :STOP DEPTH
 STEP.FT  0.100                          :STEP    UP_HOLE  
 NULL.    -999.25                        :NULL VALUE
 COMP.    CARLETON                       :COMPANY
 WELL.    658966_AMBTROLL                                              :WELL
 FLD .    NORTHFIELD 71-B                :FIELD\LOCATION
 LOC .    31    112   19                 :LOCATION
 CNTY.    RICE                           :COUNTY
 STAT.    ACDBCD                         :STATE
 CTRY.    USA                            :COUNTRY
 SRVC.    TRUCK                          :SERVICE COMPANY
 DATE.    03/20/2001                     :LOG DATE
 API .                                       :API NUMBER
 LIC .                                   :LICENSE NUMBER
~Curve Information Block
#MNEM.UNIT      API CODE     Curve Description
#---------    -------------  ------------------------
 DEPT     .FT        00 001 00 00          :  1  DEPTH   
 FLOW_SL  .LIT/MIN   00 000 00 00          :  2  FLOW_SL             
 FLOW_SL  .GAL/MIN   00 000 00 00          :  3  FLOW_SL             
 FLOW_SL  .FT/MIN    00 000 00 00          :  4  FLOW_SL             
 FLOW_SL  .CPS       00 000 00 00          :  5  FLOW_SL             
 RES(FL)  .OHM-M     00 000 00 00          :  6  RES(FL)             
 TEMP     .DEG_F     00 660 00 00          :  7  TEMPERATURE         
 DEL_TEMP .DEG_F     00 000 00 00          :  8  SAMPLE DELTA TEMP   
~Parameter Information Block
#MNEM.UNIT   Information     Description
#---------- ---------------  ------------------------
 FILE.      PROCESSED          :File Type
 FIID.      9721SL             :File Type Identifier
 VERS.      1.0                :System Version
 SER .      1                  :System Serial Number
 TRUK.      .980362            :Truck Calibration Number
 TOOL.        1163             :Tool Serial Number
 TIME.      1529               :Time    HrHrMinMin
 LAT .                         :Latitude
 LON .                         :Longitude
 LMF .                         :Log Measured From
 DMF .                         :Driller Measured From
 PD  .      4101               :Permanent Data
 PDEV.FT                       :Elevation Permanent Data
 EKB .FT                       :Elevation Kelly Bushing
 ELEV.FT                       :Elevation DF
 EGL .FT    948                :Elevation Ground Level
 DRDP.FT    25                 :Driller's Depth
 CASD.FT    6                  :Casing Diameter
 CASB.FT                       :Casing Bottom
 CASX.                         :Casing Type
 CAST.IN    0                  :Casing Thickness
 TNOC.                         :Time Circulation Stopped
 LOGU.      C-2                :Logging Unit
 RECB.      TIPPING            :Recorded By
 OSR1.                         :Other Services
 OSR2.                         :Other Services
 OSR3.                         :Other Services
 BS  .IN           6           :Bit Size
 MST .F                        :Mean Surface Temperature
 TGRD.F     0                  :Temperature Gradiant
 MAGN.      0                  :Magnetic Declination
 MDEN.      2.71               :Density Matrix
 MATR.      Dolomite           :Neutron Matrix
 DTMT.      54                 :Delta T Matrix
 DTFL.                         :Delta T Fluid
 MUDS.      0                  :Mud Sample Source
 MRS .      0                  :Mud Resistivity
 MTP .      0                  :Mud Temperature
 MFRS.                         :Resistivity Mud Filtrate
 MFTP.                         :Temperature Mud Filtrate
 MCRS.      0                  :Resistivity Mud Cake
 MCTP.                         :Temperature Mud Cake
 FTYP.      0                  :Fluid Type
 FD  .LB/G                     :Mud Weight
 DFV .S                        :Fluid Viscosity
 FPH .                         :Fuild PH
 ELCO.      2500               :Electron Cutoff
 CASL.IN                       :Casing Logger
 LOTD.FT                       :Logger TD
 ARTM.                         :Arrival Time
 DPTM.                         :Departure Time
 RIGN.                         :Rig Number
~Other Information
#MNEM.UNIT  Information      Description
#---------- ---------------  ------------------------
# -------------------------- 
~A DEPTH  FLOW_SL FLOW_SL FLOW_SL FLOW_SL RES(FL) TEMP  DEL_TEMP 
# ...
  52.100  -13.3   -3.5    -86.4   41576.7  14.51  66.7  0.00     
  52.200  -14.3   -3.8    -92.4   40625.7  14.51  66.7  0.00     
  52.300  -15.3   -4.0    -99.1   39576.7  14.51  66.7  -0.00    
  52.400  -16.3   -4.3    -105.4  38595.7  14.50  66.7  0.01     
  52.500  -16.8   -4.4    -109.0  38036.0  14.49  66.7  -0.00    
  52.600  -17.0   -4.5    -110.1  37858.3  14.49  66.7  0.00     
  52.700  -17.0   -4.5    -110.1  37856.7  14.51  66.7  0.00     
  52.800  -16.9   -4.5    -109.4  37970.0  14.51  66.7  -0.00    
  52.900  -17.0   -4.5    -110.3  37831.7  14.49  66.7  -0.00    
  53.000  -17.6   -4.6    -113.8  37277.1  14.50  66.7  -999.25  
  53.100  -18.4   -4.9    -119.3  36422.9  14.50  66.7  -0.00    
  53.200  -19.3   -5.1    -125.1  35508.3  14.52  66.7  0.00     
  53.300  -19.9   -5.3    -128.8  34937.1  14.50  66.7  0.00     
  53.400  -20.1   -5.3    -129.8  34768.6  14.49  66.7  -0.00    
  53.500  -20.0   -5.3    -129.6  34810.0  14.51  66.7  -0.00    
  53.600  -20.0   -5.3    -129.6  34805.0  14.50  66.7  0.00     
  53.700  -20.0   -5.3    -129.7  34796.0  14.50  66.7  -0.00    
  53.800  -20.4   -5.4    -132.2  34402.9  14.50  66.7  -0.00    
  53.900  -21.0   -5.6    -136.2  33770.0  14.51  66.7  0.00     
  54.000  -21.0   -5.6    -136.2  33771.7  14.51  66.7  0.00     
  54.100  -20.5   -5.4    -132.7  34318.6  14.50  66.7  0.00     
  54.200  -19.7   -5.2    -127.4  35153.3  14.51  66.7  0.00     
  54.300  -18.7   -4.9    -120.9  36168.6  14.50  66.7  -0.00    
  54.400  -18.0   -4.8    -116.5  36851.7  14.49  66.7  0.00     
  54.500  -17.5   -4.6    -113.1  37385.7  14.50  66.7  -0.00    
  54.600  -16.3   -4.3    -105.8  38530.0  14.50  66.7  0.00     
  54.700  -14.9   -3.9    -96.3   40018.3  14.48  66.7  -0.00    
  54.800  -13.3   -3.5    -86.0   41637.1  14.49  66.7  0.00     
  54.900  -12.5   -3.3    -81.0   42412.0  14.48  66.7  -0.00    
  55.000  -12.5   -3.3    -81.1   42397.1  14.50  66.7  -0.00    
  55.100  -13.0   -3.4    -84.2   41914.3  14.50  66.7  -0.00    
  55.200  -13.9   -3.7    -89.7   41046.7  14.50  66.7  0.00     
  55.300  -14.7   -3.9    -95.0   40228.3  14.51  66.7  -0.00    
  55.400  -15.1   -4.0    -98.0   39751.4  14.51  66.7  -0.00    
  55.500  -15.1   -4.0    -97.7   39805.7  14.49  66.7  0.00     
  55.600  -14.6   -3.9    -94.5   40305.0  14.49  66.7  0.00     
  55.700  -13.8   -3.7    -89.6   41068.6  14.50  66.7  -0.00    
  55.800  -13.4   -3.5    -86.8   41501.4  14.49  66.7  -0.00    
  55.900  -13.3   -3.5    -86.1   41618.3  14.51  66.7  -0.00    
  56.000  -13.4   -3.5    -86.7   41530.0  14.51  66.7  0.00     
  56.100  -13.8   -3.6    -89.4   41102.9  14.51  66.7  -0.00    
  56.200  -14.2   -3.8    -92.0   40700.0  14.50  66.7  0.00     
  56.300  -14.2   -3.8    -92.0   40700.0  14.49  66.7  -0.00    
  56.400  -14.0   -3.7    -90.8   40884.3  14.50  66.7  0.00     
  56.500  -14.8   -3.9    -95.9   40085.0  14.50  66.7  -0.00    
  56.600  -16.6   -4.4    -107.8  38220.0  14.50  66.7  -0.00    
  56.700  -18.5   -4.9    -119.5  36390.0  14.50  66.7  0.01     
  56.800  -19.5   -5.1    -126.1  35348.3  14.48  66.7  -999.25  
  56.900  -19.9   -5.3    -128.9  34918.3  14.49  66.7  -0.00    
  57.000  -19.7   -5.2    -127.7  35098.3  14.48  66.7  -0.00    
  57.100  -19.3   -5.1    -124.7  35568.6  14.49  66.7  -0.00    
  57.200  -18.9   -5.0    -122.2  35964.0  14.50  66.7  0.00     
  57.300  -18.3   -4.8    -118.7  36507.1  14.49  66.7  0.00     
  57.400  -17.7   -4.7    -114.4  37186.0  14.50  66.7  0.00     
  57.500  -16.9   -4.5    -109.5  37955.0  14.49  66.7  -0.00    
  57.600  -15.8   -4.2    -102.5  39044.0  14.50  66.7  0.00     
  57.700  -15.0   -4.0    -97.1   39901.7  14.49  66.7  0.00     
  57.800  -14.9   -3.9    -96.2   40038.3  14.49  66.7  -0.00    
  57.900  -14.7   -3.9    -95.1   40208.6  14.50  66.7  0.00     
  58.000  -14.1   -3.7    -91.1   40831.7  14.51  66.7  0.00     
  58.100  -12.9   -3.4    -83.7   41992.9  14.50  66.7  0.00     
  58.200  -11.8   -3.1    -76.2   43160.0  14.50  66.7  -999.25  
  58.300  -11.3   -3.0    -72.9   43677.5  14.49  66.7  0.00     
  58.400  -11.3   -3.0    -73.1   43646.7  14.49  66.7  -0.00    
  58.500  -11.7   -3.1    -75.6   43257.1  14.50  66.7  0.00     
  58.600  -12.1   -3.2    -78.1   42866.7  14.47  66.7  -0.00    
  58.700  -12.1   -3.2    -78.4   42828.3  14.51  66.7  -0.00    
  58.800  -11.9   -3.1    -76.9   43060.0  14.50  66.7  0.00     
  58.900  -11.9   -3.1    -77.0   43038.3  14.49  66.7  0.00     
  59.000  -12.4   -3.3    -80.4   42501.7  14.48  66.7  -0.00    
  59.100  -13.5   -3.6    -87.2   41440.0  14.50  66.7  -0.01    
  59.200  -14.3   -3.8    -92.9   40551.4  14.50  66.7  0.00     
  59.300  -14.5   -3.8    -93.7   40421.7  14.49  66.7  -999.25  
  59.400  -14.1   -3.7    -91.3   40805.0  14.50  66.7  0.01     
  59.500  -13.8   -3.6    -89.3   41118.3  14.48  66.7  -0.00    
  59.600  -14.3   -3.8    -92.5   40611.7  14.50  66.7  -0.00    
  59.700  -15.8   -4.2    -102.3  39087.1  14.48  66.7  0.00     
  59.800  -17.5   -4.6    -113.2  37380.0  14.49  66.7  -0.00    
  59.900  -18.9   -5.0    -122.1  35973.3  14.50  66.7  0.00     
  60.000  -19.6   -5.2    -126.9  35228.3  14.48  66.7  0.00     
  60.100  -19.3   -5.1    -125.3  35485.0  14.50  66.7  -0.01    
  60.200  -18.5   -4.9    -119.6  36364.3  14.50  66.7  0.00     
  60.300  -17.6   -4.6    -113.7  37292.9  14.48  66.7  0.00     
  60.400  -17.2   -4.5    -111.4  37653.3  14.48  66.7  -0.00    
  60.500  -16.9   -4.5    -109.4  37970.0  14.49  66.7  0.00     
  60.600  -16.3   -4.3    -105.5  38575.7  14.47  66.7  -0.01    
  60.700  -15.8   -4.2    -102.4  39060.0  14.48  66.7  -0.00    
  60.800  -15.5   -4.1    -100.1  39427.1  14.50  66.7  -999.25  
  60.900  -15.3   -4.0    -99.1   39588.6  14.52  66.7  0.00     
  61.000  -15.6   -4.1    -100.8  39320.0  14.48  66.7  0.00     
  61.100  -15.7   -4.2    -101.9  39142.9  14.48  66.7  -0.00    
  61.200  -15.7   -4.1    -101.5  39208.3  14.51  66.7  0.01     
  61.300  -16.1   -4.2    -104.1  38798.8  14.48  66.7  -0.01    
  61.400  -17.4   -4.6    -112.6  37466.7  14.48  66.7  -999.25  
  61.500  -18.9   -5.0    -122.6  35906.7  14.49  66.7  -999.25  
  61.600  -20.0   -5.3    -129.3  34853.3  14.48  66.7  0.01     
  61.700  -20.1   -5.3    -130.0  34747.1  14.48  66.7  -0.00    
  61.800  -19.6   -5.2    -127.1  35190.0  14.49  66.7  0.00     
  61.900  -18.8   -5.0    -121.5  36070.0  14.49  66.7  -0.00    
  62.000  -17.0   -4.5    -110.2  37838.3  14.49  66.7  0.00     
  62.100  -14.7   -3.9    -95.3   40168.3  14.49  66.7  -0.00    
  62.200  -12.3   -3.3    -79.9   42590.0  14.49  66.7  -999.25  
  62.300  -11.3   -3.0    -73.1   43660.0  14.49  66.7  -0.00    
  62.400  -11.7   -3.1    -76.0   43194.3  14.50  66.7  0.00     
  62.500  -13.3   -3.5    -86.4   41567.1  14.49  66.7  0.00     
  62.600  -15.2   -4.0    -98.4   39698.3  14.48  66.7  -0.00    
  62.700  -16.6   -4.4    -107.4  38288.8  14.49  66.7  0.00     
  62.800  -16.8   -4.4    -108.5  38108.6  14.49  66.7  -0.00    
  62.900  -16.8   -4.4    -108.8  38064.3  14.49  66.7  0.00     
  63.000  -18.3   -4.8    -118.6  36520.0  14.48  66.7  -0.00    
  63.100  -20.3   -5.4    -131.4  34530.0  14.48  66.7  -999.25  
  63.200  -21.2   -5.6    -137.0  33638.6  14.49  66.7  -0.00    
  63.300  -20.6   -5.4    -133.2  34246.7  14.51  66.7  0.00     
  63.400  -19.6   -5.2    -126.8  35248.3  14.50  66.7  0.00     
  63.500  -18.9   -5.0    -122.6  35902.9  14.49  66.7  -0.00    
  63.600  -18.9   -5.0    -122.5  35921.7  14.49  66.7  0.00     
  63.700  -19.3   -5.1    -124.7  35571.4  14.48  66.7  -999.25  
  63.800  -19.8   -5.2    -128.2  35028.6  14.49  66.7  -0.00    
  63.900  -20.2   -5.3    -130.6  34643.3  14.48  66.7  0.01     
  64.000  -20.1   -5.3    -130.2  34712.9  14.50  66.7  -0.00    
  64.100  -19.7   -5.2    -127.7  35102.9  14.49  66.7  -0.01    
  64.200  -19.3   -5.1    -125.2  35493.3  14.49  66.7  -0.00    
