~Version Information
 VERS.                2.0:  CWLS LOG ASCII STANDARD -VERSION 2.0
 WRAP.                 NO:  ONE LINE PER DEPTH STEP
~WELL INFORMATION BLOCK
#MNEM.UNIT       DATA		            DESCRIPTION OF MNEMONIC
#---------    -------------            ------------------------
 STRT.FT  39.400                         :START DEPTH
 STOP.FT  309.900                        :STOP DEPTH
 STEP.FT  0.100                          :STEP    UP_HOLE  
 NULL.    -999.25                        :NULL VALUE
 COMP.    CARLETON                       :COMPANY
 WELL.    658966_PUMPTROLL                                             :WELL
 FLD .    NORTHFIELD 71-B                :FIELD\LOCATION
 LOC .    31    112   19                 :LOCATION
 CNTY.    RICE                           :COUNTY
 STAT.    ACDBCD                         :STATE
 CTRY.    USA                            :COUNTRY
 SRVC.    TRUCK                          :SERVICE COMPANY
 DATE.    03/20/2001                     :LOG DATE
 API .                                       :API NUMBER
 LIC .                                   :LICENSE NUMBER
~Curve Information Block
#MNEM.UNIT      API CODE     Curve Description
#---------    -------------  ------------------------
 DEPT     .FT        00 001 00 00          :  1  DEPTH   
 FLOW_SL  .LIT/MIN   00 000 00 00          :  2  FLOW_SL             
 FLOW_SL  .GAL/MIN   00 000 00 00          :  3  FLOW_SL             
 FLOW_SL  .FT/MIN    00 000 00 00          :  4  FLOW_SL             
 FLOW_SL  .CPS       00 000 00 00          :  5  FLOW_SL             
 RES(FL)  .OHM-M     00 000 00 00          :  6  RES(FL)             
 TEMP     .DEG_F     00 660 00 00          :  7  TEMPERATURE         
 DEL_TEMP .DEG_F     00 000 00 00          :  8  SAMPLE DELTA TEMP   
~Parameter Information Block
#MNEM.UNIT   Information     Description
#---------- ---------------  ------------------------
 FILE.      PROCESSED          :File Type
 FIID.      9721SL             :File Type Identifier
 VERS.      1.0                :System Version
 SER .      1                  :System Serial Number
 TRUK.      .980362            :Truck Calibration Number
 TOOL.        1163             :Tool Serial Number
 TIME.      1855               :Time    HrHrMinMin
 LAT .                         :Latitude
 LON .                         :Longitude
 LMF .                         :Log Measured From
 DMF .                         :Driller Measured From
 PD  .      4101               :Permanent Data
 PDEV.FT                       :Elevation Permanent Data
 EKB .FT                       :Elevation Kelly Bushing
 ELEV.FT                       :Elevation DF
 EGL .FT    948                :Elevation Ground Level
 DRDP.FT    25                 :Driller's Depth
 CASD.FT    6                  :Casing Diameter
 CASB.FT                       :Casing Bottom
 CASX.                         :Casing Type
 CAST.IN    0                  :Casing Thickness
 TNOC.                         :Time Circulation Stopped
 LOGU.      C-2                :Logging Unit
 RECB.      TIPPING            :Recorded By
 OSR1.                         :Other Services
 OSR2.                         :Other Services
 OSR3.                         :Other Services
 BS  .IN           6           :Bit Size
 MST .F                        :Mean Surface Temperature
 TGRD.F     0                  :Temperature Gradiant
 MAGN.      0                  :Magnetic Declination
 MDEN.      2.71               :Density Matrix
 MATR.      Dolomite           :Neutron Matrix
 DTMT.      54                 :Delta T Matrix
 DTFL.                         :Delta T Fluid
 MUDS.      0                  :Mud Sample Source
 MRS .      0                  :Mud Resistivity
 MTP .      0                  :Mud Temperature
 MFRS.                         :Resistivity Mud Filtrate
 MFTP.                         :Temperature Mud Filtrate
 MCRS.      0                  :Resistivity Mud Cake
 MCTP.                         :Temperature Mud Cake
 FTYP.      0                  :Fluid Type
 FD  .LB/G                     :Mud Weight
 DFV .S                        :Fluid Viscosity
 FPH .                         :Fuild PH
 ELCO.      2500               :Electron Cutoff
 CASL.IN                       :Casing Logger
 LOTD.FT                       :Logger TD
 ARTM.                         :Arrival Time
 DPTM.                         :Departure Time
 RIGN.                         :Rig Number
~Other Information
#MNEM.UNIT  Information      Description
#---------- ---------------  ------------------------
# -------------------------- 
~A DEPTH  FLOW_SL FLOW_SL FLOW_SL FLOW_SL RES(FL) TEMP  DEL_TEMP 
# ...
 124.700  25.2     6.7    163.1   80635.7  14.54  66.7  0.00     
 124.800  24.6     6.5    159.5   80084.0  14.56  66.7  0.00     
 124.900  23.8     6.3    153.9   79192.9  14.55  66.7  0.00     
 125.000  22.8     6.0    147.4   78176.7  14.56  66.7  0.00     
 125.100  21.4     5.7    138.7   76815.0  14.55  66.7  -0.00    
 125.200  19.8     5.2    128.4   75203.3  14.53  66.7  0.00     
 125.300  19.1     5.0    123.5   74440.0  14.54  66.7  -0.00    
 125.400  19.4     5.1    125.6   74771.7  14.55  66.7  0.00     
 125.500  20.2     5.3    131.1   75625.0  14.54  66.7  -0.00    
 125.600  21.6     5.7    139.5   76953.3  14.56  66.7  -0.00    
 125.700  22.8     6.0    147.9   78266.7  14.55  66.7  0.00     
 125.800  23.4     6.2    151.6   78843.3  14.54  66.7  -0.00    
 125.900  23.3     6.2    151.1   78761.4  14.54  66.7  0.01     
 126.000  23.0     6.1    148.9   78422.0  14.54  66.7  -0.00    
 126.100  23.1     6.1    149.3   78474.3  14.54  66.7  0.00     
 126.200  23.6     6.2    153.1   79080.0  14.54  66.7  -0.00    
 126.300  24.1     6.4    156.0   79536.7  14.54  66.7  0.00     
 126.400  24.2     6.4    156.5   79614.3  14.55  66.7  -0.00    
 126.500  24.0     6.3    155.5   79451.7  14.54  66.7  0.00     
 126.600  23.2     6.1    150.1   78612.9  14.54  66.7  -0.00    
 126.700  21.7     5.7    140.3   77076.7  14.53  66.7  0.00     
 126.800  19.9     5.3    128.7   75261.7  14.55  66.7  -0.00    
 126.900  17.7     4.7    114.9   73092.9  14.54  66.7  0.00     
 127.000  15.8     4.2    102.4   71141.7  14.54  66.7  -0.00    
 127.100  14.3     3.8    92.9    69648.3  14.54  66.7  -0.00    
 127.200  13.0     3.4    84.2    68290.0  14.54  66.7  0.01     
 127.300  12.5     3.3    80.9    67771.3  14.54  66.7  -0.00    
 127.400  13.4     3.5    86.7    68670.0  14.54  66.7  -0.00    
 127.500  15.1     4.0    97.9    70427.1  14.54  66.7  0.00     
 127.600  17.1     4.5    110.9   72464.0  14.55  66.7  -999.25  
 127.700  18.9     5.0    122.1   74228.3  14.54  66.7  -0.00    
 127.800  20.4     5.4    132.4   75835.0  14.53  66.7  0.00     
 127.900  21.3     5.6    138.0   76716.7  14.54  66.7  -0.00    
 128.000  21.3     5.6    137.9   76694.3  14.55  66.7  -0.00    
 128.100  20.5     5.4    132.5   75845.7  14.54  66.7  0.00     
 128.200  19.2     5.1    124.4   74580.0  14.54  66.7  -0.00    
 128.300  17.9     4.7    115.7   73224.3  14.54  66.7  -0.00    
 128.400  16.5     4.4    106.9   71835.0  14.55  66.7  -0.00    
 128.500  16.0     4.2    103.3   71281.7  14.53  66.7  0.00     
 128.600  16.6     4.4    107.4   71925.0  14.54  66.7  0.00     
 128.700  17.9     4.7    115.6   73210.0  14.55  66.7  -0.00    
 128.800  19.8     5.2    128.0   75148.3  14.54  66.7  -0.00    
 128.900  22.3     5.9    144.1   77673.3  14.53  66.7  -0.00    
 129.000  24.6     6.5    159.1   80015.0  14.55  66.7  0.00     
 129.100  26.0     6.9    168.3   81452.9  14.55  66.7  -0.00    
 129.200  26.1     6.9    169.0   81561.7  14.54  66.7  0.00     
 129.300  25.7     6.8    166.4   81155.0  14.55  66.7  -0.00    
 129.400  25.1     6.6    162.4   80534.3  14.54  66.7  0.01     
 129.500  24.1     6.4    156.2   79566.7  14.55  66.7  -0.00    
 129.600  23.1     6.1    149.9   78571.7  14.55  66.7  -0.00    
 129.700  22.5     5.9    145.7   77920.0  14.55  66.7  0.00     
 129.800  22.2     5.9    143.6   77595.0  14.55  66.7  -0.00    
 129.900  22.1     5.9    143.4   77558.0  14.54  66.7  -0.00    
 130.000  22.3     5.9    144.2   77675.0  14.54  66.7  -0.00    
 130.100  22.5     5.9    145.6   77908.0  14.55  66.7  -0.00    
 130.200  22.7     6.0    146.8   78092.0  14.54  66.7  -0.00    
 130.300  22.7     6.0    147.0   78116.7  14.54  66.7  0.01     
 130.400  23.2     6.1    150.3   78641.7  14.53  66.7  -0.00    
 130.500  23.9     6.3    154.6   79315.0  14.54  66.7  0.00     
 130.600  23.7     6.3    153.4   79120.0  14.54  66.7  0.00     
 130.700  22.4     5.9    145.3   77853.3  14.55  66.7  -999.25  
 130.800  20.6     5.4    133.2   75966.7  14.53  66.7  -0.00    
 130.900  19.1     5.1    124.0   74513.3  14.54  66.7  0.01     
 131.000  18.4     4.9    119.4   73791.7  14.55  66.7  -0.00    
 131.100  18.7     4.9    120.9   74038.3  14.55  66.7  -0.00    
 131.200  19.8     5.2    128.1   75160.0  14.54  66.7  -0.00    
 131.300  21.2     5.6    137.4   76618.3  14.54  66.7  0.00     
 131.400  22.9     6.0    148.3   78318.3  14.53  66.7  -0.00    
 131.500  24.5     6.5    158.8   79968.0  14.56  66.7  0.00     
 131.600  25.7     6.8    166.2   81121.7  14.55  66.7  -0.00    
 131.700  25.9     6.8    167.8   81377.1  14.55  66.7  -0.00    
 131.800  25.7     6.8    166.4   81155.0  14.56  66.7  0.00     
 131.900  25.7     6.8    166.7   81200.0  14.54  66.7  -0.01    
 132.000  25.8     6.8    167.0   81258.3  14.54  66.7  0.00     
 132.100  25.8     6.8    166.8   81217.1  14.54  66.7  -0.01    
 132.200  25.6     6.8    165.8   81061.4  14.54  66.7  0.01     
 132.300  25.6     6.8    165.7   81047.1  14.55  66.7  0.00     
 132.400  25.8     6.8    167.3   81293.3  14.55  66.7  -0.00    
 132.500  26.2     6.9    169.5   81636.0  14.54  66.7  0.00     
 132.600  26.4     7.0    170.7   81836.7  14.54  66.7  -0.00    
 132.700  26.6     7.0    172.3   82081.7  14.55  66.7  0.00     
 132.800  26.8     7.1    173.7   82296.7  14.54  66.7  -0.00    
 132.900  27.0     7.1    174.5   82426.7  14.55  66.7  -0.00    
 133.000  26.8     7.1    173.7   82302.9  14.54  66.7  0.00     
 133.100  26.6     7.0    172.0   82031.4  14.54  66.7  -0.00    
 133.200  26.5     7.0    171.8   82005.7  14.54  66.7  0.00     
 133.300  26.5     7.0    171.3   81927.5  14.55  66.7  0.00     
 133.400  26.5     7.0    171.3   81924.3  14.54  66.7  0.00     
 133.500  26.4     7.0    171.1   81901.7  14.55  66.7  -0.00    
 133.600  26.7     7.1    173.1   82206.7  14.55  66.7  -0.00    
 133.700  27.3     7.2    176.6   82752.9  14.54  66.7  0.00     
 133.800  28.1     7.4    182.3   83641.7  14.53  66.7  -999.25  
 133.900  28.6     7.5    185.0   84068.3  14.54  66.7  -0.00    
 134.000  28.7     7.6    185.6   84164.3  14.53  66.7  0.00     
 134.100  28.8     7.6    186.2   84251.4  14.54  66.7  -0.00    
 134.200  29.1     7.7    188.6   84631.3  14.54  66.7  0.01     
 134.300  29.6     7.8    191.9   85157.1  14.55  66.7  -0.00    
 134.400  29.9     7.9    193.8   85441.7  14.55  66.7  -0.00    
 134.500  30.0     7.9    194.5   85563.3  14.54  66.7  -0.00    
 134.600  30.1     8.0    195.0   85638.6  14.55  66.7  0.00     
 134.700  30.1     8.0    195.0   85643.3  14.55  66.7  0.00     
 134.800  29.7     7.8    192.2   85201.7  14.54  66.7  0.00     
 134.900  29.4     7.8    190.2   84891.7  14.54  66.7  -0.00    
 135.000  29.6     7.8    191.8   85131.7  14.55  66.7  -0.00    
 135.100  29.8     7.9    192.9   85305.7  14.54  66.7  0.00     
 135.200  29.3     7.7    189.5   84768.3  14.54  66.7  0.00     
 135.300  28.2     7.5    182.7   83708.6  14.54  66.7  -0.00    
 135.400  26.4     7.0    171.0   81882.9  14.55  66.7  0.00     
 135.500  24.7     6.5    160.1   80165.0  14.53  66.7  0.00     
 135.600  24.5     6.5    158.5   79927.1  14.54  66.7  -0.00    
 135.700  25.5     6.7    165.1   80950.0  14.54  66.7  -0.00    
 135.800  26.6     7.0    172.5   82112.9  14.54  66.7  0.00     
 135.900  27.8     7.3    179.9   83280.0  14.55  66.7  -0.00    
 136.000  28.1     7.4    182.2   83630.0  14.54  66.7  -0.00    
 136.100  27.9     7.4    180.9   83430.0  14.55  66.7  0.01     
 136.200  27.7     7.3    179.1   83154.3  14.53  66.7  -0.01    
 136.300  27.0     7.1    174.9   82488.6  14.54  66.7  -0.00    
 136.400  26.2     6.9    169.5   81638.3  14.54  66.7  -0.00    
 136.500  25.5     6.7    165.3   80992.9  14.54  66.7  0.00     
 136.600  25.1     6.6    162.7   80574.3  14.53  66.7  -999.25  
 136.700  25.3     6.7    163.9   80770.0  14.56  66.7  -0.00    
 136.800  25.8     6.8    167.2   81285.7  14.55  66.7  0.00     
