~Version Information
 VERS.                2.0:  CWLS LOG ASCII STANDARD -VERSION 2.0
 WRAP.                 NO:  ONE LINE PER DEPTH STEP
~WELL INFORMATION BLOCK
#MNEM.UNIT       DATA		            DESCRIPTION OF MNEMONIC
#---------    -------------            ------------------------
 STRT.FT  39.400                         :START DEPTH
 STOP.FT  309.900                        :STOP DEPTH
 STEP.FT  0.100                          :STEP    UP_HOLE  
 NULL.    -999.25                        :NULL VALUE
 COMP.    CARLETON                       :COMPANY
 WELL.    658966_PUMPTROLL                                             :WELL
 FLD .    NORTHFIELD 71-B                :FIELD\LOCATION
 LOC .    31    112   19                 :LOCATION
 CNTY.    RICE                           :COUNTY
 STAT.    ACDBCD                         :STATE
 CTRY.    USA                            :COUNTRY
 SRVC.    TRUCK                          :SERVICE COMPANY
 DATE.    03/20/2001                     :LOG DATE
 API .                                       :API NUMBER
 LIC .                                   :LICENSE NUMBER
~Curve Information Block
#MNEM.UNIT      API CODE     Curve Description
#---------    -------------  ------------------------
 DEPT     .FT        00 001 00 00          :  1  DEPTH   
 FLOW_SL  .LIT/MIN   00 000 00 00          :  2  FLOW_SL             
 FLOW_SL  .GAL/MIN   00 000 00 00          :  3  FLOW_SL             
 FLOW_SL  .FT/MIN    00 000 00 00          :  4  FLOW_SL             
 FLOW_SL  .CPS       00 000 00 00          :  5  FLOW_SL             
 RES(FL)  .OHM-M     00 000 00 00          :  6  RES(FL)             
 TEMP     .DEG_F     00 660 00 00          :  7  TEMPERATURE         
 DEL_TEMP .DEG_F     00 000 00 00          :  8  SAMPLE DELTA TEMP   
~Parameter Information Block
#MNEM.UNIT   Information     Description
#---------- ---------------  ------------------------
 FILE.      PROCESSED          :File Type
 FIID.      9721SL             :File Type Identifier
 VERS.      1.0                :System Version
 SER .      1                  :System Serial Number
 TRUK.      .980362            :Truck Calibration Number
 TOOL.        1163             :Tool Serial Number
 TIME.      1855               :Time    HrHrMinMin
 LAT .                         :Latitude
 LON .                         :Longitude
 LMF .                         :Log Measured From
 DMF .                         :Driller Measured From
 PD  .      4101               :Permanent Data
 PDEV.FT                       :Elevation Permanent Data
 EKB .FT                       :Elevation Kelly Bushing
 ELEV.FT                       :Elevation DF
 EGL .FT    948                :Elevation Ground Level
 DRDP.FT    25                 :Driller's Depth
 CASD.FT    6                  :Casing Diameter
 CASB.FT                       :Casing Bottom
 CASX.                         :Casing Type
 CAST.IN    0                  :Casing Thickness
 TNOC.                         :Time Circulation Stopped
 LOGU.      C-2                :Logging Unit
 RECB.      TIPPING            :Recorded By
 OSR1.                         :Other Services
 OSR2.                         :Other Services
 OSR3.                         :Other Services
 BS  .IN           6           :Bit Size
 MST .F                        :Mean Surface Temperature
 TGRD.F     0                  :Temperature Gradiant
 MAGN.      0                  :Magnetic Declination
 MDEN.      2.71               :Density Matrix
 MATR.      Dolomite           :Neutron Matrix
 DTMT.      54                 :Delta T Matrix
 DTFL.                         :Delta T Fluid
 MUDS.      0                  :Mud Sample Source
 MRS .      0                  :Mud Resistivity
 MTP .      0                  :Mud Temperature
 MFRS.                         :Resistivity Mud Filtrate
 MFTP.                         :Temperature Mud Filtrate
 MCRS.      0                  :Resistivity Mud Cake
 MCTP.                         :Temperature Mud Cake
 FTYP.      0                  :Fluid Type
 FD  .LB/G                     :Mud Weight
 DFV .S                        :Fluid Viscosity
 FPH .                         :Fuild PH
 ELCO.      2500               :Electron Cutoff
 CASL.IN                       :Casing Logger
 LOTD.FT                       :Logger TD
 ARTM.                         :Arrival Time
 DPTM.                         :Departure Time
 RIGN.                         :Rig Number
~Other Information
#MNEM.UNIT  Information      Description
#---------- ---------------  ------------------------
# -------------------------- 
~A DEPTH  FLOW_SL FLOW_SL FLOW_SL FLOW_SL RES(FL) TEMP  DEL_TEMP 
# ...
 136.900  26.3     6.9    170.1   81740.0  14.54  66.7  -999.25  
 137.000  26.5     7.0    171.4   81934.3  14.54  66.7  0.00     
 137.100  26.1     6.9    168.8   81528.6  14.54  66.7  -0.00    
 137.200  25.5     6.7    165.1   80950.0  14.55  66.7  0.00     
 137.300  24.6     6.5    159.5   80077.1  14.53  66.7  -0.00    
 137.400  23.6     6.2    152.7   79015.0  14.55  66.7  -0.01    
 137.500  22.4     5.9    145.1   77816.7  14.54  66.7  0.00     
 137.600  21.1     5.6    136.5   76481.7  14.54  66.7  0.00     
 137.700  19.7     5.2    127.7   75105.0  14.55  66.7  -0.00    
 137.800  18.6     4.9    120.5   73966.3  14.54  66.7  0.00     
 137.900  18.8     5.0    121.6   74150.0  14.54  66.7  -0.01    
 138.000  19.5     5.1    126.0   74827.1  14.54  66.7  0.00     
 138.100  19.2     5.1    124.5   74600.0  14.55  66.7  0.01     
 138.200  17.8     4.7    115.3   73158.6  14.54  66.7  -0.00    
 138.300  16.4     4.3    106.4   71770.0  14.54  66.7  0.00     
 138.400  15.6     4.1    101.1   70940.0  14.53  66.7  -0.00    
 138.500  15.2     4.0    98.3    70500.0  14.53  66.7  -0.00    
 138.600  15.3     4.0    98.9    70588.3  14.54  66.7  0.00     
 138.700  15.8     4.2    102.4   71131.4  14.54  66.7  -0.00    
 138.800  17.1     4.5    110.5   72400.0  14.54  66.7  -0.00    
 138.900  18.8     5.0    121.8   74175.0  14.53  66.7  0.00     
 139.000  20.6     5.4    133.5   76007.5  14.54  66.7  -0.01    
 139.100  21.8     5.7    140.9   77162.9  14.54  66.7  0.00     
 139.200  21.2     5.6    137.2   76590.0  14.53  66.7  0.00     
 139.300  19.6     5.2    127.0   74981.4  14.54  66.7  0.00     
 139.400  19.1     5.1    123.9   74497.1  14.54  66.7  -0.00    
 139.500  19.6     5.2    127.2   75017.1  14.54  66.7  -0.00    
 139.600  20.6     5.5    133.7   76031.7  14.53  66.7  -0.00    
 139.700  21.7     5.7    140.7   77140.0  14.54  66.7  0.00     
 139.800  22.7     6.0    146.8   78095.0  14.54  66.7  -0.00    
 139.900  23.4     6.2    151.5   78820.0  14.53  66.7  -0.00    
 140.000  23.7     6.3    153.7   79171.7  14.54  66.7  -0.00    
 140.100  24.1     6.4    156.0   79525.7  14.53  66.7  0.01     
 140.200  24.4     6.5    158.2   79872.5  14.54  66.7  -0.00    
 140.300  24.2     6.4    156.7   79635.7  14.54  66.7  0.00     
 140.400  23.8     6.3    154.2   79241.4  14.54  66.7  0.00     
 140.500  23.1     6.1    149.3   78485.7  14.53  66.7  -999.25  
 140.600  22.0     5.8    142.5   77412.9  14.54  66.7  -0.00    
 140.700  21.2     5.6    137.2   76585.7  14.53  66.7  -0.00    
 140.800  21.6     5.7    139.6   76964.3  14.53  66.7  0.00     
 140.900  23.1     6.1    149.4   78500.0  14.54  66.7  -0.00    
 141.000  23.9     6.3    154.8   79343.3  14.54  66.7  0.00     
 141.100  23.2     6.1    150.4   78656.3  14.53  66.7  -0.00    
 141.200  22.6     6.0    146.4   78030.0  14.54  66.7  -0.00    
 141.300  23.1     6.1    149.6   78528.6  14.53  66.7  0.00     
 141.400  23.3     6.2    151.1   78760.0  14.55  66.7  -0.00    
 141.500  22.2     5.9    143.7   77605.7  14.54  66.7  0.00     
 141.600  19.7     5.2    127.7   75100.0  14.54  66.7  -0.00    
 141.700  18.0     4.7    116.3   73317.1  14.55  66.7  0.00     
 141.800  18.4     4.9    119.4   73801.3  14.55  66.7  0.00     
 141.900  20.1     5.3    130.4   75518.3  14.54  66.7  -0.00    
 142.000  22.0     5.8    142.3   77377.1  14.53  66.7  0.00     
 142.100  23.4     6.2    151.2   78778.6  14.53  66.7  -0.00    
 142.200  24.1     6.4    155.9   79517.1  14.54  66.7  0.00     
 142.300  24.6     6.5    159.3   80045.7  14.54  66.7  -0.00    
 142.400  24.9     6.6    160.9   80301.7  14.54  66.7  -0.00    
 142.500  25.1     6.6    162.6   80567.1  14.54  66.7  0.00     
 142.600  25.9     6.8    167.4   81312.9  14.54  66.7  -0.00    
 142.700  25.9     6.9    168.0   81406.3  14.53  66.7  0.00     
 142.800  25.5     6.7    165.0   80937.1  14.54  66.7  -0.00    
 142.900  24.8     6.6    160.8   80285.7  14.54  66.7  0.00     
 143.000  24.1     6.4    155.8   79495.7  14.54  66.7  -0.00    
 143.100  22.7     6.0    147.0   78114.3  14.54  66.7  0.01     
 143.200  20.5     5.4    133.0   75931.4  14.54  66.7  -0.00    
 143.300  18.0     4.8    116.8   73394.3  14.54  66.7  -0.00    
 143.400  15.5     4.1    100.3   70814.3  14.53  66.7  0.00     
 143.500  13.6     3.6    88.1    68900.0  14.53  66.7  -0.00    
 143.600  13.9     3.7    90.2    69224.3  14.53  66.7  -0.00    
 143.700  15.9     4.2    103.0   71230.0  14.54  66.7  0.00     
 143.800  18.4     4.9    119.3   73778.6  14.54  66.7  -0.00    
 143.900  21.1     5.6    136.6   76488.8  14.53  66.7  0.00     
 144.000  23.0     6.1    149.0   78432.9  14.53  66.7  -0.00    
 144.100  22.9     6.0    148.2   78304.3  14.55  66.7  0.00     
 144.200  20.8     5.5    134.9   76221.4  14.55  66.7  0.00     
 144.300  18.1     4.8    117.2   73450.0  14.54  66.7  -0.00    
 144.400  16.2     4.3    104.7   71501.7  14.53  66.7  0.00     
 144.500  15.2     4.0    98.4    70514.3  14.53  66.7  -0.00    
 144.600  15.3     4.0    98.8    70572.9  14.53  66.7  -0.00    
 144.700  16.2     4.3    104.6   71477.1  14.53  66.7  0.00     
 144.800  17.5     4.6    113.5   72872.9  14.54  66.7  -0.01    
 144.900  19.4     5.1    125.7   74777.5  14.53  66.7  0.00     
 145.000  21.0     5.6    136.2   76421.4  14.54  66.7  0.01     
 145.100  21.5     5.7    139.5   76941.3  14.53  66.7  -0.01    
 145.200  20.9     5.5    135.4   76305.7  14.55  66.7  0.00     
 145.300  20.5     5.4    132.7   75875.7  14.53  66.7  0.00     
 145.400  20.8     5.5    134.5   76166.7  14.54  66.7  -0.00    
 145.500  20.4     5.4    132.4   75827.5  14.53  66.7  0.00     
 145.600  18.8     5.0    122.0   74203.8  14.54  66.7  0.00     
 145.700  17.0     4.5    110.0   72327.1  14.53  66.7  0.00     
 145.800  14.9     3.9    96.7    70245.0  14.52  66.7  0.00     
 145.900  13.0     3.4    84.0    68258.3  14.54  66.7  0.00     
 146.000  11.1     2.9    72.1    66392.5  14.53  66.7  -0.00    
 146.100   9.7     2.6    63.1    64981.4  14.53  66.7  0.00     
 146.200   9.6     2.5    62.2    64841.3  14.53  66.7  0.00     
 146.300  10.9     2.9    70.6    66161.4  14.53  66.7  0.00     
 146.400  13.3     3.5    86.2    68595.7  14.54  66.7  -0.00    
 146.500  16.6     4.4    107.3   71907.1  14.53  66.7  0.00     
 146.600  20.2     5.3    131.1   75623.3  14.53  66.7  -0.00    
 146.700  24.2     6.4    156.5   79610.0  14.54  66.7  -0.01    
 146.800  28.1     7.4    181.7   83548.6  14.54  66.7  0.00     
 146.900  31.2     8.2    202.1   86741.3  14.54  66.7  -0.00    
 147.000  32.8     8.7    212.4   88367.1  14.54  66.7  -0.00    
 147.100  32.7     8.7    212.0   88301.4  14.53  66.7  0.00     
 147.200  31.9     8.4    206.7   87476.3  14.53  66.7  0.00     
 147.300  31.7     8.4    205.6   87290.0  14.53  66.7  -0.01    
 147.400  32.4     8.6    209.7   87935.7  14.54  66.7  0.01     
 147.500  33.3     8.8    215.5   88842.9  14.52  66.7  -0.01    
 147.600  33.5     8.9    217.1   89100.0  14.54  66.7  -0.00    
 147.700  32.9     8.7    213.2   88481.3  14.53  66.7  0.00     
 147.800  31.3     8.3    203.0   86885.7  14.53  66.7  -0.00    
 147.900  30.0     7.9    193.9   85468.8  14.53  66.7  0.00     
 148.000  29.5     7.8    191.3   85060.0  14.53  66.7  -999.25  
 148.100  30.0     7.9    194.1   85492.9  14.53  66.7  -0.01    
 148.200  30.9     8.2    199.8   86396.3  14.53  66.7  0.00     
 148.300  30.9     8.2    199.8   86388.6  14.54  66.7  0.00     
 148.400  30.2     8.0    195.8   85763.8  14.53  66.7  -0.00    
 148.500  29.7     7.8    192.3   85221.3  14.54  66.7  0.00     
 148.600  29.4     7.8    190.6   84955.0  14.51  66.7  0.00     
 148.700  29.2     7.7    189.2   84735.0  14.54  66.7  -0.00    
 148.800  29.0     7.7    187.7   84492.9  14.53  66.7  -999.25  
 148.900  28.6     7.5    184.9   84048.6  14.53  66.7  0.00     
 149.000  28.2     7.5    182.8   83733.3  14.53  66.7  -0.00    
