~Version Information
 VERS.                2.0:  CWLS LOG ASCII STANDARD -VERSION 2.0
 WRAP.                 NO:  ONE LINE PER DEPTH STEP
~WELL INFORMATION BLOCK
#MNEM.UNIT       DATA		            DESCRIPTION OF MNEMONIC
#---------    -------------            ------------------------
 STRT.FT  27.800                         :START DEPTH
 STOP.FT  314.400                        :STOP DEPTH
 STEP.FT  0.100                          :STEP    UP_HOLE  
 NULL.    -999.25                        :NULL VALUE
 COMP.    CARLETON                       :COMPANY
 WELL.    658966_AMBTROLL                                              :WELL
 FLD .    NORTHFIELD 71-B                :FIELD\LOCATION
 LOC .    31    112   19                 :LOCATION
 CNTY.    RICE                           :COUNTY
 STAT.    ACDBCD                         :STATE
 CTRY.    USA                            :COUNTRY
 SRVC.    TRUCK                          :SERVICE COMPANY
 DATE.    03/20/2001                     :LOG DATE
 API .                                       :API NUMBER
 LIC .                                   :LICENSE NUMBER
~Curve Information Block
#MNEM.UNIT      API CODE     Curve Description
#---------    -------------  ------------------------
 DEPT     .FT        00 001 00 00          :  1  DEPTH   
 FLOW_SL  .LIT/MIN   00 000 00 00          :  2  FLOW_SL             
 FLOW_SL  .GAL/MIN   00 000 00 00          :  3  FLOW_SL             
 FLOW_SL  .FT/MIN    00 000 00 00          :  4  FLOW_SL             
 FLOW_SL  .CPS       00 000 00 00          :  5  FLOW_SL             
 RES(FL)  .OHM-M     00 000 00 00          :  6  RES(FL)             
 TEMP     .DEG_F     00 660 00 00          :  7  TEMPERATURE         
 DEL_TEMP .DEG_F     00 000 00 00          :  8  SAMPLE DELTA TEMP   
~Parameter Information Block
#MNEM.UNIT   Information     Description
#---------- ---------------  ------------------------
 FILE.      PROCESSED          :File Type
 FIID.      9721SL             :File Type Identifier
 VERS.      1.0                :System Version
 SER .      1                  :System Serial Number
 TRUK.      .980362            :Truck Calibration Number
 TOOL.        1163             :Tool Serial Number
 TIME.      1529               :Time    HrHrMinMin
 LAT .                         :Latitude
 LON .                         :Longitude
 LMF .                         :Log Measured From
 DMF .                         :Driller Measured From
 PD  .      4101               :Permanent Data
 PDEV.FT                       :Elevation Permanent Data
 EKB .FT                       :Elevation Kelly Bushing
 ELEV.FT                       :Elevation DF
 EGL .FT    948                :Elevation Ground Level
 DRDP.FT    25                 :Driller's Depth
 CASD.FT    6                  :Casing Diameter
 CASB.FT                       :Casing Bottom
 CASX.                         :Casing Type
 CAST.IN    0                  :Casing Thickness
 TNOC.                         :Time Circulation Stopped
 LOGU.      C-2                :Logging Unit
 RECB.      TIPPING            :Recorded By
 OSR1.                         :Other Services
 OSR2.                         :Other Services
 OSR3.                         :Other Services
 BS  .IN           6           :Bit Size
 MST .F                        :Mean Surface Temperature
 TGRD.F     0                  :Temperature Gradiant
 MAGN.      0                  :Magnetic Declination
 MDEN.      2.71               :Density Matrix
 MATR.      Dolomite           :Neutron Matrix
 DTMT.      54                 :Delta T Matrix
 DTFL.                         :Delta T Fluid
 MUDS.      0                  :Mud Sample Source
 MRS .      0                  :Mud Resistivity
 MTP .      0                  :Mud Temperature
 MFRS.                         :Resistivity Mud Filtrate
 MFTP.                         :Temperature Mud Filtrate
 MCRS.      0                  :Resistivity Mud Cake
 MCTP.                         :Temperature Mud Cake
 FTYP.      0                  :Fluid Type
 FD  .LB/G                     :Mud Weight
 DFV .S                        :Fluid Viscosity
 FPH .                         :Fuild PH
 ELCO.      2500               :Electron Cutoff
 CASL.IN                       :Casing Logger
 LOTD.FT                       :Logger TD
 ARTM.                         :Arrival Time
 DPTM.                         :Departure Time
 RIGN.                         :Rig Number
~Other Information
#MNEM.UNIT  Information      Description
#---------- ---------------  ------------------------
# -------------------------- 
~A DEPTH  FLOW_SL FLOW_SL FLOW_SL FLOW_SL RES(FL) TEMP  DEL_TEMP 
# ...
 125.300  19.2     5.1    124.0   74522.9  14.51  66.7  0.01     
 125.400  18.4     4.9    119.0   73732.9  14.50  66.7  -0.00    
 125.500  17.8     4.7    115.4   73164.3  14.48  66.7  -0.00    
 125.600  17.5     4.6    113.3   72842.5  14.48  66.7  -0.00    
 125.700  17.9     4.7    115.6   73208.6  14.49  66.7  -0.00    
 125.800  18.8     5.0    122.0   74205.7  14.49  66.7  0.00     
 125.900  18.8     5.0    121.8   74175.7  14.49  66.7  -0.00    
 126.000  17.7     4.7    114.9   73087.1  14.49  66.7  0.00     
 126.100  17.0     4.5    110.2   72363.8  14.49  66.7  -0.00    
 126.200  17.4     4.6    112.8   72768.6  14.48  66.7  0.00     
 126.300  18.2     4.8    118.1   73591.4  14.48  66.7  0.00     
 126.400  19.5     5.2    126.5   74910.0  14.48  66.7  -0.01    
 126.500  21.2     5.6    137.1   76573.3  14.48  66.7  -0.00    
 126.600  22.7     6.0    146.7   78075.0  14.48  66.7  0.01     
 126.700  23.6     6.2    152.9   79044.3  14.47  66.7  0.00     
 126.800  23.5     6.2    152.4   78968.6  14.48  66.7  -0.00    
 126.900  22.9     6.0    148.2   78314.3  14.47  66.7  -0.01    
 127.000  22.1     5.8    143.3   77544.3  14.48  66.7  0.00     
 127.100  21.3     5.6    138.0   76708.6  14.48  66.7  -0.00    
 127.200  19.7     5.2    127.8   75117.1  14.48  66.7  0.00     
 127.300  18.2     4.8    117.8   73550.0  14.49  66.7  -0.01    
 127.400  18.0     4.8    116.7   73381.4  14.49  66.7  0.00     
 127.500  18.6     4.9    120.7   73998.3  14.49  66.7  0.00     
 127.600  19.9     5.2    128.7   75248.6  14.47  66.7  -0.00    
 127.700  21.1     5.6    136.6   76494.3  14.46  66.7  -0.00    
 127.800  21.5     5.7    139.0   76861.3  14.47  66.7  -0.01    
 127.900  21.2     5.6    137.3   76598.6  14.49  66.7  0.00     
 128.000  21.0     5.6    136.1   76414.3  14.48  66.7  0.01     
 128.100  21.2     5.6    137.6   76643.8  14.47  66.7  0.01     
 128.200  21.4     5.7    138.7   76820.0  14.47  66.7  -0.01    
 128.300  21.3     5.6    138.1   76720.0  14.49  66.7  0.00     
 128.400  20.7     5.5    134.3   76132.5  14.47  66.7  -0.00    
 128.500  19.2     5.1    124.2   74547.1  14.48  66.7  -999.25  
 128.600  17.2     4.5    111.4   72544.3  14.48  66.7  0.00     
 128.700  15.1     4.0    97.8    70411.7  14.48  66.7  0.00     
 128.800  13.2     3.5    85.4    68468.8  14.47  66.7  0.01     
 128.900  11.8     3.1    76.4    67065.0  14.47  66.7  -0.00    
 129.000  11.1     2.9    72.2    66403.8  14.48  66.7  0.00     
 129.100  11.5     3.0    74.6    66778.3  14.46  66.7  -0.01    
 129.200  12.8     3.4    82.6    68033.3  14.49  66.7  0.01     
 129.300  14.6     3.8    94.3    69862.9  14.47  66.7  -0.00    
 129.400  16.4     4.3    105.9   71681.7  14.48  66.7  -0.01    
 129.500  17.7     4.7    114.8   73074.3  14.48  66.7  -0.00    
 129.600  18.3     4.8    118.2   73607.1  14.49  66.7  0.01     
 129.700  17.9     4.7    116.2   73298.6  14.49  66.7  0.00     
 129.800  17.2     4.5    111.1   72491.4  14.48  66.7  -0.00    
 129.900  16.0     4.2    103.4   71290.0  14.48  66.7  -0.00    
 130.000  14.7     3.9    94.9    69967.5  14.50  66.7  0.00     
 130.100  14.0     3.7    90.5    69271.4  14.49  66.7  0.00     
 130.200  14.8     3.9    95.6    70070.0  14.47  66.7  -0.01    
 130.300  16.4     4.3    106.1   71711.4  14.47  66.7  -0.00    
 130.400  18.8     5.0    121.6   74148.6  14.48  66.7  -0.00    
 130.500  21.8     5.8    141.4   77237.5  14.48  66.7  0.00     
 130.600  23.9     6.3    154.7   79318.3  14.47  66.7  -0.00    
 130.700  24.4     6.5    158.3   79882.9  14.48  66.7  0.00     
 130.800  24.4     6.4    157.7   79802.9  14.48  66.7  0.00     
 130.900  24.1     6.4    156.1   79541.4  14.49  66.7  0.00     
 131.000  23.4     6.2    151.7   78852.9  14.49  66.7  -0.01    
 131.100  22.4     5.9    145.2   77842.9  14.49  66.7  0.00     
 131.200  21.7     5.7    140.7   77132.9  14.49  66.7  -0.01    
 131.300  21.3     5.6    137.6   76648.6  14.49  66.7  0.01     
 131.400  20.9     5.5    135.6   76331.7  14.47  66.7  -0.00    
 131.500  20.8     5.5    134.4   76150.0  14.48  66.7  0.00     
 131.600  20.6     5.4    133.1   75947.8  14.48  66.7  -0.01    
 131.700  20.7     5.5    134.3   76124.3  14.49  66.7  -999.25  
 131.800  21.5     5.7    139.4   76925.7  14.50  66.7  0.00     
 131.900  21.6     5.7    139.8   76993.3  14.49  66.7  0.00     
 132.000  20.5     5.4    132.8   75890.0  14.47  66.7  0.00     
 132.100  18.8     5.0    121.9   74187.1  14.49  66.7  0.00     
 132.200  17.6     4.7    114.2   72984.0  14.46  66.7  -0.00    
 132.300  17.3     4.6    111.8   72602.9  14.48  66.7  -999.25  
 132.400  18.0     4.8    116.8   73397.1  14.47  66.7  -0.01    
 132.500  19.6     5.2    126.7   74940.0  14.48  66.7  0.00     
 132.600  21.1     5.6    136.9   76543.3  14.48  66.7  0.00     
 132.700  22.7     6.0    146.7   78075.7  14.48  66.7  -0.00    
 132.800  23.5     6.2    152.5   78977.1  14.48  66.7  -0.00    
 132.900  23.6     6.2    152.9   79046.7  14.48  66.7  0.00     
 133.000  24.1     6.4    156.1   79551.3  14.48  66.7  -0.00    
 133.100  24.8     6.6    160.7   80264.0  14.48  66.7  -0.00    
 133.200  25.0     6.6    162.0   80476.7  14.49  66.7  0.00     
 133.300  24.9     6.6    161.3   80355.7  14.46  66.7  -0.00    
 133.400  24.6     6.5    159.6   80085.7  14.48  66.7  0.00     
 133.500  24.3     6.4    157.5   79770.0  14.49  66.7  0.00     
 133.600  24.0     6.3    155.6   79471.4  14.47  66.7  -0.01    
 133.700  23.8     6.3    154.3   79264.3  14.48  66.7  0.00     
 133.800  24.2     6.4    157.0   79684.3  14.48  66.7  -0.00    
 133.900  24.7     6.5    160.0   80154.3  14.48  66.7  0.00     
 134.000  24.6     6.5    159.0   79995.7  14.48  66.7  -0.01    
 134.100  23.9     6.3    155.0   79371.7  14.49  66.7  0.00     
 134.200  23.7     6.3    153.6   79157.1  14.49  66.7  -0.00    
 134.300  23.8     6.3    154.4   79272.9  14.49  66.7  0.00     
 134.400  23.9     6.3    154.8   79346.7  14.49  66.7  -0.00    
 134.500  23.9     6.3    154.8   79337.1  14.49  66.7  -999.25  
 134.600  24.1     6.4    156.2   79555.7  14.49  66.7  0.01     
 134.700  24.8     6.5    160.4   80218.6  14.48  66.7  -0.00    
 134.800  26.1     6.9    168.8   81540.0  14.48  66.7  -0.00    
 134.900  26.8     7.1    173.7   82295.7  14.48  66.7  0.01     
 135.000  26.6     7.0    172.4   82103.3  14.47  66.7  -0.01    
 135.100  26.1     6.9    169.1   81577.8  14.47  66.7  -0.00    
 135.200  26.6     7.0    172.5   82106.7  14.49  66.7  0.01     
 135.300  27.2     7.2    176.1   82671.4  14.48  66.7  -0.01    
 135.400  27.4     7.2    177.7   82920.0  14.49  66.7  0.01     
 135.500  27.9     7.4    180.4   83347.1  14.48  66.7  -0.01    
 135.600  28.6     7.6    185.1   84090.0  14.47  66.7  0.00     
 135.700  28.8     7.6    186.4   84295.7  14.48  66.7  -0.01    
 135.800  28.4     7.5    184.0   83914.3  14.48  66.7  0.01     
 135.900  28.2     7.4    182.4   83658.6  14.47  66.7  0.01     
 136.000  27.9     7.4    180.9   83427.5  14.47  66.7  -0.01    
 136.100  27.2     7.2    176.2   82688.6  14.48  66.7  -999.25  
 136.200  26.2     6.9    169.4   81624.3  14.48  66.7  -0.00    
 136.300  25.2     6.6    163.0   80621.7  14.48  66.7  -0.00    
 136.400  23.9     6.3    154.6   79315.0  14.48  66.7  0.00     
 136.500  23.0     6.1    148.7   78390.0  14.48  66.7  0.00     
 136.600  23.6     6.2    152.6   79004.3  14.48  66.7  0.00     
 136.700  25.0     6.6    161.9   80458.6  14.48  66.7  0.00     
 136.800  26.2     6.9    169.5   81638.6  14.49  66.7  -0.00    
 136.900  26.5     7.0    171.6   81972.9  14.47  66.7  -0.00    
 137.000  26.2     6.9    169.6   81658.8  14.48  66.7  -0.00    
 137.100  25.8     6.8    167.0   81251.7  14.48  66.7  0.00     
 137.200  25.1     6.6    162.7   80580.0  14.48  66.7  0.00     
 137.300  24.4     6.4    157.7   79790.0  14.48  66.7  -0.00    
 137.400  23.9     6.3    155.1   79381.4  14.48  66.7  0.00     
