~Version Information
 VERS.                2.0:  CWLS LOG ASCII STANDARD -VERSION 2.0
 WRAP.                 NO:  ONE LINE PER DEPTH STEP
~WELL INFORMATION BLOCK
#MNEM.UNIT       DATA		            DESCRIPTION OF MNEMONIC
#---------    -------------            ------------------------
 STRT.FT  27.800                         :START DEPTH
 STOP.FT  314.400                        :STOP DEPTH
 STEP.FT  0.100                          :STEP    UP_HOLE  
 NULL.    -999.25                        :NULL VALUE
 COMP.    CARLETON                       :COMPANY
 WELL.    658966_AMBTROLL                                              :WELL
 FLD .    NORTHFIELD 71-B                :FIELD\LOCATION
 LOC .    31    112   19                 :LOCATION
 CNTY.    RICE                           :COUNTY
 STAT.    ACDBCD                         :STATE
 CTRY.    USA                            :COUNTRY
 SRVC.    TRUCK                          :SERVICE COMPANY
 DATE.    03/20/2001                     :LOG DATE
 API .                                       :API NUMBER
 LIC .                                   :LICENSE NUMBER
~Curve Information Block
#MNEM.UNIT      API CODE     Curve Description
#---------    -------------  ------------------------
 DEPT     .FT        00 001 00 00          :  1  DEPTH   
 FLOW_SL  .LIT/MIN   00 000 00 00          :  2  FLOW_SL             
 FLOW_SL  .GAL/MIN   00 000 00 00          :  3  FLOW_SL             
 FLOW_SL  .FT/MIN    00 000 00 00          :  4  FLOW_SL             
 FLOW_SL  .CPS       00 000 00 00          :  5  FLOW_SL             
 RES(FL)  .OHM-M     00 000 00 00          :  6  RES(FL)             
 TEMP     .DEG_F     00 660 00 00          :  7  TEMPERATURE         
 DEL_TEMP .DEG_F     00 000 00 00          :  8  SAMPLE DELTA TEMP   
~Parameter Information Block
#MNEM.UNIT   Information     Description
#---------- ---------------  ------------------------
 FILE.      PROCESSED          :File Type
 FIID.      9721SL             :File Type Identifier
 VERS.      1.0                :System Version
 SER .      1                  :System Serial Number
 TRUK.      .980362            :Truck Calibration Number
 TOOL.        1163             :Tool Serial Number
 TIME.      1529               :Time    HrHrMinMin
 LAT .                         :Latitude
 LON .                         :Longitude
 LMF .                         :Log Measured From
 DMF .                         :Driller Measured From
 PD  .      4101               :Permanent Data
 PDEV.FT                       :Elevation Permanent Data
 EKB .FT                       :Elevation Kelly Bushing
 ELEV.FT                       :Elevation DF
 EGL .FT    948                :Elevation Ground Level
 DRDP.FT    25                 :Driller's Depth
 CASD.FT    6                  :Casing Diameter
 CASB.FT                       :Casing Bottom
 CASX.                         :Casing Type
 CAST.IN    0                  :Casing Thickness
 TNOC.                         :Time Circulation Stopped
 LOGU.      C-2                :Logging Unit
 RECB.      TIPPING            :Recorded By
 OSR1.                         :Other Services
 OSR2.                         :Other Services
 OSR3.                         :Other Services
 BS  .IN           6           :Bit Size
 MST .F                        :Mean Surface Temperature
 TGRD.F     0                  :Temperature Gradiant
 MAGN.      0                  :Magnetic Declination
 MDEN.      2.71               :Density Matrix
 MATR.      Dolomite           :Neutron Matrix
 DTMT.      54                 :Delta T Matrix
 DTFL.                         :Delta T Fluid
 MUDS.      0                  :Mud Sample Source
 MRS .      0                  :Mud Resistivity
 MTP .      0                  :Mud Temperature
 MFRS.                         :Resistivity Mud Filtrate
 MFTP.                         :Temperature Mud Filtrate
 MCRS.      0                  :Resistivity Mud Cake
 MCTP.                         :Temperature Mud Cake
 FTYP.      0                  :Fluid Type
 FD  .LB/G                     :Mud Weight
 DFV .S                        :Fluid Viscosity
 FPH .                         :Fuild PH
 ELCO.      2500               :Electron Cutoff
 CASL.IN                       :Casing Logger
 LOTD.FT                       :Logger TD
 ARTM.                         :Arrival Time
 DPTM.                         :Departure Time
 RIGN.                         :Rig Number
~Other Information
#MNEM.UNIT  Information      Description
#---------- ---------------  ------------------------
# -------------------------- 
~A DEPTH  FLOW_SL FLOW_SL FLOW_SL FLOW_SL RES(FL) TEMP  DEL_TEMP 
# ...
  64.300  -19.4   -5.1    -125.5  35444.3  14.49  66.7  0.00     
  64.400  -19.3   -5.1    -125.3  35484.0  14.50  66.7  0.00     
  64.500  -19.0   -5.0    -123.0  35837.1  14.49  66.7  0.00     
  64.600  -18.7   -4.9    -120.8  36180.0  14.49  66.7  0.01     
  64.700  -18.4   -4.9    -118.9  36480.0  14.48  66.7  -0.01    
  64.800  -18.0   -4.7    -116.2  36898.6  14.50  66.7  0.00     
  64.900  -16.9   -4.5    -109.7  37918.3  14.48  66.7  -0.00    
  65.000  -15.3   -4.0    -98.8   39625.7  14.49  66.7  0.00     
  65.100  -13.3   -3.5    -86.4   41565.7  14.48  66.7  -0.00    
  65.200  -11.7   -3.1    -75.5   43280.0  14.50  66.7  0.01     
  65.300  -10.9   -2.9    -70.5   44053.3  14.48  66.7  -0.00    
  65.400  -11.2   -3.0    -72.7   43718.3  14.48  66.7  0.01     
  65.500  -12.8   -3.4    -82.9   42112.9  14.48  66.7  -0.00    
  65.600  -15.0   -4.0    -97.3   39861.7  14.48  66.7  -0.00    
  65.700  -16.8   -4.4    -108.6  38090.0  14.48  66.7  -999.25  
  65.800  -17.4   -4.6    -112.9  37423.3  14.50  66.7  0.00     
  65.900  -16.6   -4.4    -107.7  38231.7  14.48  66.7  0.00     
  66.000  -15.2   -4.0    -98.3   39706.7  14.47  66.7  -0.01    
  66.100  -13.4   -3.5    -86.9   41498.6  14.49  66.7  0.00     
  66.200  -11.8   -3.1    -76.5   43126.7  14.49  66.7  -0.00    
  66.300  -11.0   -2.9    -71.1   43967.1  14.48  66.7  -0.00    
  66.400  -11.1   -2.9    -72.0   43823.3  14.50  66.7  0.00     
  66.500  -12.0   -3.2    -77.7   42927.1  14.48  66.7  -0.00    
  66.600  -13.5   -3.6    -87.1   41461.4  14.50  66.7  0.00     
  66.700  -15.0   -4.0    -97.4   39840.0  14.48  66.7  -0.00    
  66.800  -16.6   -4.4    -107.6  38245.7  14.48  66.7  -0.00    
  66.900  -18.1   -4.8    -117.4  36711.4  14.49  66.7  0.00     
  67.000  -19.3   -5.1    -125.0  35523.3  14.48  66.7  -0.00    
  67.100  -20.0   -5.3    -129.3  34857.1  14.47  66.7  -0.00    
  67.200  -19.8   -5.2    -128.4  34998.3  14.49  66.7  -0.00    
  67.300  -19.3   -5.1    -124.8  35553.3  14.49  66.7  0.00     
  67.400  -18.8   -5.0    -122.0  35997.1  14.48  66.7  -0.00    
  67.500  -18.8   -5.0    -121.6  36051.7  14.49  66.7  0.01     
  67.600  -19.6   -5.2    -127.1  35195.7  14.49  66.7  -0.00    
  67.700  -20.7   -5.5    -134.2  34078.6  14.49  66.7  -0.00    
  67.800  -20.9   -5.5    -135.1  33950.0  14.49  66.7  0.00     
  67.900  -20.7   -5.5    -133.9  34133.3  14.49  66.7  0.00     
  68.000  -20.9   -5.5    -135.3  33913.3  14.49  66.7  -0.00    
  68.100  -21.5   -5.7    -139.0  33335.7  14.50  66.7  0.00     
  68.200  -21.8   -5.8    -141.1  32998.3  14.48  66.7  -0.00    
  68.300  -21.8   -5.8    -141.4  32961.4  14.48  66.7  0.00     
  68.400  -21.8   -5.8    -141.3  32965.0  14.47  66.7  -0.01    
  68.500  -21.9   -5.8    -141.7  32914.3  14.48  66.7  0.00     
  68.600  -22.0   -5.8    -142.3  32823.3  14.48  66.7  -0.00    
  68.700  -22.1   -5.8    -143.0  32704.3  14.49  66.7  -0.00    
  68.800  -22.2   -5.9    -144.0  32552.9  14.48  66.7  0.00     
  68.900  -22.2   -5.9    -143.6  32616.7  14.48  66.7  0.00     
  69.000  -21.9   -5.8    -141.9  32880.0  14.48  66.7  0.01     
  69.100  -21.7   -5.7    -140.6  33080.0  14.46  66.7  -0.01    
  69.200  -21.9   -5.8    -141.5  32934.3  14.48  66.7  0.00     
  69.300  -21.8   -5.8    -141.1  33005.0  14.49  66.7  -999.25  
  69.400  -21.5   -5.7    -139.1  33313.3  14.48  66.7  0.00     
  69.500  -20.9   -5.5    -135.0  33955.7  14.46  66.7  -0.01    
  69.600  -20.1   -5.3    -130.3  34688.6  14.48  66.7  0.00     
  69.700  -19.4   -5.1    -125.7  35418.3  14.47  66.7  -0.00    
  69.800  -18.8   -5.0    -121.9  36012.9  14.48  66.7  -0.00    
  69.900  -18.3   -4.8    -118.7  36504.3  14.50  66.7  0.01     
  70.000  -17.6   -4.7    -114.1  37238.6  14.50  66.7  -0.01    
  70.100  -16.7   -4.4    -108.2  38160.0  14.50  66.7  0.00     
  70.200  -15.7   -4.2    -101.8  39151.4  14.48  66.7  0.00     
  70.300  -15.1   -4.0    -97.8   39781.7  14.49  66.7  -0.00    
  70.400  -14.6   -3.9    -94.8   40247.1  14.48  66.7  0.00     
  70.500  -14.1   -3.7    -91.4   40794.0  14.48  66.7  -0.01    
  70.600  -13.7   -3.6    -88.7   41207.1  14.49  66.7  0.00     
  70.700  -13.3   -3.5    -86.3   41585.7  14.49  66.7  -999.25  
  70.800  -12.9   -3.4    -83.7   42000.0  14.48  66.7  0.00     
  70.900  -13.5   -3.6    -87.2   41438.3  14.49  66.7  0.00     
  71.000  -14.3   -3.8    -92.5   40608.6  14.48  66.7  0.00     
  71.100  -14.3   -3.8    -92.9   40554.3  14.48  66.7  -0.00    
  71.200  -13.6   -3.6    -87.8   41350.0  14.48  66.7  0.00     
  71.300  -12.8   -3.4    -82.8   42132.9  14.49  66.7  -0.00    
  71.400  -12.3   -3.3    -79.7   42617.5  14.49  66.7  0.00     
  71.500  -12.0   -3.2    -77.8   42910.0  14.48  66.7  -0.00    
  71.600  -11.8   -3.1    -76.6   43108.6  14.48  66.7  0.01     
  71.700  -11.9   -3.1    -77.2   43017.1  14.47  66.7  -0.01    
  71.800  -12.8   -3.4    -82.6   42162.5  14.48  66.7  -0.00    
  71.900  -13.9   -3.7    -89.8   41043.3  14.49  66.7  0.00     
  72.000  -15.0   -4.0    -97.4   39851.4  14.50  66.7  -0.00    
  72.100  -16.2   -4.3    -105.0  38650.0  14.49  66.7  0.00     
  72.200  -17.2   -4.6    -111.6  37627.1  14.49  66.7  0.00     
  72.300  -18.0   -4.7    -116.3  36893.3  14.47  66.7  -0.00    
  72.400  -18.7   -5.0    -121.4  36091.7  14.49  66.7  -0.00    
  72.500  -19.5   -5.2    -126.5  35294.3  14.49  66.7  0.00     
  72.600  -20.2   -5.3    -130.9  34596.7  14.47  66.7  0.00     
  72.700  -21.5   -5.7    -139.1  33310.0  14.48  66.7  0.00     
  72.800  -22.5   -5.9    -145.5  32318.3  14.47  66.7  -0.00    
  72.900  -22.5   -5.9    -145.6  32301.4  14.48  66.7  -0.00    
  73.000  -22.2   -5.9    -143.5  32630.0  14.48  66.7  0.00     
  73.100  -21.8   -5.8    -141.0  33026.7  14.48  66.7  -0.00    
  73.200  -21.2   -5.6    -137.0  33640.0  14.49  66.7  -999.25  
  73.300  -20.4   -5.4    -131.9  34437.1  14.49  66.7  0.00     
  73.400  -19.5   -5.1    -126.1  35355.7  14.48  66.7  -0.00    
  73.500  -18.7   -4.9    -121.2  36115.0  14.48  66.7  -0.00    
  73.600  -18.3   -4.8    -118.5  36542.9  14.49  66.7  0.00     
  73.700  -17.8   -4.7    -115.3  37038.6  14.49  66.7  0.00     
  73.800  -17.5   -4.6    -113.3  37355.0  14.49  66.7  -0.00    
  73.900  -17.2   -4.5    -111.3  37670.0  14.47  66.7  0.00     
  74.000  -16.3   -4.3    -105.7  38551.7  14.48  66.7  -0.00    
  74.100  -15.0   -4.0    -97.2   39880.0  14.49  66.7  -0.00    
  74.200  -13.9   -3.7    -89.8   41035.0  14.50  66.7  0.00     
  74.300  -13.5   -3.6    -87.5   41396.7  14.49  66.7  -0.00    
  74.400  -13.7   -3.6    -88.4   41250.0  14.49  66.7  0.01     
  74.500  -14.3   -3.8    -92.3   40650.0  14.48  66.7  -0.01    
  74.600  -15.1   -4.0    -97.5   39826.7  14.50  66.7  0.00     
  74.700  -15.7   -4.2    -101.9  39145.0  14.48  66.7  0.00     
  74.800  -16.5   -4.4    -106.9  38360.0  14.48  66.7  -999.25  
  74.900  -17.5   -4.6    -113.4  37338.3  14.49  66.7  -0.00    
  75.000  -18.6   -4.9    -120.7  36205.7  14.49  66.7  -0.00    
  75.100  -19.1   -5.0    -123.4  35775.0  14.48  66.7  0.00     
  75.200  -18.7   -4.9    -121.0  36158.6  14.49  66.7  -0.01    
  75.300  -17.8   -4.7    -115.3  37037.1  14.49  66.7  0.00     
  75.400  -17.1   -4.5    -110.8  37750.0  14.46  66.7  0.01     
  75.500  -16.1   -4.3    -104.4  38757.5  14.48  66.7  -0.01    
  75.600  -14.5   -3.8    -93.8   40408.3  14.47  66.7  0.00     
  75.700  -13.4   -3.5    -86.6   41541.4  14.48  66.7  0.00     
  75.800  -13.4   -3.5    -86.8   41507.1  14.48  66.7  -0.00    
  75.900  -14.4   -3.8    -93.5   40458.6  14.48  66.7  0.00     
  76.000  -15.5   -4.1    -100.2  39410.0  14.48  66.7  -0.00    
  76.100  -16.0   -4.2    -103.9  38833.3  14.49  66.7  0.00     
  76.200  -16.1   -4.2    -103.9  38825.0  14.48  66.7  -999.25  
  76.300  -15.3   -4.1    -99.3   39554.3  14.49  66.7  0.00     
  76.400  -14.1   -3.7    -91.0   40841.7  14.47  66.7  -0.00    
