~Version Information
 VERS.                2.0:  CWLS LOG ASCII STANDARD -VERSION 2.0
 WRAP.                 NO:  ONE LINE PER DEPTH STEP
~WELL INFORMATION BLOCK
#MNEM.UNIT       DATA		            DESCRIPTION OF MNEMONIC
#---------    -------------            ------------------------
 STRT.FT  39.400                         :START DEPTH
 STOP.FT  309.900                        :STOP DEPTH
 STEP.FT  0.100                          :STEP    UP_HOLE  
 NULL.    -999.25                        :NULL VALUE
 COMP.    CARLETON                       :COMPANY
 WELL.    658966_PUMPTROLL                                             :WELL
 FLD .    NORTHFIELD 71-B                :FIELD\LOCATION
 LOC .    31    112   19                 :LOCATION
 CNTY.    RICE                           :COUNTY
 STAT.    ACDBCD                         :STATE
 CTRY.    USA                            :COUNTRY
 SRVC.    TRUCK                          :SERVICE COMPANY
 DATE.    03/20/2001                     :LOG DATE
 API .                                       :API NUMBER
 LIC .                                   :LICENSE NUMBER
~Curve Information Block
#MNEM.UNIT      API CODE     Curve Description
#---------    -------------  ------------------------
 DEPT     .FT        00 001 00 00          :  1  DEPTH   
 FLOW_SL  .LIT/MIN   00 000 00 00          :  2  FLOW_SL             
 FLOW_SL  .GAL/MIN   00 000 00 00          :  3  FLOW_SL             
 FLOW_SL  .FT/MIN    00 000 00 00          :  4  FLOW_SL             
 FLOW_SL  .CPS       00 000 00 00          :  5  FLOW_SL             
 RES(FL)  .OHM-M     00 000 00 00          :  6  RES(FL)             
 TEMP     .DEG_F     00 660 00 00          :  7  TEMPERATURE         
 DEL_TEMP .DEG_F     00 000 00 00          :  8  SAMPLE DELTA TEMP   
~Parameter Information Block
#MNEM.UNIT   Information     Description
#---------- ---------------  ------------------------
 FILE.      PROCESSED          :File Type
 FIID.      9721SL             :File Type Identifier
 VERS.      1.0                :System Version
 SER .      1                  :System Serial Number
 TRUK.      .980362            :Truck Calibration Number
 TOOL.        1163             :Tool Serial Number
 TIME.      1855               :Time    HrHrMinMin
 LAT .                         :Latitude
 LON .                         :Longitude
 LMF .                         :Log Measured From
 DMF .                         :Driller Measured From
 PD  .      4101               :Permanent Data
 PDEV.FT                       :Elevation Permanent Data
 EKB .FT                       :Elevation Kelly Bushing
 ELEV.FT                       :Elevation DF
 EGL .FT    948                :Elevation Ground Level
 DRDP.FT    25                 :Driller's Depth
 CASD.FT    6                  :Casing Diameter
 CASB.FT                       :Casing Bottom
 CASX.                         :Casing Type
 CAST.IN    0                  :Casing Thickness
 TNOC.                         :Time Circulation Stopped
 LOGU.      C-2                :Logging Unit
 RECB.      TIPPING            :Recorded By
 OSR1.                         :Other Services
 OSR2.                         :Other Services
 OSR3.                         :Other Services
 BS  .IN           6           :Bit Size
 MST .F                        :Mean Surface Temperature
 TGRD.F     0                  :Temperature Gradiant
 MAGN.      0                  :Magnetic Declination
 MDEN.      2.71               :Density Matrix
 MATR.      Dolomite           :Neutron Matrix
 DTMT.      54                 :Delta T Matrix
 DTFL.                         :Delta T Fluid
 MUDS.      0                  :Mud Sample Source
 MRS .      0                  :Mud Resistivity
 MTP .      0                  :Mud Temperature
 MFRS.                         :Resistivity Mud Filtrate
 MFTP.                         :Temperature Mud Filtrate
 MCRS.      0                  :Resistivity Mud Cake
 MCTP.                         :Temperature Mud Cake
 FTYP.      0                  :Fluid Type
 FD  .LB/G                     :Mud Weight
 DFV .S                        :Fluid Viscosity
 FPH .                         :Fuild PH
 ELCO.      2500               :Electron Cutoff
 CASL.IN                       :Casing Logger
 LOTD.FT                       :Logger TD
 ARTM.                         :Arrival Time
 DPTM.                         :Departure Time
 RIGN.                         :Rig Number
~Other Information
#MNEM.UNIT  Information      Description
#---------- ---------------  ------------------------
# -------------------------- 
~A DEPTH  FLOW_SL FLOW_SL FLOW_SL FLOW_SL RES(FL) TEMP  DEL_TEMP 
# ...
 161.300  37.3     9.9    241.8   92958.6  14.52  66.7  -0.00    
 161.400  37.5     9.9    242.7   93103.3  14.51  66.7  -0.00    
 161.500  37.3     9.9    241.5   92925.7  14.52  66.7  0.00     
 161.600  37.4     9.9    241.8   92971.4  14.51  66.7  -0.00    
 161.700  37.5     9.9    242.7   93100.0  14.52  66.7  0.00     
 161.800  37.5     9.9    243.1   93168.0  14.50  66.7  0.01     
 161.900  37.3     9.9    241.8   92962.9  14.52  66.7  -0.01    
 162.000  36.8     9.7    238.0   92373.3  14.53  66.7  0.00     
 162.100  35.8     9.5    231.8   91402.5  14.52  66.7  0.00     
 162.200  34.9     9.2    225.8   90452.9  14.50  66.7  0.00     
 162.300  33.7     8.9    217.9   89223.8  14.51  66.7  -0.00    
 162.400  32.0     8.5    207.3   87560.0  14.50  66.7  -0.00    
 162.500  30.4     8.0    196.9   85934.3  14.50  66.7  0.01     
 162.600  28.9     7.6    187.3   84427.5  14.51  66.7  -0.00    
 162.700  28.0     7.4    181.2   83468.6  14.52  66.7  0.00     
 162.800  27.5     7.3    177.8   82946.3  14.51  66.7  -0.00    
 162.900  26.7     7.1    172.9   82178.6  14.51  66.7  -0.00    
 163.000  25.0     6.6    161.7   80425.7  14.51  66.7  0.00     
 163.100  21.8     5.8    141.2   77215.0  14.52  66.7  -0.00    
 163.200  17.8     4.7    115.1   73130.0  14.50  66.7  -0.00    
 163.300  15.4     4.1    99.8    70730.0  14.51  66.7  0.00     
 163.400  15.9     4.2    103.0   71235.7  14.52  66.7  0.00     
 163.500  18.2     4.8    117.7   73524.3  14.50  66.7  -0.00    
 163.600  21.1     5.6    136.4   76467.1  14.51  66.7  -0.00    
 163.700  23.8     6.3    153.9   79200.0  14.50  66.7  0.00     
 163.800  25.6     6.8    165.7   81054.3  14.51  66.7  -0.00    
 163.900  26.7     7.1    172.9   82183.3  14.51  66.7  -0.00    
 164.000  27.6     7.3    178.7   83086.7  14.51  66.7  -0.00    
 164.100  28.2     7.5    182.9   83737.1  14.51  66.7  -999.25  
 164.200  28.7     7.6    186.0   84230.0  14.50  66.7  0.00     
 164.300  29.1     7.7    188.6   84635.0  14.50  66.7  0.00     
 164.400  29.2     7.7    189.2   84730.0  14.50  66.7  -0.01    
 164.500  29.5     7.8    191.2   85042.5  14.51  66.7  0.00     
 164.600  29.9     7.9    193.7   85436.7  14.51  66.7  0.00     
 164.700  29.9     7.9    193.9   85460.0  14.50  66.7  -0.00    
 164.800  29.7     7.9    192.5   85252.9  14.51  66.7  -0.00    
 164.900  29.3     7.7    189.5   84774.3  14.50  66.7  0.00     
 165.000  28.8     7.6    186.3   84281.4  14.51  66.7  -0.00    
 165.100  28.6     7.6    185.4   84140.0  14.52  66.7  0.00     
 165.200  29.1     7.7    188.3   84590.0  14.51  66.7  0.00     
 165.300  29.4     7.8    190.4   84922.9  14.51  66.7  -0.00    
 165.400  29.5     7.8    190.9   84991.4  14.50  66.7  0.00     
 165.500  29.4     7.8    190.4   84910.0  14.53  66.7  -999.25  
 165.600  29.2     7.7    189.3   84747.5  14.50  66.7  0.00     
 165.700  28.7     7.6    185.9   84212.9  14.51  66.7  -0.00    
 165.800  28.2     7.5    182.8   83725.0  14.50  66.7  -0.00    
 165.900  28.1     7.4    181.8   83568.8  14.50  66.7  0.01     
 166.000  27.8     7.3    179.9   83278.3  14.50  66.7  -0.01    
 166.100  27.4     7.2    177.2   82845.7  14.52  66.7  0.01     
 166.200  27.1     7.2    175.3   82544.3  14.49  66.7  0.00     
 166.300  27.0     7.1    174.9   82481.7  14.52  66.7  -0.00    
 166.400  26.9     7.1    173.9   82328.6  14.50  66.7  -0.00    
 166.500  26.8     7.1    173.7   82294.3  14.50  66.7  0.00     
 166.600  26.7     7.1    173.2   82221.4  14.49  66.7  -0.00    
 166.700  26.6     7.0    172.3   82081.4  14.50  66.7  0.00     
 166.800  26.6     7.0    172.4   82096.7  14.49  66.7  -0.00    
 166.900  26.7     7.1    173.0   82190.0  14.51  66.7  -0.00    
 167.000  26.9     7.1    174.1   82360.0  14.51  66.7  0.00     
 167.100  27.2     7.2    175.9   82640.0  14.49  66.7  -0.00    
 167.200  27.2     7.2    176.3   82704.3  14.49  66.7  -0.00    
 167.300  27.2     7.2    176.4   82724.3  14.50  66.7  -0.00    
 167.400  27.4     7.2    177.2   82857.1  14.51  66.7  0.00     
 167.500  27.4     7.2    177.1   82833.3  14.50  66.7  0.00     
 167.600  27.1     7.2    175.3   82544.3  14.49  66.7  0.00     
 167.700  27.0     7.1    174.9   82486.7  14.50  66.7  -0.00    
 167.800  27.3     7.2    176.6   82751.4  14.49  66.7  0.00     
 167.900  27.8     7.3    179.9   83276.7  14.49  66.7  -0.01    
 168.000  28.4     7.5    183.7   83871.7  14.50  66.7  0.00     
 168.100  29.2     7.7    189.3   84738.6  14.50  66.7  -0.01    
 168.200  29.9     7.9    193.7   85428.3  14.51  66.7  0.00     
 168.300  30.2     8.0    195.6   85735.7  14.49  66.7  -999.25  
 168.400  30.2     8.0    195.9   85771.4  14.51  66.7  -0.00    
 168.500  30.3     8.0    196.2   85821.7  14.50  66.7  0.00     
 168.600  30.4     8.0    197.1   85970.0  14.52  66.7  -0.00    
 168.700  30.6     8.1    198.0   86107.1  14.51  66.7  0.00     
 168.800  30.6     8.1    197.8   86080.0  14.50  66.7  0.00     
 168.900  30.6     8.1    198.0   86110.0  14.50  66.7  -0.00    
 169.000  30.6     8.1    198.2   86138.3  14.50  66.7  0.00     
 169.100  30.6     8.1    198.1   86115.7  14.51  66.7  0.00     
 169.200  29.9     7.9    193.7   85428.3  14.51  66.7  0.00     
 169.300  28.5     7.5    184.4   83977.1  14.49  66.7  -0.00    
 169.400  26.7     7.1    172.8   82164.3  14.51  66.7  0.00     
 169.500  25.3     6.7    164.1   80791.4  14.50  66.7  0.00     
 169.600  24.9     6.6    161.3   80356.7  14.51  66.7  -0.00    
 169.700  25.0     6.6    161.6   80408.3  14.50  66.7  -0.00    
 169.800  25.4     6.7    164.5   80857.1  14.49  66.7  -999.25  
 169.900  26.3     6.9    170.0   81721.4  14.51  66.7  0.00     
 170.000  27.3     7.2    176.8   82791.7  14.49  66.7  -0.00    
 170.100  28.5     7.5    184.2   83951.7  14.51  66.7  -0.00    
 170.200  29.4     7.8    190.6   84948.6  14.51  66.7  0.00     
 170.300  30.0     7.9    194.3   85530.0  14.50  66.7  -999.25  
 170.400  30.4     8.0    196.7   85910.0  14.51  66.7  -0.00    
 170.500  30.5     8.1    197.5   86025.0  14.50  66.7  0.00     
 170.600  30.4     8.0    197.1   85972.9  14.52  66.7  -999.25  
 170.700  30.7     8.1    198.5   86190.0  14.50  66.7  -0.00    
 170.800  31.3     8.3    202.8   86861.7  14.50  66.7  -0.00    
 170.900  32.4     8.6    209.8   87948.3  14.51  66.7  -0.00    
 171.000  33.8     8.9    218.6   89330.0  14.51  66.7  0.00     
 171.100  35.1     9.3    227.0   90642.9  14.52  66.7  -0.00    
 171.200  35.6     9.4    230.7   91232.9  14.51  66.7  -0.00    
 171.300  35.4     9.3    228.9   90952.9  14.51  66.7  0.00     
 171.400  35.0     9.2    226.4   90555.7  14.50  66.7  0.01     
 171.500  34.6     9.1    224.0   90176.7  14.51  66.7  -0.00    
 171.600  34.3     9.1    222.0   89870.0  14.53  66.7  0.00     
 171.700  34.0     9.0    220.0   89557.1  14.50  66.7  -0.01    
 171.800  33.5     8.8    216.8   89054.3  14.50  66.7  0.00     
 171.900  33.3     8.8    215.7   88884.3  14.51  66.7  0.00     
 172.000  33.3     8.8    215.7   88874.3  14.51  66.7  0.01     
 172.100  33.0     8.7    213.4   88516.7  14.50  66.7  -0.00    
 172.200  32.2     8.5    208.7   87781.3  14.50  66.7  -0.00    
 172.300  31.6     8.3    204.6   87144.3  14.51  66.7  0.00     
 172.400  31.0     8.2    200.9   86555.0  14.49  66.7  0.00     
 172.500  30.4     8.0    197.0   85957.1  14.52  66.7  -0.01    
 172.600  30.0     7.9    194.4   85541.7  14.51  66.7  0.01     
 172.700  29.4     7.8    190.2   84880.0  14.50  66.7  -0.01    
 172.800  28.6     7.6    185.2   84103.3  14.50  66.7  0.00     
 172.900  27.8     7.4    180.3   83328.6  14.50  66.7  -0.00    
 173.000  27.2     7.2    176.0   82668.6  14.52  66.7  0.01     
 173.100  27.4     7.2    177.1   82836.7  14.51  66.7  -0.00    
 173.200  27.9     7.4    180.6   83388.6  14.51  66.7  -0.00    
 173.300  28.1     7.4    182.2   83633.3  14.51  66.7  0.00     
 173.400  28.1     7.4    182.1   83624.3  14.50  66.7  -0.00    
