~Version Information
 VERS.                2.0:  CWLS LOG ASCII STANDARD -VERSION 2.0
 WRAP.                 NO:  ONE LINE PER DEPTH STEP
~WELL INFORMATION BLOCK
#MNEM.UNIT       DATA		            DESCRIPTION OF MNEMONIC
#---------    -------------            ------------------------
 STRT.FT  39.400                         :START DEPTH
 STOP.FT  309.900                        :STOP DEPTH
 STEP.FT  0.100                          :STEP    UP_HOLE  
 NULL.    -999.25                        :NULL VALUE
 COMP.    CARLETON                       :COMPANY
 WELL.    658966_PUMPTROLL                                             :WELL
 FLD .    NORTHFIELD 71-B                :FIELD\LOCATION
 LOC .    31    112   19                 :LOCATION
 CNTY.    RICE                           :COUNTY
 STAT.    ACDBCD                         :STATE
 CTRY.    USA                            :COUNTRY
 SRVC.    TRUCK                          :SERVICE COMPANY
 DATE.    03/20/2001                     :LOG DATE
 API .                                       :API NUMBER
 LIC .                                   :LICENSE NUMBER
~Curve Information Block
#MNEM.UNIT      API CODE     Curve Description
#---------    -------------  ------------------------
 DEPT     .FT        00 001 00 00          :  1  DEPTH   
 FLOW_SL  .LIT/MIN   00 000 00 00          :  2  FLOW_SL             
 FLOW_SL  .GAL/MIN   00 000 00 00          :  3  FLOW_SL             
 FLOW_SL  .FT/MIN    00 000 00 00          :  4  FLOW_SL             
 FLOW_SL  .CPS       00 000 00 00          :  5  FLOW_SL             
 RES(FL)  .OHM-M     00 000 00 00          :  6  RES(FL)             
 TEMP     .DEG_F     00 660 00 00          :  7  TEMPERATURE         
 DEL_TEMP .DEG_F     00 000 00 00          :  8  SAMPLE DELTA TEMP   
~Parameter Information Block
#MNEM.UNIT   Information     Description
#---------- ---------------  ------------------------
 FILE.      PROCESSED          :File Type
 FIID.      9721SL             :File Type Identifier
 VERS.      1.0                :System Version
 SER .      1                  :System Serial Number
 TRUK.      .980362            :Truck Calibration Number
 TOOL.        1163             :Tool Serial Number
 TIME.      1855               :Time    HrHrMinMin
 LAT .                         :Latitude
 LON .                         :Longitude
 LMF .                         :Log Measured From
 DMF .                         :Driller Measured From
 PD  .      4101               :Permanent Data
 PDEV.FT                       :Elevation Permanent Data
 EKB .FT                       :Elevation Kelly Bushing
 ELEV.FT                       :Elevation DF
 EGL .FT    948                :Elevation Ground Level
 DRDP.FT    25                 :Driller's Depth
 CASD.FT    6                  :Casing Diameter
 CASB.FT                       :Casing Bottom
 CASX.                         :Casing Type
 CAST.IN    0                  :Casing Thickness
 TNOC.                         :Time Circulation Stopped
 LOGU.      C-2                :Logging Unit
 RECB.      TIPPING            :Recorded By
 OSR1.                         :Other Services
 OSR2.                         :Other Services
 OSR3.                         :Other Services
 BS  .IN           6           :Bit Size
 MST .F                        :Mean Surface Temperature
 TGRD.F     0                  :Temperature Gradiant
 MAGN.      0                  :Magnetic Declination
 MDEN.      2.71               :Density Matrix
 MATR.      Dolomite           :Neutron Matrix
 DTMT.      54                 :Delta T Matrix
 DTFL.                         :Delta T Fluid
 MUDS.      0                  :Mud Sample Source
 MRS .      0                  :Mud Resistivity
 MTP .      0                  :Mud Temperature
 MFRS.                         :Resistivity Mud Filtrate
 MFTP.                         :Temperature Mud Filtrate
 MCRS.      0                  :Resistivity Mud Cake
 MCTP.                         :Temperature Mud Cake
 FTYP.      0                  :Fluid Type
 FD  .LB/G                     :Mud Weight
 DFV .S                        :Fluid Viscosity
 FPH .                         :Fuild PH
 ELCO.      2500               :Electron Cutoff
 CASL.IN                       :Casing Logger
 LOTD.FT                       :Logger TD
 ARTM.                         :Arrival Time
 DPTM.                         :Departure Time
 RIGN.                         :Rig Number
~Other Information
#MNEM.UNIT  Information      Description
#---------- ---------------  ------------------------
# -------------------------- 
~A DEPTH  FLOW_SL FLOW_SL FLOW_SL FLOW_SL RES(FL) TEMP  DEL_TEMP 
# ...
  75.900  -12.4   -3.3    -80.4   42516.7  14.54  66.7  0.00     
  76.000  -12.3   -3.3    -79.9   42581.7  14.53  66.7  -0.00    
  76.100  -13.3   -3.5    -86.2   41603.3  14.54  66.7  0.00     
  76.200  -14.9   -3.9    -96.5   39987.1  14.54  66.7  -0.00    
  76.300  -15.8   -4.2    -102.1  39118.3  14.54  66.7  0.00     
  76.400  -15.5   -4.1    -100.3  39388.3  14.53  66.7  0.00     
  76.500  -14.9   -3.9    -96.5   39991.7  14.54  66.7  -999.25  
  76.600  -14.3   -3.8    -92.6   40601.7  14.53  66.7  0.00     
  76.700  -13.6   -3.6    -87.9   41335.0  14.54  66.7  -0.01    
  76.800  -12.7   -3.3    -82.0   42261.7  14.54  66.7  -0.00    
  76.900  -11.6   -3.1    -75.0   43356.7  14.54  66.7  0.00     
  77.000  -11.1   -2.9    -72.1   43811.7  14.53  66.7  0.00     
  77.100  -11.5   -3.0    -74.5   43438.6  14.53  66.7  -0.00    
  77.200  -12.6   -3.3    -81.4   42348.3  14.54  66.7  0.00     
  77.300  -14.2   -3.8    -92.0   40700.0  14.54  66.7  0.00     
  77.400  -15.9   -4.2    -102.9  38993.3  14.54  66.7  -0.00    
  77.500  -16.9   -4.5    -109.2  38000.0  14.54  66.7  0.00     
  77.600  -17.0   -4.5    -109.9  37885.0  14.53  66.7  -0.00    
  77.700  -16.7   -4.4    -107.8  38216.7  14.53  66.7  -999.25  
  77.800  -16.4   -4.3    -106.4  38445.0  14.54  66.7  0.00     
  77.900  -16.5   -4.3    -106.5  38415.7  14.54  66.7  -0.00    
  78.000  -16.3   -4.3    -105.4  38593.3  14.54  66.7  0.00     
  78.100  -16.0   -4.2    -103.8  38842.0  14.54  66.7  -0.00    
  78.200  -15.6   -4.1    -101.3  39241.4  14.53  66.7  0.00     
  78.300  -15.0   -4.0    -97.4   39850.0  14.54  66.7  -0.00    
  78.400  -14.6   -3.9    -94.7   40266.7  14.53  66.7  0.00     
  78.500  -14.2   -3.8    -92.0   40688.6  14.53  66.7  -0.00    
  78.600  -13.7   -3.6    -88.8   41201.7  14.53  66.7  0.01     
  78.700  -13.3   -3.5    -86.0   41625.0  14.54  66.7  -0.00    
  78.800  -13.2   -3.5    -85.6   41695.0  14.54  66.7  0.00     
  78.900  -13.4   -3.5    -87.0   41478.3  14.54  66.7  0.00     
  79.000  -13.8   -3.6    -89.3   41116.0  14.54  66.7  -0.00    
  79.100  -14.0   -3.7    -91.0   40856.7  14.53  66.7  -999.25  
  79.200  -14.1   -3.7    -91.0   40846.7  14.54  66.7  -0.00    
  79.300  -14.0   -3.7    -90.6   40905.0  14.53  66.7  0.01     
  79.400  -14.2   -3.7    -91.9   40711.7  14.53  66.7  -999.25  
  79.500  -14.5   -3.8    -94.1   40356.7  14.54  66.7  -999.25  
  79.600  -14.7   -3.9    -94.9   40233.3  14.54  66.7  -0.00    
  79.700  -14.4   -3.8    -93.4   40478.3  14.52  66.7  0.00     
  79.800  -14.2   -3.8    -92.0   40692.9  14.54  66.7  -0.00    
  79.900  -14.2   -3.8    -92.2   40664.3  14.53  66.7  0.00     
  80.000  -14.5   -3.8    -93.6   40437.1  14.53  66.7  -0.00    
  80.100  -14.2   -3.8    -92.2   40657.1  14.53  66.7  -0.00    
  80.200  -14.0   -3.7    -90.6   40915.0  14.52  66.7  0.00     
  80.300  -13.8   -3.7    -89.6   41072.9  14.54  66.7  0.00     
  80.400  -14.0   -3.7    -90.9   40867.1  14.53  66.7  -0.00    
  80.500  -14.2   -3.8    -92.1   40676.7  14.53  66.7  -0.00    
  80.600  -14.0   -3.7    -90.4   40942.9  14.54  66.7  0.01     
  80.700  -13.2   -3.5    -85.7   41683.3  14.53  66.7  -0.00    
  80.800  -12.3   -3.2    -79.5   42655.7  14.54  66.7  -0.00    
  80.900  -11.3   -3.0    -72.9   43681.7  14.54  66.7  -999.25  
  81.000  -10.1   -2.7    -65.3   44881.7  14.53  66.7  -0.00    
  81.100  -8.7    -2.3    -56.6   46244.3  14.53  66.7  0.01     
  81.200  -7.6    -2.0    -49.3   47377.1  14.53  66.7  -0.00    
  81.300  -6.8    -1.8    -44.1   48198.3  14.53  66.7  -0.00    
  81.400  -5.9    -1.6    -38.1   49138.6  14.54  66.7  -0.00    
  81.500  -5.1    -1.4    -33.3   49882.0  14.53  66.7  0.00     
  81.600  -4.7    -1.2    -30.3   50351.7  14.54  66.7  -0.00    
  81.700  -4.5    -1.2    -29.3   50510.0  14.53  66.7  -0.00    
  81.800  -4.6    -1.2    -30.0   50398.3  14.53  66.7  0.01     
  81.900  -4.9    -1.3    -31.9   50101.4  14.54  66.7  -0.00    
  82.000  -5.3    -1.4    -34.2   49740.0  14.53  66.7  0.00     
  82.100  -5.7    -1.5    -36.9   49325.7  14.53  66.7  -0.00    
  82.200  -6.3    -1.7    -40.5   48752.9  14.54  66.7  -0.00    
  82.300  -6.9    -1.8    -44.9   48070.0  14.54  66.7  -0.00    
  82.400  -7.6    -2.0    -48.9   47440.0  14.54  66.7  -0.00    
  82.500  -8.2    -2.2    -53.4   46740.0  14.53  66.7  0.00     
  82.600  -9.1    -2.4    -58.7   45901.7  14.53  66.7  0.00     
  82.700  -10.0   -2.6    -64.8   44957.1  14.54  66.7  0.00     
  82.800  -11.0   -2.9    -71.3   43934.3  14.54  66.7  0.00     
  82.900  -11.9   -3.1    -76.9   43050.0  14.53  66.7  -0.00    
  83.000  -12.6   -3.3    -81.3   42374.3  14.53  66.7  -0.00    
  83.100  -12.8   -3.4    -83.0   42107.1  14.53  66.7  -0.00    
  83.200  -13.0   -3.4    -84.0   41951.7  14.54  66.7  0.00     
  83.300  -13.5   -3.6    -87.3   41421.4  14.54  66.7  -0.00    
  83.400  -14.1   -3.7    -91.3   40806.7  14.54  66.7  0.00     
  83.500  -14.3   -3.8    -92.8   40564.3  14.53  66.7  0.00     
  83.600  -14.5   -3.8    -94.0   40373.3  14.52  66.7  -0.00    
  83.700  -14.2   -3.8    -92.3   40651.4  14.54  66.7  0.00     
  83.800  -13.4   -3.6    -87.0   41471.7  14.53  66.7  -999.25  
  83.900  -12.9   -3.4    -83.2   42070.0  14.54  66.7  -0.00    
  84.000  -12.5   -3.3    -80.7   42458.3  14.54  66.7  0.00     
  84.100  -12.0   -3.2    -77.4   42972.9  14.54  66.7  -0.00    
  84.200  -11.2   -3.0    -72.7   43713.3  14.53  66.7  0.00     
  84.300  -10.6   -2.8    -68.7   44338.6  14.54  66.7  -999.25  
  84.400  -10.6   -2.8    -68.8   44325.7  14.53  66.7  0.00     
  84.500  -10.9   -2.9    -70.3   44094.3  14.53  66.7  0.00     
  84.600  -10.6   -2.8    -68.5   44380.0  14.53  66.7  -0.00    
  84.700  -9.7    -2.6    -62.6   45290.0  14.53  66.7  -999.25  
  84.800  -9.2    -2.4    -59.8   45738.6  14.53  66.7  0.00     
  84.900  -9.5    -2.5    -61.7   45435.7  14.54  66.7  0.00     
  85.000  -9.7    -2.6    -63.0   45234.3  14.53  66.7  -0.00    
  85.100  -9.5    -2.5    -61.8   45422.9  14.55  66.7  0.00     
  85.200  -9.2    -2.4    -59.9   45727.1  14.54  66.7  -0.00    
  85.300  -9.1    -2.4    -59.1   45846.3  14.53  66.7  0.00     
  85.400  -9.3    -2.5    -60.3   45654.3  14.53  66.7  -0.00    
  85.500  -9.4    -2.5    -60.9   45560.0  14.53  66.7  0.00     
  85.600  -9.5    -2.5    -61.6   45448.6  14.54  66.7  0.00     
  85.700  -9.7    -2.6    -62.6   45304.3  14.53  66.7  -0.00    
  85.800  -9.8    -2.6    -63.2   45201.7  14.53  66.7  -0.00    
  85.900  -9.9    -2.6    -64.1   45060.0  14.53  66.7  0.00     
  86.000  -10.0   -2.7    -65.0   44922.9  14.53  66.7  0.00     
  86.100  -10.3   -2.7    -66.7   44647.1  14.53  66.7  -0.00    
  86.200  -10.7   -2.8    -69.2   44266.7  14.53  66.7  0.01     
  86.300  -10.8   -2.9    -70.1   44120.0  14.54  66.7  -0.00    
  86.400  -10.7   -2.8    -69.1   44274.3  14.54  66.7  0.00     
  86.500  -10.4   -2.7    -67.4   44546.7  14.54  66.7  -999.25  
  86.600  -10.5   -2.8    -67.8   44488.3  14.53  66.7  -0.00    
  86.700  -11.1   -2.9    -71.9   43842.5  14.53  66.7  -0.00    
  86.800  -11.8   -3.1    -76.2   43171.4  14.53  66.7  0.00     
  86.900  -11.9   -3.1    -77.0   43041.4  14.53  66.7  0.00     
  87.000  -11.7   -3.1    -75.5   43274.3  14.53  66.7  -0.01    
  87.100  -11.6   -3.1    -75.2   43321.4  14.53  66.7  0.00     
  87.200  -12.1   -3.2    -78.5   42810.0  14.52  66.7  0.01     
  87.300  -12.7   -3.3    -81.9   42268.3  14.53  66.7  -0.00    
  87.400  -13.0   -3.4    -84.2   41912.5  14.54  66.7  -0.00    
  87.500  -13.3   -3.5    -86.2   41604.3  14.53  66.7  -0.00    
  87.600  -13.6   -3.6    -88.2   41295.0  14.53  66.7  0.00     
  87.700  -14.0   -3.7    -90.7   40896.3  14.53  66.7  -0.00    
  87.800  -14.4   -3.8    -93.2   40497.1  14.53  66.7  0.00     
  87.900  -14.8   -3.9    -95.6   40121.4  14.53  66.7  -0.00    
  88.000  -15.2   -4.0    -98.3   39700.0  14.53  66.7  0.00     
