~Version Information
 VERS.                2.0:  CWLS LOG ASCII STANDARD -VERSION 2.0
 WRAP.                 NO:  ONE LINE PER DEPTH STEP
~WELL INFORMATION BLOCK
#MNEM.UNIT       DATA		            DESCRIPTION OF MNEMONIC
#---------    -------------            ------------------------
 STRT.FT  27.800                         :START DEPTH
 STOP.FT  314.400                        :STOP DEPTH
 STEP.FT  0.100                          :STEP    UP_HOLE  
 NULL.    -999.25                        :NULL VALUE
 COMP.    CARLETON                       :COMPANY
 WELL.    658966_AMBTROLL                                              :WELL
 FLD .    NORTHFIELD 71-B                :FIELD\LOCATION
 LOC .    31    112   19                 :LOCATION
 CNTY.    RICE                           :COUNTY
 STAT.    ACDBCD                         :STATE
 CTRY.    USA                            :COUNTRY
 SRVC.    TRUCK                          :SERVICE COMPANY
 DATE.    03/20/2001                     :LOG DATE
 API .                                       :API NUMBER
 LIC .                                   :LICENSE NUMBER
~Curve Information Block
#MNEM.UNIT      API CODE     Curve Description
#---------    -------------  ------------------------
 DEPT     .FT        00 001 00 00          :  1  DEPTH   
 FLOW_SL  .LIT/MIN   00 000 00 00          :  2  FLOW_SL             
 FLOW_SL  .GAL/MIN   00 000 00 00          :  3  FLOW_SL             
 FLOW_SL  .FT/MIN    00 000 00 00          :  4  FLOW_SL             
 FLOW_SL  .CPS       00 000 00 00          :  5  FLOW_SL             
 RES(FL)  .OHM-M     00 000 00 00          :  6  RES(FL)             
 TEMP     .DEG_F     00 660 00 00          :  7  TEMPERATURE         
 DEL_TEMP .DEG_F     00 000 00 00          :  8  SAMPLE DELTA TEMP   
~Parameter Information Block
#MNEM.UNIT   Information     Description
#---------- ---------------  ------------------------
 FILE.      PROCESSED          :File Type
 FIID.      9721SL             :File Type Identifier
 VERS.      1.0                :System Version
 SER .      1                  :System Serial Number
 TRUK.      .980362            :Truck Calibration Number
 TOOL.        1163             :Tool Serial Number
 TIME.      1529               :Time    HrHrMinMin
 LAT .                         :Latitude
 LON .                         :Longitude
 LMF .                         :Log Measured From
 DMF .                         :Driller Measured From
 PD  .      4101               :Permanent Data
 PDEV.FT                       :Elevation Permanent Data
 EKB .FT                       :Elevation Kelly Bushing
 ELEV.FT                       :Elevation DF
 EGL .FT    948                :Elevation Ground Level
 DRDP.FT    25                 :Driller's Depth
 CASD.FT    6                  :Casing Diameter
 CASB.FT                       :Casing Bottom
 CASX.                         :Casing Type
 CAST.IN    0                  :Casing Thickness
 TNOC.                         :Time Circulation Stopped
 LOGU.      C-2                :Logging Unit
 RECB.      TIPPING            :Recorded By
 OSR1.                         :Other Services
 OSR2.                         :Other Services
 OSR3.                         :Other Services
 BS  .IN           6           :Bit Size
 MST .F                        :Mean Surface Temperature
 TGRD.F     0                  :Temperature Gradiant
 MAGN.      0                  :Magnetic Declination
 MDEN.      2.71               :Density Matrix
 MATR.      Dolomite           :Neutron Matrix
 DTMT.      54                 :Delta T Matrix
 DTFL.                         :Delta T Fluid
 MUDS.      0                  :Mud Sample Source
 MRS .      0                  :Mud Resistivity
 MTP .      0                  :Mud Temperature
 MFRS.                         :Resistivity Mud Filtrate
 MFTP.                         :Temperature Mud Filtrate
 MCRS.      0                  :Resistivity Mud Cake
 MCTP.                         :Temperature Mud Cake
 FTYP.      0                  :Fluid Type
 FD  .LB/G                     :Mud Weight
 DFV .S                        :Fluid Viscosity
 FPH .                         :Fuild PH
 ELCO.      2500               :Electron Cutoff
 CASL.IN                       :Casing Logger
 LOTD.FT                       :Logger TD
 ARTM.                         :Arrival Time
 DPTM.                         :Departure Time
 RIGN.                         :Rig Number
~Other Information
#MNEM.UNIT  Information      Description
#---------- ---------------  ------------------------
# -------------------------- 
~A DEPTH  FLOW_SL FLOW_SL FLOW_SL FLOW_SL RES(FL) TEMP  DEL_TEMP 
# ...
 271.700  24.2     6.4    156.8   79647.5  14.48  66.7  -0.00    
 271.800  22.6     6.0    146.1   77985.7  14.50  66.7  -0.00    
 271.900  21.3     5.6    137.8   76682.9  14.51  66.7  0.00     
 272.000  20.9     5.5    135.5   76326.3  14.51  66.7  0.00     
 272.100  21.0     5.5    135.9   76386.7  14.50  66.7  -0.00    
 272.200  21.1     5.6    136.5   76477.5  14.51  66.7  -0.00    
 272.300  20.9     5.5    135.5   76321.7  14.51  66.7  0.00     
 272.400  20.7     5.5    134.3   76132.9  14.51  66.7  -0.00    
 272.500  20.8     5.5    134.6   76178.3  14.53  66.7  0.00     
 272.600  21.2     5.6    137.1   76564.3  14.50  66.7  0.00     
 272.700  21.7     5.7    140.3   77075.0  14.52  66.7  0.00     
 272.800  22.4     5.9    145.2   77844.3  14.49  66.7  -0.01    
 272.900  23.5     6.2    152.2   78938.8  14.50  66.7  0.00     
 273.000  24.0     6.3    155.1   79384.3  14.51  66.7  0.01     
 273.100  23.8     6.3    154.2   79245.7  14.51  66.7  -0.00    
 273.200  23.5     6.2    152.2   78941.4  14.51  66.7  -0.00    
 273.300  23.4     6.2    151.2   78783.3  14.51  66.7  -0.00    
 273.400  23.3     6.2    150.8   78720.0  14.51  66.7  0.00     
 273.500  23.5     6.2    151.9   78888.3  14.50  66.7  -999.25  
 273.600  23.6     6.2    152.9   79040.0  14.51  66.7  -0.00    
 273.700  24.0     6.3    155.2   79397.5  14.50  66.7  0.00     
 273.800  24.6     6.5    159.5   80071.4  14.49  66.7  0.00     
 273.900  25.2     6.7    163.2   80662.5  14.51  66.7  -0.01    
 274.000  25.3     6.7    163.7   80735.7  14.51  66.7  0.01     
 274.100  24.9     6.6    161.0   80311.1  14.51  66.7  -0.00    
 274.200  24.6     6.5    159.5   80071.4  14.50  66.7  -0.00    
 274.300  24.5     6.5    158.7   79948.3  14.52  66.7  0.00     
 274.400  24.2     6.4    156.8   79651.3  14.50  66.7  0.00     
 274.500  23.3     6.1    150.7   78694.3  14.49  66.7  -0.00    
 274.600  21.8     5.8    141.3   77222.5  14.51  66.7  0.00     
 274.700  20.6     5.4    133.5   76010.0  14.53  66.7  -0.00    
 274.800  20.5     5.4    132.8   75890.0  14.52  66.7  -999.25  
 274.900  21.0     5.5    135.7   76356.3  14.51  66.7  0.00     
 275.000  21.4     5.6    138.4   76775.0  14.50  66.7  -0.00    
 275.100  21.3     5.6    138.2   76745.0  14.52  66.7  -0.00    
 275.200  21.2     5.6    137.4   76623.3  14.51  66.7  0.00     
 275.300  21.1     5.6    136.6   76494.3  14.52  66.7  -0.00    
 275.400  20.9     5.5    135.6   76341.4  14.51  66.7  0.00     
 275.500  20.8     5.5    134.5   76161.4  14.51  66.7  0.00     
 275.600  20.8     5.5    134.4   76150.0  14.52  66.7  -0.00    
 275.700  20.8     5.5    134.5   76167.1  14.50  66.7  -0.00    
 275.800  20.5     5.4    132.5   75842.5  14.51  66.7  0.00     
 275.900  20.4     5.4    132.3   75817.1  14.52  66.7  -0.00    
 276.000  20.4     5.4    132.4   75833.3  14.51  66.7  0.00     
 276.100  20.3     5.4    131.2   75647.1  14.52  66.7  -0.00    
 276.200  19.7     5.2    127.7   75102.9  14.52  66.7  0.00     
 276.300  19.0     5.0    123.1   74381.4  14.51  66.7  0.01     
 276.400  18.5     4.9    120.1   73900.0  14.52  66.7  -0.00    
 276.500  18.5     4.9    119.8   73861.4  14.51  66.7  -999.25  
 276.600  18.9     5.0    122.2   74242.9  14.51  66.7  -0.00    
 276.700  19.2     5.1    124.1   74535.0  14.54  66.7  0.00     
 276.800  19.6     5.2    126.6   74923.3  14.53  66.7  -0.00    
 276.900  20.0     5.3    129.7   75410.0  14.52  66.7  0.00     
 277.000  20.4     5.4    132.1   75785.0  14.52  66.7  -0.00    
 277.100  20.6     5.4    133.3   75973.3  14.52  66.7  0.00     
 277.200  20.5     5.4    132.8   75904.0  14.52  66.7  -0.00    
 277.300  20.5     5.4    132.5   75841.7  14.52  66.7  -0.00    
 277.400  20.3     5.4    131.7   75730.0  14.53  66.7  0.00     
 277.500  20.0     5.3    129.4   75368.6  14.52  66.7  0.00     
 277.600  19.7     5.2    127.7   75095.0  14.53  66.7  -0.00    
 277.700  19.4     5.1    125.6   74772.9  14.53  66.7  0.00     
 277.800  19.1     5.1    123.9   74496.3  14.52  66.7  0.00     
 277.900  18.6     4.9    120.7   73997.1  14.53  66.7  -999.25  
 278.000  18.0     4.7    116.3   73311.7  14.52  66.7  0.00     
 278.100  17.4     4.6    112.8   72760.0  14.52  66.7  0.00     
 278.200  16.9     4.5    109.3   72215.7  14.53  66.7  -0.00    
 278.300  16.1     4.3    104.2   71418.3  14.53  66.7  0.00     
 278.400  14.7     3.9    95.3    70021.4  14.52  66.7  -0.00    
 278.500  13.4     3.5    86.5    68641.4  14.53  66.7  0.00     
 278.600  12.6     3.3    81.8    67914.3  14.53  66.7  -0.00    
 278.700  12.6     3.3    81.9    67918.6  14.52  66.7  0.00     
 278.800  12.9     3.4    83.6    68185.7  14.52  66.7  0.00     
 278.900  13.2     3.5    85.2    68450.0  14.52  66.7  -0.00    
 279.000  13.5     3.6    87.5    68808.6  14.52  66.7  0.00     
 279.100  13.8     3.6    89.1    69058.3  14.52  66.7  0.00     
 279.200  13.9     3.7    90.3    69240.0  14.54  66.7  0.01     
 279.300  14.2     3.7    91.6    69448.3  14.53  66.7  -0.01    
 279.400  14.3     3.8    92.5    69588.3  14.51  66.7  0.00     
 279.500  14.3     3.8    92.7    69618.3  14.52  66.7  -0.00    
 279.600  14.2     3.7    91.7    69467.1  14.52  66.7  0.00     
 279.700  14.1     3.7    91.4    69410.0  14.52  66.7  0.00     
 279.800  14.1     3.7    91.2    69380.0  14.53  66.7  -999.25  
 279.900  13.9     3.7    89.9    69185.0  14.52  66.7  -0.00    
 280.000  13.6     3.6    88.0    68884.3  14.51  66.7  0.00     
 280.100  13.3     3.5    86.0    68571.7  14.52  66.7  -0.00    
 280.200  13.1     3.5    85.1    68425.0  14.53  66.7  0.00     
 280.300  13.2     3.5    85.2    68448.3  14.51  66.7  -0.00    
 280.400  13.5     3.6    87.2    68760.0  14.51  66.7  0.00     
 280.500  14.0     3.7    90.9    69328.3  14.54  66.7  0.00     
 280.600  14.6     3.9    94.6    69914.3  14.53  66.7  -0.00    
 280.700  15.0     4.0    97.4    70357.1  14.53  66.7  0.00     
 280.800  15.1     4.0    97.8    70412.9  14.52  66.7  0.00     
 280.900  14.8     3.9    95.9    70111.4  14.53  66.7  -0.00    
 281.000  14.4     3.8    93.0    69662.9  14.52  66.7  -0.01    
 281.100  13.9     3.7    89.7    69144.3  14.53  66.7  0.00     
 281.200  13.4     3.5    86.9    68705.7  14.52  66.7  -999.25  
 281.300  12.9     3.4    83.8    68222.9  14.53  66.7  0.00     
 281.400  12.2     3.2    79.0    67468.3  14.52  66.7  0.00     
 281.500  11.3     3.0    73.4    66590.0  14.52  66.7  0.00     
 281.600  10.5     2.8    68.2    65777.1  14.52  66.7  -0.00    
 281.700   9.9     2.6    64.1    65140.0  14.52  66.7  0.00     
 281.800   9.2     2.4    59.3    64384.3  14.53  66.7  -0.00    
 281.900   8.2     2.2    53.3    63448.6  14.51  66.7  -0.00    
 282.000   7.5     2.0    48.9    62750.0  14.53  66.7  0.00     
 282.100   7.4     2.0    48.1    62630.0  14.51  66.7  0.00     
 282.200   7.7     2.0    49.6    62873.3  14.52  66.7  -0.01    
 282.300   8.0     2.1    52.1    63260.0  14.52  66.7  0.00     
 282.400   8.4     2.2    54.6    63645.7  14.51  66.7  -0.00    
 282.500   8.7     2.3    56.1    63890.0  14.53  66.7  0.00     
 282.600   8.8     2.3    56.9    64008.3  14.53  66.7  0.00     
 282.700   8.9     2.4    57.7    64128.8  14.53  66.7  -0.00    
 282.800   9.1     2.4    59.1    64348.6  14.52  66.7  0.00     
 282.900   9.5     2.5    61.4    64715.0  14.53  66.7  -0.00    
 283.000  10.0     2.6    64.6    65222.9  14.51  66.7  0.00     
 283.100  10.5     2.8    68.0    65744.3  14.52  66.7  -0.00    
 283.200  10.9     2.9    70.4    66118.6  14.52  66.7  -0.00    
 283.300  10.9     2.9    70.9    66198.3  14.52  66.7  0.00     
 283.400  11.0     2.9    71.0    66214.3  14.52  66.7  -0.00    
 283.500  10.8     2.8    69.7    66018.8  14.52  66.7  -999.25  
 283.600  10.6     2.8    68.6    65847.1  14.53  66.7  -999.25  
 283.700  10.5     2.8    67.7    65701.3  14.50  66.7  0.00     
 283.800  10.2     2.7    66.0    65441.4  14.51  66.7  -0.00    
