~Version Information
 VERS.                2.0:  CWLS LOG ASCII STANDARD -VERSION 2.0
 WRAP.                 NO:  ONE LINE PER DEPTH STEP
~WELL INFORMATION BLOCK
#MNEM.UNIT       DATA		            DESCRIPTION OF MNEMONIC
#---------    -------------            ------------------------
 STRT.FT  39.400                         :START DEPTH
 STOP.FT  309.900                        :STOP DEPTH
 STEP.FT  0.100                          :STEP    UP_HOLE  
 NULL.    -999.25                        :NULL VALUE
 COMP.    CARLETON                       :COMPANY
 WELL.    658966_PUMPTROLL                                             :WELL
 FLD .    NORTHFIELD 71-B                :FIELD\LOCATION
 LOC .    31    112   19                 :LOCATION
 CNTY.    RICE                           :COUNTY
 STAT.    ACDBCD                         :STATE
 CTRY.    USA                            :COUNTRY
 SRVC.    TRUCK                          :SERVICE COMPANY
 DATE.    03/20/2001                     :LOG DATE
 API .                                       :API NUMBER
 LIC .                                   :LICENSE NUMBER
~Curve Information Block
#MNEM.UNIT      API CODE     Curve Description
#---------    -------------  ------------------------
 DEPT     .FT        00 001 00 00          :  1  DEPTH   
 FLOW_SL  .LIT/MIN   00 000 00 00          :  2  FLOW_SL             
 FLOW_SL  .GAL/MIN   00 000 00 00          :  3  FLOW_SL             
 FLOW_SL  .FT/MIN    00 000 00 00          :  4  FLOW_SL             
 FLOW_SL  .CPS       00 000 00 00          :  5  FLOW_SL             
 RES(FL)  .OHM-M     00 000 00 00          :  6  RES(FL)             
 TEMP     .DEG_F     00 660 00 00          :  7  TEMPERATURE         
 DEL_TEMP .DEG_F     00 000 00 00          :  8  SAMPLE DELTA TEMP   
~Parameter Information Block
#MNEM.UNIT   Information     Description
#---------- ---------------  ------------------------
 FILE.      PROCESSED          :File Type
 FIID.      9721SL             :File Type Identifier
 VERS.      1.0                :System Version
 SER .      1                  :System Serial Number
 TRUK.      .980362            :Truck Calibration Number
 TOOL.        1163             :Tool Serial Number
 TIME.      1855               :Time    HrHrMinMin
 LAT .                         :Latitude
 LON .                         :Longitude
 LMF .                         :Log Measured From
 DMF .                         :Driller Measured From
 PD  .      4101               :Permanent Data
 PDEV.FT                       :Elevation Permanent Data
 EKB .FT                       :Elevation Kelly Bushing
 ELEV.FT                       :Elevation DF
 EGL .FT    948                :Elevation Ground Level
 DRDP.FT    25                 :Driller's Depth
 CASD.FT    6                  :Casing Diameter
 CASB.FT                       :Casing Bottom
 CASX.                         :Casing Type
 CAST.IN    0                  :Casing Thickness
 TNOC.                         :Time Circulation Stopped
 LOGU.      C-2                :Logging Unit
 RECB.      TIPPING            :Recorded By
 OSR1.                         :Other Services
 OSR2.                         :Other Services
 OSR3.                         :Other Services
 BS  .IN           6           :Bit Size
 MST .F                        :Mean Surface Temperature
 TGRD.F     0                  :Temperature Gradiant
 MAGN.      0                  :Magnetic Declination
 MDEN.      2.71               :Density Matrix
 MATR.      Dolomite           :Neutron Matrix
 DTMT.      54                 :Delta T Matrix
 DTFL.                         :Delta T Fluid
 MUDS.      0                  :Mud Sample Source
 MRS .      0                  :Mud Resistivity
 MTP .      0                  :Mud Temperature
 MFRS.                         :Resistivity Mud Filtrate
 MFTP.                         :Temperature Mud Filtrate
 MCRS.      0                  :Resistivity Mud Cake
 MCTP.                         :Temperature Mud Cake
 FTYP.      0                  :Fluid Type
 FD  .LB/G                     :Mud Weight
 DFV .S                        :Fluid Viscosity
 FPH .                         :Fuild PH
 ELCO.      2500               :Electron Cutoff
 CASL.IN                       :Casing Logger
 LOTD.FT                       :Logger TD
 ARTM.                         :Arrival Time
 DPTM.                         :Departure Time
 RIGN.                         :Rig Number
~Other Information
#MNEM.UNIT  Information      Description
#---------- ---------------  ------------------------
# -------------------------- 
~A DEPTH  FLOW_SL FLOW_SL FLOW_SL FLOW_SL RES(FL) TEMP  DEL_TEMP 
# ...
  88.100  -15.3   -4.1    -99.3   39544.3  14.54  66.7  -0.00    
  88.200  -15.4   -4.1    -99.9   39455.7  14.53  66.7  0.01     
  88.300  -15.2   -4.0    -98.6   39665.0  14.53  66.7  -0.01    
  88.400  -14.5   -3.8    -93.7   40426.3  14.53  66.7  0.01     
  88.500  -13.4   -3.5    -86.8   41500.0  14.53  66.7  -0.00    
  88.600  -12.4   -3.3    -80.2   42548.3  14.53  66.7  0.00     
  88.700  -11.7   -3.1    -75.9   43215.0  14.52  66.7  -0.00    
  88.800  -11.5   -3.1    -74.8   43392.9  14.54  66.7  -0.00    
  88.900  -11.5   -3.0    -74.5   43438.3  14.52  66.7  0.00     
  89.000  -12.1   -3.2    -78.4   42830.0  14.53  66.7  0.00     
  89.100  -13.2   -3.5    -85.3   41744.3  14.54  66.7  -0.01    
  89.200  -13.5   -3.6    -87.5   41402.9  14.53  66.7  0.01     
  89.300  -13.0   -3.4    -83.9   41960.0  14.53  66.7  0.00     
  89.400  -12.3   -3.3    -79.7   42625.0  14.53  66.7  -0.00    
  89.500  -11.4   -3.0    -73.5   43587.5  14.53  66.7  0.00     
  89.600  -10.4   -2.8    -67.6   44515.0  14.53  66.7  -0.01    
  89.700  -9.7    -2.6    -63.0   45240.0  14.54  66.7  -0.00    
  89.800  -9.2    -2.4    -59.5   45781.4  14.53  66.7  0.00     
  89.900  -8.8    -2.3    -56.9   46185.7  14.53  66.7  -0.00    
  90.000  -8.4    -2.2    -54.1   46632.9  14.53  66.7  -0.00    
  90.100  -8.0    -2.1    -52.0   46958.3  14.53  66.7  0.00     
  90.200  -8.1    -2.1    -52.2   46922.9  14.54  66.7  -999.25  
  90.300  -8.5    -2.3    -55.3   46435.7  14.53  66.7  0.00     
  90.400  -8.9    -2.4    -57.8   46051.4  14.54  66.7  -0.00    
  90.500  -8.8    -2.3    -57.2   46147.1  14.52  66.7  -0.00    
  90.600  -8.5    -2.2    -54.8   46511.7  14.53  66.7  -0.00    
  90.700  -8.0    -2.1    -51.7   46997.1  14.54  66.7  -999.25  
  90.800  -7.5    -2.0    -48.2   47544.3  14.53  66.7  0.00     
  90.900  -7.1    -1.9    -46.0   47895.0  14.54  66.7  0.00     
  91.000  -6.8    -1.8    -43.9   48230.0  14.53  66.7  -0.00    
  91.100  -6.4    -1.7    -41.2   48648.3  14.53  66.7  0.00     
  91.200  -5.9    -1.6    -38.2   49112.9  14.53  66.7  0.00     
  91.300  -5.4    -1.4    -34.7   49661.4  14.54  66.7  -0.00    
  91.400  -4.8    -1.3    -31.1   50225.7  14.54  66.7  0.00     
  91.500  -4.5    -1.2    -29.1   50541.7  14.54  66.7  0.00     
  91.600  -4.5    -1.2    -29.1   50535.7  14.53  66.7  -0.01    
  91.700  -4.7    -1.3    -30.7   50290.0  14.53  66.7  0.00     
  91.800  -5.2    -1.4    -33.6   49845.0  14.54  66.7  -0.00    
  91.900  -5.8    -1.5    -37.3   49255.7  14.53  66.7  -0.00    
  92.000  -6.3    -1.7    -41.1   48671.4  14.52  66.7  0.01     
  92.100  -6.9    -1.8    -44.5   48132.9  14.53  66.7  -0.00    
  92.200  -7.4    -1.9    -47.7   47624.3  14.53  66.7  -0.00    
  92.300  -7.8    -2.1    -50.8   47141.4  14.53  66.7  0.00     
  92.400  -8.3    -2.2    -53.5   46715.0  14.54  66.7  -0.00    
  92.500  -8.6    -2.3    -55.8   46365.7  14.53  66.7  0.00     
  92.600  -8.9    -2.4    -57.8   46055.0  14.53  66.7  -0.00    
  92.700  -9.1    -2.4    -58.7   45906.3  14.53  66.7  0.00     
  92.800  -8.5    -2.2    -55.0   46482.9  14.52  66.7  0.00     
  92.900  -7.4    -2.0    -48.1   47571.7  14.53  66.7  -0.01    
  93.000  -6.5    -1.7    -42.2   48488.6  14.53  66.7  0.00     
  93.100  -6.2    -1.6    -40.3   48795.7  14.53  66.7  -999.25  
  93.200  -6.6    -1.7    -42.4   48455.7  14.53  66.7  -0.00    
  93.300  -7.0    -1.8    -45.3   48012.9  14.54  66.7  0.00     
  93.400  -7.4    -1.9    -47.6   47645.0  14.54  66.7  0.00     
  93.500  -7.6    -2.0    -49.4   47368.3  14.53  66.7  0.00     
  93.600  -7.8    -2.1    -50.7   47157.1  14.53  66.7  -999.25  
  93.700  -8.0    -2.1    -51.9   46980.0  14.53  66.7  -0.00    
  93.800  -8.3    -2.2    -54.0   46648.6  14.53  66.7  -0.00    
  93.900  -8.6    -2.3    -55.7   46381.4  14.54  66.7  0.00     
  94.000  -8.6    -2.3    -55.8   46362.9  14.53  66.7  0.00     
  94.100  -8.5    -2.2    -55.1   46468.6  14.52  66.7  -0.01    
  94.200  -8.5    -2.2    -54.8   46524.3  14.53  66.7  0.00     
  94.300  -8.8    -2.3    -56.7   46226.3  14.54  66.7  0.00     
  94.400  -9.4    -2.5    -61.1   45525.7  14.54  66.7  0.00     
  94.500  -10.0   -2.7    -65.0   44921.7  14.53  66.7  -0.00    
  94.600  -10.2   -2.7    -66.3   44725.0  14.52  66.7  -0.00    
  94.700  -10.1   -2.7    -65.5   44838.0  14.53  66.7  0.00     
  94.800  -9.6    -2.5    -62.3   45346.3  14.53  66.7  -0.00    
  94.900  -9.3    -2.5    -60.2   45680.0  14.53  66.7  0.00     
  95.000  -9.2    -2.4    -59.3   45811.4  14.53  66.7  0.00     
  95.100  -8.9    -2.3    -57.4   46108.3  14.52  66.7  -0.00    
  95.200  -8.7    -2.3    -56.7   46228.6  14.52  66.7  -0.00    
  95.300  -9.2    -2.4    -59.7   45748.6  14.53  66.7  0.00     
  95.400  -10.1   -2.7    -65.2   44888.3  14.53  66.7  -0.00    
  95.500  -10.9   -2.9    -70.3   44096.3  14.53  66.7  0.00     
  95.600  -11.4   -3.0    -74.0   43506.7  14.53  66.7  -0.00    
  95.700  -11.7   -3.1    -76.1   43187.1  14.54  66.7  0.00     
  95.800  -11.6   -3.1    -75.2   43328.6  14.53  66.7  0.00     
  95.900  -11.1   -2.9    -72.1   43815.7  14.54  66.7  -0.00    
  96.000  -10.9   -2.9    -70.6   44050.0  14.53  66.7  -0.00    
  96.100  -11.3   -3.0    -73.0   43665.7  14.53  66.7  0.00     
  96.200  -11.3   -3.0    -73.4   43610.0  14.53  66.7  0.00     
  96.300  -11.1   -2.9    -71.8   43860.0  14.54  66.7  -0.01    
  96.400  -10.6   -2.8    -68.5   44380.0  14.53  66.7  0.00     
  96.500  -9.4    -2.5    -61.0   45541.3  14.53  66.7  0.00     
  96.600  -8.1    -2.2    -52.8   46836.7  14.52  66.7  -0.00    
  96.700  -7.7    -2.0    -49.9   47283.3  14.52  66.7  -999.25  
  96.800  -7.9    -2.1    -51.4   47043.3  14.53  66.7  -0.00    
  96.900  -8.5    -2.2    -55.0   46490.0  14.54  66.7  0.01     
  97.000  -9.0    -2.4    -58.0   46024.3  14.53  66.7  -0.00    
  97.100  -9.2    -2.4    -59.5   45781.7  14.53  66.7  -0.00    
  97.200  -9.2    -2.4    -59.8   45732.9  14.52  66.7  -0.00    
  97.300  -8.7    -2.3    -56.4   46271.4  14.53  66.7  -0.00    
  97.400  -7.6    -2.0    -49.0   47421.4  14.53  66.7  0.00     
  97.500  -6.4    -1.7    -41.7   48575.0  14.53  66.7  0.00     
  97.600  -5.7    -1.5    -37.1   49290.0  14.53  66.7  0.00     
  97.700  -5.3    -1.4    -34.2   49745.7  14.53  66.7  -0.01    
  97.800  -4.8    -1.3    -31.0   50241.7  14.53  66.7  0.00     
  97.900  -4.3    -1.1    -27.5   50790.0  14.53  66.7  -0.00    
  98.000  -4.0    -1.1    -26.1   51013.3  14.53  66.7  0.00     
  98.100  -4.2    -1.1    -27.4   50815.0  14.53  66.7  -0.00    
  98.200  -4.6    -1.2    -29.7   50456.7  14.54  66.7  0.00     
  98.300  -5.0    -1.3    -32.7   49986.7  14.53  66.7  0.00     
  98.400  -5.7    -1.5    -37.1   49287.1  14.53  66.7  -0.00    
  98.500  -6.6    -1.7    -42.5   48438.3  14.54  66.7  -0.00    
  98.600  -7.4    -2.0    -48.0   47584.3  14.53  66.7  0.00     
  98.700  -8.1    -2.1    -52.5   46880.0  14.53  66.7  -999.25  
  98.800  -8.4    -2.2    -54.7   46534.3  14.54  66.7  -0.00    
  98.900  -8.3    -2.2    -53.9   46665.7  14.54  66.7  -0.00    
  99.000  -7.9    -2.1    -50.9   47128.3  14.53  66.7  -0.00    
  99.100  -7.4    -2.0    -47.9   47600.0  14.53  66.7  0.00     
  99.200  -7.2    -1.9    -46.4   47832.0  14.55  66.7  -0.00    
  99.300  -7.3    -1.9    -47.1   47731.4  14.53  66.7  0.00     
  99.400  -7.7    -2.0    -49.6   47331.7  14.53  66.7  0.00     
  99.500  -8.0    -2.1    -51.5   47035.0  14.54  66.7  -0.00    
  99.600  -8.1    -2.1    -52.6   46862.9  14.54  66.7  0.00     
  99.700  -8.3    -2.2    -54.0   46640.0  14.53  66.7  -0.00    
  99.800  -8.5    -2.3    -55.3   46447.1  14.53  66.7  -999.25  
  99.900  -8.6    -2.3    -56.0   46330.0  14.54  66.7  -0.00    
 100.000  -8.8    -2.3    -56.8   46201.4  14.53  66.7  0.00     
 100.100  -8.7    -2.3    -56.1   46308.6  14.53  66.7  0.00     
 100.200  -8.4    -2.2    -54.1   46632.9  14.54  66.7  -0.00    
