~Version Information
 VERS.                2.0:  CWLS LOG ASCII STANDARD -VERSION 2.0
 WRAP.                 NO:  ONE LINE PER DEPTH STEP
~WELL INFORMATION BLOCK
#MNEM.UNIT       DATA		            DESCRIPTION OF MNEMONIC
#---------    -------------            ------------------------
 STRT.FT  27.800                         :START DEPTH
 STOP.FT  314.400                        :STOP DEPTH
 STEP.FT  0.100                          :STEP    UP_HOLE  
 NULL.    -999.25                        :NULL VALUE
 COMP.    CARLETON                       :COMPANY
 WELL.    658966_AMBTROLL                                              :WELL
 FLD .    NORTHFIELD 71-B                :FIELD\LOCATION
 LOC .    31    112   19                 :LOCATION
 CNTY.    RICE                           :COUNTY
 STAT.    ACDBCD                         :STATE
 CTRY.    USA                            :COUNTRY
 SRVC.    TRUCK                          :SERVICE COMPANY
 DATE.    03/20/2001                     :LOG DATE
 API .                                       :API NUMBER
 LIC .                                   :LICENSE NUMBER
~Curve Information Block
#MNEM.UNIT      API CODE     Curve Description
#---------    -------------  ------------------------
 DEPT     .FT        00 001 00 00          :  1  DEPTH   
 FLOW_SL  .LIT/MIN   00 000 00 00          :  2  FLOW_SL             
 FLOW_SL  .GAL/MIN   00 000 00 00          :  3  FLOW_SL             
 FLOW_SL  .FT/MIN    00 000 00 00          :  4  FLOW_SL             
 FLOW_SL  .CPS       00 000 00 00          :  5  FLOW_SL             
 RES(FL)  .OHM-M     00 000 00 00          :  6  RES(FL)             
 TEMP     .DEG_F     00 660 00 00          :  7  TEMPERATURE         
 DEL_TEMP .DEG_F     00 000 00 00          :  8  SAMPLE DELTA TEMP   
~Parameter Information Block
#MNEM.UNIT   Information     Description
#---------- ---------------  ------------------------
 FILE.      PROCESSED          :File Type
 FIID.      9721SL             :File Type Identifier
 VERS.      1.0                :System Version
 SER .      1                  :System Serial Number
 TRUK.      .980362            :Truck Calibration Number
 TOOL.        1163             :Tool Serial Number
 TIME.      1529               :Time    HrHrMinMin
 LAT .                         :Latitude
 LON .                         :Longitude
 LMF .                         :Log Measured From
 DMF .                         :Driller Measured From
 PD  .      4101               :Permanent Data
 PDEV.FT                       :Elevation Permanent Data
 EKB .FT                       :Elevation Kelly Bushing
 ELEV.FT                       :Elevation DF
 EGL .FT    948                :Elevation Ground Level
 DRDP.FT    25                 :Driller's Depth
 CASD.FT    6                  :Casing Diameter
 CASB.FT                       :Casing Bottom
 CASX.                         :Casing Type
 CAST.IN    0                  :Casing Thickness
 TNOC.                         :Time Circulation Stopped
 LOGU.      C-2                :Logging Unit
 RECB.      TIPPING            :Recorded By
 OSR1.                         :Other Services
 OSR2.                         :Other Services
 OSR3.                         :Other Services
 BS  .IN           6           :Bit Size
 MST .F                        :Mean Surface Temperature
 TGRD.F     0                  :Temperature Gradiant
 MAGN.      0                  :Magnetic Declination
 MDEN.      2.71               :Density Matrix
 MATR.      Dolomite           :Neutron Matrix
 DTMT.      54                 :Delta T Matrix
 DTFL.                         :Delta T Fluid
 MUDS.      0                  :Mud Sample Source
 MRS .      0                  :Mud Resistivity
 MTP .      0                  :Mud Temperature
 MFRS.                         :Resistivity Mud Filtrate
 MFTP.                         :Temperature Mud Filtrate
 MCRS.      0                  :Resistivity Mud Cake
 MCTP.                         :Temperature Mud Cake
 FTYP.      0                  :Fluid Type
 FD  .LB/G                     :Mud Weight
 DFV .S                        :Fluid Viscosity
 FPH .                         :Fuild PH
 ELCO.      2500               :Electron Cutoff
 CASL.IN                       :Casing Logger
 LOTD.FT                       :Logger TD
 ARTM.                         :Arrival Time
 DPTM.                         :Departure Time
 RIGN.                         :Rig Number
~Other Information
#MNEM.UNIT  Information      Description
#---------- ---------------  ------------------------
# -------------------------- 
~A DEPTH  FLOW_SL FLOW_SL FLOW_SL FLOW_SL RES(FL) TEMP  DEL_TEMP 
  27.800  -999.25 -999.25 -999.25 -999.25 -999.25 -999.25 -999.25  
  27.900  -999.25 -999.25 -999.25 -999.25 -999.25 -999.25 -999.25  
  28.000  -999.25 -999.25 -999.25 -999.25 -999.25 -999.25 -999.25  
  28.100  -999.25 -999.25 -999.25 -999.25 -999.25 -999.25 -999.25  
  28.200  -999.25 -999.25 -999.25 -999.25 -999.25 -999.25 -999.25  
  28.300  -999.25 -999.25 -999.25 -999.25 -999.25 -999.25 -999.25  
  28.400  -999.25 -999.25 -999.25 -999.25 -999.25 -999.25 -999.25  
  28.500  -999.25 -999.25 -999.25 -999.25 -999.25 -999.25 -999.25  
  28.600  -999.25 -999.25 -999.25 -999.25 -999.25 -999.25 -999.25  
  28.700  -999.25 -999.25 -999.25 -999.25 -999.25 -999.25 -999.25  
  28.800  -999.25 -999.25 -999.25 -999.25 -999.25 -999.25 -999.25  
  28.900  -999.25 -999.25 -999.25 -999.25 -999.25 -999.25 -999.25  
  29.000  -999.25 -999.25 -999.25 -999.25 -999.25 -999.25 -999.25  
  29.100  -999.25 -999.25 -999.25 -999.25 -999.25 -999.25 -999.25  
  29.200  -999.25 -999.25 -999.25 -999.25 -999.25 -999.25 -999.25  
  29.300  -999.25 -999.25 -999.25 -999.25 -999.25 -999.25 -999.25  
  29.400  -999.25 -999.25 -999.25 -999.25 -999.25 -999.25 -999.25  
  29.500  -999.25 -999.25 -999.25 -999.25 -999.25 -999.25 -999.25  
  29.600  -999.25 -999.25 -999.25 -999.25 -999.25 -999.25 -999.25  
  29.700  -999.25 -999.25 -999.25 -999.25 -999.25 -999.25 -999.25  
  29.800  -999.25 -999.25 -999.25 -999.25 -999.25 -999.25 -999.25  
  29.900  -999.25 -999.25 -999.25 -999.25 -999.25 -999.25 -999.25  
  30.000  -999.25 -999.25 -999.25 -999.25 -999.25 -999.25 -999.25  
  30.100  -999.25 -999.25 -999.25 -999.25 -999.25 -999.25 -999.25  
  30.200  -999.25 -999.25 -999.25 -999.25 -999.25 -999.25 -999.25  
  30.300  -999.25 -999.25 -999.25 -999.25 -999.25 -999.25 -999.25  
  30.400  -999.25 -999.25 -999.25 -999.25 -999.25 -999.25 -999.25  
  30.500  -999.25 -999.25 -999.25 -999.25 -999.25 -999.25 -999.25  
  30.600  -999.25 -999.25 -999.25 -999.25 -999.25 -999.25 -999.25  
  30.700  -999.25 -999.25 -999.25 -999.25 -999.25 -999.25 -999.25  
  30.800  -999.25 -999.25 -999.25 -999.25 -999.25 -999.25 -999.25  
  30.900  -999.25 -999.25 -999.25 -999.25 -999.25 -999.25 -999.25  
  31.000  -999.25 -999.25 -999.25 -999.25 -999.25 -999.25 -999.25  
  31.100  -999.25 -999.25 -999.25 -999.25 -999.25 -999.25 -999.25  
  31.200  -999.25 -999.25 -999.25 -999.25 -999.25 -999.25 -999.25  
  31.300  -999.25 -999.25 -999.25 -999.25 -999.25 -999.25 -999.25  
  31.400  -999.25 -999.25 -999.25 -999.25 -999.25 -999.25 -999.25  
  31.500  -999.25 -999.25 -999.25 -999.25  14.45  -999.25 -999.25  
  31.600  -999.25 -999.25 -999.25 -999.25  14.45  -999.25 -999.25  
  31.700  -999.25 -999.25 -999.25 -999.25  14.45  66.7  -999.25  
  31.800  -999.25 -999.25 -999.25 -999.25  14.45  66.7  -999.25  
  31.900  -999.25 -999.25 -999.25 -999.25  14.45  66.7  -999.25  
  32.000  -16.6   -4.4    -107.4  38288.0  14.45  66.6  0.00     
  32.100  -16.5   -4.4    -106.7  38396.7  14.45  66.6  -0.01    
  32.200  -16.0   -4.2    -103.4  38914.0  14.45  66.6  -0.01    
  32.300  -15.2   -4.0    -98.1   39730.0  14.45  66.7  0.01     
  32.400  -14.5   -3.8    -93.6   40441.7  14.45  66.6  -0.00    
  32.500  -14.1   -3.7    -91.4   40780.0  14.45  66.6  0.00     
  32.600  -13.9   -3.7    -90.3   40958.3  14.45  66.6  -0.01    
  32.700  -13.6   -3.6    -88.1   41303.3  14.46  66.7  0.01     
  32.800  -13.1   -3.5    -84.8   41818.3  14.46  66.6  -0.01    
  32.900  -12.4   -3.3    -80.2   42541.7  14.45  66.7  0.01     
  33.000  -11.7   -3.1    -75.8   43237.1  14.45  66.6  -0.01    
  33.100  -11.9   -3.2    -77.3   43001.7  14.45  66.7  0.00     
  33.200  -12.9   -3.4    -83.5   42022.0  14.45  66.7  -0.00    
  33.300  -14.1   -3.7    -91.2   40825.0  14.46  66.7  0.00     
  33.400  -15.1   -4.0    -97.5   39830.0  14.45  66.7  0.00     
  33.500  -15.3   -4.1    -99.3   39547.1  14.45  66.6  0.00     
  33.600  -15.4   -4.1    -99.5   39515.0  14.46  66.6  0.00     
  33.700  -15.8   -4.2    -102.1  39104.3  14.45  66.6  -0.00    
  33.800  -16.2   -4.3    -104.7  38703.3  14.45  66.7  0.00     
  33.900  -16.0   -4.2    -103.6  38870.0  14.46  66.6  -0.00    
  34.000  -15.5   -4.1    -100.1  39418.3  14.45  66.7  0.00     
  34.100  -15.0   -4.0    -97.4   39846.7  14.46  66.6  -0.00    
  34.200  -14.8   -3.9    -95.6   40130.0  14.45  66.7  -0.00    
  34.300  -14.7   -3.9    -95.0   40216.7  14.45  66.7  0.00     
  34.400  -15.0   -4.0    -97.0   39910.0  14.46  66.7  0.00     
  34.500  -15.4   -4.1    -99.6   39495.0  14.45  66.6  -0.01    
  34.600  -15.8   -4.2    -102.4  39061.7  14.46  66.7  -0.00    
  34.700  -16.2   -4.3    -104.8  38690.0  14.45  66.7  0.00     
  34.800  -16.4   -4.3    -106.2  38470.0  14.45  66.7  -0.00    
  34.900  -16.7   -4.4    -107.9  38208.3  14.45  66.7  0.00     
  35.000  -16.9   -4.5    -109.7  37924.3  14.45  66.7  -0.00    
  35.100  -16.9   -4.5    -109.6  37936.0  14.46  66.7  0.00     
  35.200  -16.4   -4.3    -106.2  38465.0  14.45  66.6  -0.00    
  35.300  -15.1   -4.0    -98.1   39741.7  14.45  66.7  -0.00    
  35.400  -13.8   -3.7    -89.6   41073.3  14.46  66.7  0.00     
  35.500  -13.5   -3.6    -87.6   41385.0  14.45  66.7  -0.01    
  35.600  -14.3   -3.8    -92.7   40580.0  14.46  66.7  0.01     
  35.700  -15.6   -4.1    -100.9  39295.7  14.45  66.7  0.01     
  35.800  -16.6   -4.4    -107.3  38290.0  14.45  66.6  -0.00    
  35.900  -16.8   -4.4    -109.0  38030.0  14.45  66.6  -0.00    
  36.000  -16.5   -4.4    -106.9  38356.7  14.45  66.7  -0.00    
  36.100  -15.8   -4.2    -102.6  39036.0  14.46  66.7  0.00     
  36.200  -15.0   -4.0    -97.1   39897.1  14.46  66.7  -0.00    
  36.300  -14.3   -3.8    -92.4   40630.0  14.46  66.7  0.01     
  36.400  -14.1   -3.7    -91.5   40770.0  14.45  66.7  -0.00    
  36.500  -14.9   -3.9    -96.3   40012.9  14.45  66.7  -0.01    
  36.600  -16.2   -4.3    -105.0  38660.0  14.45  66.7  0.00     
  36.700  -17.5   -4.6    -113.4  37337.1  14.45  66.7  0.01     
  36.800  -18.6   -4.9    -120.6  36215.0  14.46  66.7  0.00     
  36.900  -19.6   -5.2    -126.9  35232.9  14.45  66.7  0.00     
  37.000  -20.6   -5.4    -133.2  34245.0  14.45  66.6  -0.01    
  37.100  -21.1   -5.6    -136.4  33738.3  14.46  66.7  0.00     
  37.200  -21.2   -5.6    -137.4  33580.0  14.45  66.7  -0.00    
  37.300  -21.3   -5.6    -138.0  33491.7  14.46  66.7  0.00     
  37.400  -21.3   -5.6    -137.9  33498.3  14.46  66.7  -0.00    
  37.500  -21.3   -5.6    -137.7  33531.7  14.46  66.7  0.00     
  37.600  -20.9   -5.5    -135.2  33925.7  14.45  66.7  -0.01    
  37.700  -20.4   -5.4    -132.4  34373.3  14.46  66.7  0.00     
  37.800  -20.1   -5.3    -130.2  34703.3  14.46  66.7  -0.00    
  37.900  -19.8   -5.2    -128.1  35038.6  14.46  66.7  0.00     
  38.000  -19.7   -5.2    -127.5  35128.0  14.46  66.7  -0.00    
  38.100  -19.6   -5.2    -127.0  35215.7  14.47  66.7  0.00     
  38.200  -19.4   -5.1    -125.6  35424.0  14.46  66.7  0.00     
  38.300  -19.2   -5.1    -124.2  35650.0  14.46  66.6  -0.01    
  38.400  -18.7   -4.9    -121.3  36101.4  14.47  66.7  0.00     
  38.500  -18.3   -4.8    -118.6  36520.0  14.46  66.7  -0.00    
  38.600  -18.1   -4.8    -117.4  36717.1  14.46  66.7  -0.00    
  38.700  -17.8   -4.7    -115.0  37091.7  14.47  66.7  0.00     
  38.800  -17.1   -4.5    -110.6  37775.7  14.46  66.7  -0.00    
  38.900  -16.4   -4.3    -106.3  38455.0  14.47  66.7  0.01     
  39.000  -16.4   -4.3    -106.5  38427.1  14.47  66.7  -0.00    
  39.100  -17.6   -4.6    -113.8  37286.7  14.46  66.7  -0.00    
  39.200  -18.8   -5.0    -121.8  36030.0  14.46  66.7  -0.00    
  39.300  -19.3   -5.1    -124.9  35533.3  14.47  66.7  -0.00    
  39.400  -19.1   -5.0    -123.4  35778.6  14.48  66.7  0.01     
  39.500  -18.9   -5.0    -122.3  35950.0  14.46  66.7  -0.00    
  39.600  -18.8   -5.0    -121.7  36043.3  14.46  66.7  -0.00    
  39.700  -17.9   -4.7    -116.0  36938.6  14.43  66.7  -0.00    
  39.800  -16.1   -4.3    -104.6  38726.7  14.47  66.7  0.00     
