~Version Information
 VERS.                2.0:  CWLS LOG ASCII STANDARD -VERSION 2.0
 WRAP.                 NO:  ONE LINE PER DEPTH STEP
~WELL INFORMATION BLOCK
#MNEM.UNIT       DATA		            DESCRIPTION OF MNEMONIC
#---------    -------------            ------------------------
 STRT.FT  27.800                         :START DEPTH
 STOP.FT  314.400                        :STOP DEPTH
 STEP.FT  0.100                          :STEP    UP_HOLE  
 NULL.    -999.25                        :NULL VALUE
 COMP.    CARLETON                       :COMPANY
 WELL.    658966_AMBTROLL                                              :WELL
 FLD .    NORTHFIELD 71-B                :FIELD\LOCATION
 LOC .    31    112   19                 :LOCATION
 CNTY.    RICE                           :COUNTY
 STAT.    ACDBCD                         :STATE
 CTRY.    USA                            :COUNTRY
 SRVC.    TRUCK                          :SERVICE COMPANY
 DATE.    03/20/2001                     :LOG DATE
 API .                                       :API NUMBER
 LIC .                                   :LICENSE NUMBER
~Curve Information Block
#MNEM.UNIT      API CODE     Curve Description
#---------    -------------  ------------------------
 DEPT     .FT        00 001 00 00          :  1  DEPTH   
 FLOW_SL  .LIT/MIN   00 000 00 00          :  2  FLOW_SL             
 FLOW_SL  .GAL/MIN   00 000 00 00          :  3  FLOW_SL             
 FLOW_SL  .FT/MIN    00 000 00 00          :  4  FLOW_SL             
 FLOW_SL  .CPS       00 000 00 00          :  5  FLOW_SL             
 RES(FL)  .OHM-M     00 000 00 00          :  6  RES(FL)             
 TEMP     .DEG_F     00 660 00 00          :  7  TEMPERATURE         
 DEL_TEMP .DEG_F     00 000 00 00          :  8  SAMPLE DELTA TEMP   
~Parameter Information Block
#MNEM.UNIT   Information     Description
#---------- ---------------  ------------------------
 FILE.      PROCESSED          :File Type
 FIID.      9721SL             :File Type Identifier
 VERS.      1.0                :System Version
 SER .      1                  :System Serial Number
 TRUK.      .980362            :Truck Calibration Number
 TOOL.        1163             :Tool Serial Number
 TIME.      1529               :Time    HrHrMinMin
 LAT .                         :Latitude
 LON .                         :Longitude
 LMF .                         :Log Measured From
 DMF .                         :Driller Measured From
 PD  .      4101               :Permanent Data
 PDEV.FT                       :Elevation Permanent Data
 EKB .FT                       :Elevation Kelly Bushing
 ELEV.FT                       :Elevation DF
 EGL .FT    948                :Elevation Ground Level
 DRDP.FT    25                 :Driller's Depth
 CASD.FT    6                  :Casing Diameter
 CASB.FT                       :Casing Bottom
 CASX.                         :Casing Type
 CAST.IN    0                  :Casing Thickness
 TNOC.                         :Time Circulation Stopped
 LOGU.      C-2                :Logging Unit
 RECB.      TIPPING            :Recorded By
 OSR1.                         :Other Services
 OSR2.                         :Other Services
 OSR3.                         :Other Services
 BS  .IN           6           :Bit Size
 MST .F                        :Mean Surface Temperature
 TGRD.F     0                  :Temperature Gradiant
 MAGN.      0                  :Magnetic Declination
 MDEN.      2.71               :Density Matrix
 MATR.      Dolomite           :Neutron Matrix
 DTMT.      54                 :Delta T Matrix
 DTFL.                         :Delta T Fluid
 MUDS.      0                  :Mud Sample Source
 MRS .      0                  :Mud Resistivity
 MTP .      0                  :Mud Temperature
 MFRS.                         :Resistivity Mud Filtrate
 MFTP.                         :Temperature Mud Filtrate
 MCRS.      0                  :Resistivity Mud Cake
 MCTP.                         :Temperature Mud Cake
 FTYP.      0                  :Fluid Type
 FD  .LB/G                     :Mud Weight
 DFV .S                        :Fluid Viscosity
 FPH .                         :Fuild PH
 ELCO.      2500               :Electron Cutoff
 CASL.IN                       :Casing Logger
 LOTD.FT                       :Logger TD
 ARTM.                         :Arrival Time
 DPTM.                         :Departure Time
 RIGN.                         :Rig Number
~Other Information
#MNEM.UNIT  Information      Description
#---------- ---------------  ------------------------
# -------------------------- 
~A DEPTH  FLOW_SL FLOW_SL FLOW_SL FLOW_SL RES(FL) TEMP  DEL_TEMP 
# ...
 283.900   9.9     2.6    64.3    65162.9  14.53  66.7  -0.00    
 284.000   9.8     2.6    63.2    64992.9  14.51  66.7  -0.00    
 284.100   9.8     2.6    63.2    65001.4  14.50  66.7  0.00     
 284.200   9.7     2.6    63.0    64958.8  14.52  66.7  -0.00    
 284.300   9.6     2.5    62.0    64805.7  14.53  66.7  0.00     
 284.400   9.5     2.5    61.4    64716.7  14.52  66.7  -0.00    
 284.500   9.5     2.5    61.2    64682.9  14.52  66.7  0.00     
 284.600   9.4     2.5    60.9    64640.0  14.53  66.7  0.00     
 284.700   9.2     2.4    59.9    64472.9  14.54  66.7  -0.00    
 284.800   9.0     2.4    58.0    64185.7  14.52  66.7  0.00     
 284.900   8.5     2.2    55.1    63733.3  14.51  66.7  -0.00    
 285.000   7.9     2.1    51.4    63144.3  14.52  66.7  -0.00    
 285.100   7.4     1.9    47.6    62560.0  14.52  66.7  0.00     
 285.200   6.9     1.8    44.7    62095.0  14.51  66.7  0.00     
 285.300   6.5     1.7    42.3    61723.3  14.52  66.7  -0.00    
 285.400   6.2     1.6    40.3    61410.0  14.51  66.7  0.00     
 285.500   6.0     1.6    38.8    61175.7  14.52  66.7  0.01     
 285.600   5.9     1.6    38.4    61116.7  14.52  66.7  -0.00    
 285.700   6.0     1.6    39.1    61226.3  14.52  66.7  0.00     
 285.800   6.3     1.7    40.5    61440.0  14.51  66.7  -999.25  
 285.900   6.5     1.7    42.1    61685.7  14.50  66.7  -0.00    
 286.000   6.7     1.8    43.6    61931.4  14.50  66.7  -999.25  
 286.100   6.9     1.8    44.8    62120.0  14.50  66.7  -0.00    
 286.200   7.1     1.9    45.8    62280.0  14.51  66.7  0.00     
 286.300   7.1     1.9    46.2    62340.0  14.52  66.7  0.00     
 286.400   7.1     1.9    45.8    62277.5  14.52  66.7  0.00     
 286.500   7.0     1.8    45.0    62147.1  14.51  66.7  -0.00    
 286.600   6.9     1.8    44.4    62045.7  14.50  66.7  0.00     
 286.700   6.9     1.8    44.8    62108.8  14.51  66.7  0.00     
 286.800   7.1     1.9    45.9    62290.0  14.53  66.7  -0.00    
 286.900   7.2     1.9    46.8    62435.0  14.52  66.7  0.00     
 287.000   7.4     1.9    47.6    62555.0  14.52  66.7  0.00     
 287.100   7.5     2.0    48.6    62705.7  14.52  66.7  -0.00    
 287.200   7.5     2.0    48.3    62662.9  14.52  66.7  0.00     
 287.300   7.1     1.9    45.9    62281.7  14.52  66.7  0.00     
 287.400   6.6     1.7    42.8    61804.3  14.51  66.7  -0.00    
 287.500   6.2     1.7    40.4    61434.3  14.52  66.7  0.00     
 287.600   6.0     1.6    38.7    61155.0  14.52  66.7  -0.00    
 287.700   5.7     1.5    36.6    60830.0  14.51  66.7  0.00     
 287.800   5.3     1.4    34.2    60448.6  14.52  66.7  -999.25  
 287.900   5.2     1.4    33.4    60322.9  14.52  66.7  0.01     
 288.000   5.3     1.4    34.2    60463.3  14.52  66.7  -0.01    
 288.100   5.4     1.4    35.0    60588.3  14.53  66.7  0.00     
 288.200   5.6     1.5    36.0    60740.0  14.52  66.7  -0.00    
 288.300   5.8     1.5    37.3    60948.3  14.50  66.7  0.01     
 288.400   6.1     1.6    39.3    61260.0  14.52  66.7  -0.00    
 288.500   6.6     1.7    42.6    61772.9  14.51  66.7  0.00     
 288.600   7.3     1.9    47.3    62502.9  14.51  66.7  -0.00    
 288.700   8.2     2.2    53.0    63392.9  14.51  66.7  -999.25  
 288.800   9.2     2.4    59.5    64421.4  14.50  66.7  -0.00    
 288.900  10.3     2.7    66.5    65513.3  14.52  66.7  0.00     
 289.000  11.4     3.0    73.9    66680.0  14.51  66.7  0.00     
 289.100  12.5     3.3    80.6    67725.7  14.52  66.7  -0.00    
 289.200  12.8     3.4    82.8    68070.0  14.50  66.7  -0.00    
 289.300  12.2     3.2    79.1    67490.0  14.51  66.7  -999.25  
 289.400  11.4     3.0    73.5    66613.3  14.52  66.7  0.00     
 289.500  10.3     2.7    67.0    65591.3  14.52  66.7  -0.00    
 289.600   8.6     2.3    55.8    63831.3  14.50  66.7  0.00     
 289.700   6.9     1.8    44.8    62110.0  14.48  66.7  -0.00    
 289.800   5.8     1.5    37.8    61023.3  14.51  66.7  -0.00    
 289.900   5.1     1.4    33.1    60288.3  14.52  66.7  0.01     
 290.000   4.6     1.2    29.5    59714.3  14.51  66.7  -0.00    
 290.100   4.1     1.1    26.6    59261.7  14.50  66.7  0.00     
 290.200   3.7     1.0    23.7    58818.8  14.51  66.7  -0.00    
 290.300   3.3     0.9    21.4    58450.0  14.52  66.7  -0.00    
 290.400   3.1     0.8    20.0    58228.6  14.49  66.7  0.00     
 290.500   3.0     0.8    19.6    58174.3  14.52  66.7  0.00     
 290.600   3.1     0.8    20.3    58271.4  14.52  66.7  -0.00    
 290.700   3.3     0.9    21.2    58415.0  14.52  66.7  0.00     
 290.800   3.4     0.9    22.1    58555.7  14.52  66.7  0.00     
 290.900   3.6     1.0    23.4    58765.0  14.51  66.7  -0.00    
 291.000   4.0     1.1    25.8    59141.4  14.51  66.7  -0.00    
 291.100   4.5     1.2    29.4    59698.3  14.51  66.7  0.01     
 291.200   5.2     1.4    33.7    60373.3  14.52  66.7  0.00     
 291.300   6.1     1.6    39.2    61242.9  14.52  66.7  -0.00    
 291.400   7.0     1.8    45.3    62186.7  14.52  66.7  0.00     
 291.500   7.9     2.1    51.5    63158.8  14.52  66.7  -0.00    
 291.600   8.7     2.3    56.5    63952.9  14.52  66.7  -0.00    
 291.700   9.1     2.4    58.9    64325.0  14.51  66.7  0.00     
 291.800   9.7     2.6    62.9    64942.5  14.52  66.7  0.00     
 291.900  11.1     2.9    71.6    66316.7  14.51  66.7  0.00     
 292.000  12.7     3.4    82.3    67991.4  14.50  66.7  -0.00    
 292.100  14.3     3.8    92.6    69607.1  14.53  66.7  -0.00    
 292.200  15.3     4.1    99.3    70647.1  14.52  66.7  0.00     
 292.300  15.7     4.1    101.6   71017.1  14.54  66.7  0.00     
 292.400  15.6     4.1    101.2   70955.0  14.51  66.7  -0.01    
 292.500  15.6     4.1    100.9   70894.3  14.52  66.7  0.00     
 292.600  15.8     4.2    102.5   71158.6  14.52  66.7  0.00     
 292.700  16.3     4.3    105.2   71580.0  14.52  66.7  -0.00    
 292.800  16.7     4.4    108.1   72026.7  14.53  66.7  -999.25  
 292.900  16.8     4.4    108.7   72123.3  14.52  66.7  0.00     
 293.000  16.6     4.4    107.6   71950.0  14.51  66.7  0.00     
 293.100  16.6     4.4    107.2   71888.6  14.51  66.7  -0.00    
 293.200  16.5     4.4    106.9   71832.9  14.52  66.7  -0.00    
 293.300  16.4     4.3    106.3   71744.3  14.50  66.7  -0.01    
 293.400  16.4     4.3    105.9   71691.4  14.51  66.7  0.00     
 293.500  16.3     4.3    105.4   71610.0  14.51  66.7  0.01     
 293.600  16.2     4.3    104.7   71500.0  14.50  66.7  -0.00    
 293.700  15.8     4.2    102.3   71123.8  14.52  66.7  0.00     
 293.800  15.1     4.0    97.9    70430.0  14.51  66.7  -0.00    
 293.900  14.5     3.8    93.6    69760.0  14.50  66.7  0.00     
 294.000  13.9     3.7    90.2    69223.8  14.51  66.7  -0.00    
 294.100  13.6     3.6    87.8    68846.7  14.53  66.7  0.01     
 294.200  13.2     3.5    85.7    68517.1  14.51  66.7  -0.00    
 294.300  13.0     3.4    83.9    68243.8  14.51  66.7  -0.00    
 294.400  12.6     3.3    81.8    67908.3  14.50  66.7  -0.00    
 294.500  11.9     3.2    77.3    67202.5  14.51  66.7  -0.00    
 294.600  11.4     3.0    73.9    66665.7  14.51  66.7  -0.00    
 294.700  11.6     3.1    75.3    66884.3  14.49  66.7  -0.00    
 294.800  11.9     3.1    76.9    67138.6  14.52  66.7  0.00     
 294.900  11.9     3.2    77.3    67198.3  14.52  66.7  -999.25  
 295.000  11.8     3.1    76.3    67045.0  14.52  66.7  0.01     
 295.100  11.4     3.0    73.6    66625.0  14.52  66.7  -0.01    
 295.200  11.0     2.9    71.4    66282.0  14.52  66.7  0.01     
 295.300  11.1     2.9    71.9    66357.5  14.52  66.7  -0.00    
 295.400  11.7     3.1    75.6    66938.0  14.52  66.7  -0.00    
 295.500  12.6     3.3    81.4    67854.3  14.51  66.7  -0.00    
 295.600  13.6     3.6    88.0    68883.3  14.51  66.7  0.00     
 295.700  14.2     3.8    91.9    69498.3  14.51  66.7  -0.00    
 295.800  14.2     3.8    92.1    69530.0  14.52  66.7  -0.00    
 295.900  13.9     3.7    90.1    69216.7  14.51  66.7  0.00     
 296.000  13.6     3.6    88.3    68933.3  14.52  66.7  0.00     
