~Version Information
 VERS.                2.0:  CWLS LOG ASCII STANDARD -VERSION 2.0
 WRAP.                 NO:  ONE LINE PER DEPTH STEP
~WELL INFORMATION BLOCK
#MNEM.UNIT       DATA		            DESCRIPTION OF MNEMONIC
#---------    -------------            ------------------------
 STRT.FT  39.400                         :START DEPTH
 STOP.FT  309.900                        :STOP DEPTH
 STEP.FT  0.100                          :STEP    UP_HOLE  
 NULL.    -999.25                        :NULL VALUE
 COMP.    CARLETON                       :COMPANY
 WELL.    658966_PUMPTROLL                                             :WELL
 FLD .    NORTHFIELD 71-B                :FIELD\LOCATION
 LOC .    31    112   19                 :LOCATION
 CNTY.    RICE                           :COUNTY
 STAT.    ACDBCD                         :STATE
 CTRY.    USA                            :COUNTRY
 SRVC.    TRUCK                          :SERVICE COMPANY
 DATE.    03/20/2001                     :LOG DATE
 API .                                       :API NUMBER
 LIC .                                   :LICENSE NUMBER
~Curve Information Block
#MNEM.UNIT      API CODE     Curve Description
#---------    -------------  ------------------------
 DEPT     .FT        00 001 00 00          :  1  DEPTH   
 FLOW_SL  .LIT/MIN   00 000 00 00          :  2  FLOW_SL             
 FLOW_SL  .GAL/MIN   00 000 00 00          :  3  FLOW_SL             
 FLOW_SL  .FT/MIN    00 000 00 00          :  4  FLOW_SL             
 FLOW_SL  .CPS       00 000 00 00          :  5  FLOW_SL             
 RES(FL)  .OHM-M     00 000 00 00          :  6  RES(FL)             
 TEMP     .DEG_F     00 660 00 00          :  7  TEMPERATURE         
 DEL_TEMP .DEG_F     00 000 00 00          :  8  SAMPLE DELTA TEMP   
~Parameter Information Block
#MNEM.UNIT   Information     Description
#---------- ---------------  ------------------------
 FILE.      PROCESSED          :File Type
 FIID.      9721SL             :File Type Identifier
 VERS.      1.0                :System Version
 SER .      1                  :System Serial Number
 TRUK.      .980362            :Truck Calibration Number
 TOOL.        1163             :Tool Serial Number
 TIME.      1855               :Time    HrHrMinMin
 LAT .                         :Latitude
 LON .                         :Longitude
 LMF .                         :Log Measured From
 DMF .                         :Driller Measured From
 PD  .      4101               :Permanent Data
 PDEV.FT                       :Elevation Permanent Data
 EKB .FT                       :Elevation Kelly Bushing
 ELEV.FT                       :Elevation DF
 EGL .FT    948                :Elevation Ground Level
 DRDP.FT    25                 :Driller's Depth
 CASD.FT    6                  :Casing Diameter
 CASB.FT                       :Casing Bottom
 CASX.                         :Casing Type
 CAST.IN    0                  :Casing Thickness
 TNOC.                         :Time Circulation Stopped
 LOGU.      C-2                :Logging Unit
 RECB.      TIPPING            :Recorded By
 OSR1.                         :Other Services
 OSR2.                         :Other Services
 OSR3.                         :Other Services
 BS  .IN           6           :Bit Size
 MST .F                        :Mean Surface Temperature
 TGRD.F     0                  :Temperature Gradiant
 MAGN.      0                  :Magnetic Declination
 MDEN.      2.71               :Density Matrix
 MATR.      Dolomite           :Neutron Matrix
 DTMT.      54                 :Delta T Matrix
 DTFL.                         :Delta T Fluid
 MUDS.      0                  :Mud Sample Source
 MRS .      0                  :Mud Resistivity
 MTP .      0                  :Mud Temperature
 MFRS.                         :Resistivity Mud Filtrate
 MFTP.                         :Temperature Mud Filtrate
 MCRS.      0                  :Resistivity Mud Cake
 MCTP.                         :Temperature Mud Cake
 FTYP.      0                  :Fluid Type
 FD  .LB/G                     :Mud Weight
 DFV .S                        :Fluid Viscosity
 FPH .                         :Fuild PH
 ELCO.      2500               :Electron Cutoff
 CASL.IN                       :Casing Logger
 LOTD.FT                       :Logger TD
 ARTM.                         :Arrival Time
 DPTM.                         :Departure Time
 RIGN.                         :Rig Number
~Other Information
#MNEM.UNIT  Information      Description
#---------- ---------------  ------------------------
# -------------------------- 
~A DEPTH  FLOW_SL FLOW_SL FLOW_SL FLOW_SL RES(FL) TEMP  DEL_TEMP 
# ...
 258.900  28.8     7.6    186.4   84295.7  14.49  66.7  0.02     
 259.000  27.4     7.2    177.2   82855.7  14.49  66.7  0.00     
 259.100  26.6     7.0    172.5   82106.7  14.48  66.7  -0.00    
 259.200  26.8     7.1    173.3   82245.7  14.48  66.7  0.00     
 259.300  28.1     7.4    182.1   83615.0  14.51  66.7  -0.02    
 259.400  30.3     8.0    196.1   85801.4  14.48  66.7  0.02     
 259.500  32.1     8.5    208.1   87685.0  14.52  66.7  0.00     
 259.600  33.2     8.8    214.7   88714.3  14.48  66.7  -0.00    
 259.700  33.5     8.8    216.7   89030.0  14.48  66.7  0.00     
 259.800  33.3     8.8    215.4   88827.1  14.49  66.7  0.00     
 259.900  33.0     8.7    213.6   88546.3  14.49  66.7  -0.00    
 260.000  32.7     8.6    211.5   88227.1  14.49  66.7  0.00     
 260.100  32.4     8.6    210.0   87988.3  14.48  66.7  0.00     
 260.200  32.3     8.5    209.1   87847.5  14.49  66.7  -0.00    
 260.300  32.1     8.5    207.8   87643.3  14.48  66.7  -0.01    
 260.400  31.7     8.4    205.2   87231.4  14.49  66.7  0.02     
 260.500  31.1     8.2    201.5   86655.0  14.48  66.7  -0.00    
 260.600  30.4     8.0    196.6   85883.8  14.48  66.7  0.01     
 260.700  29.4     7.8    190.2   84892.9  14.49  66.7  -0.00    
 260.800  28.4     7.5    184.1   83922.9  14.50  66.7  -0.00    
 260.900  27.0     7.1    175.0   82505.7  14.50  66.7  0.00     
 261.000  25.5     6.7    165.2   80964.3  14.48  66.7  -0.00    
 261.100  24.9     6.6    161.4   80375.0  14.50  66.7  0.00     
 261.200  25.4     6.7    164.5   80865.0  14.49  66.7  -0.00    
 261.300  26.4     7.0    171.1   81887.5  14.49  66.7  -0.00    
 261.400  26.8     7.1    173.8   82311.7  14.50  66.7  0.00     
 261.500  26.7     7.1    172.8   82163.8  14.50  66.7  -0.00    
 261.600  26.0     6.9    168.2   81445.7  14.49  66.7  -0.03    
 261.700  24.4     6.5    158.1   79863.3  14.49  66.7  0.03     
 261.800  21.8     5.8    141.4   77242.9  14.51  66.7  0.00     
 261.900  18.7     5.0    121.3   74100.0  14.50  66.7  -0.00    
 262.000  15.6     4.1    101.0   70911.4  14.50  66.7  0.00     
 262.100  12.9     3.4    83.3    68143.3  14.48  66.7  0.00     
 262.200  10.8     2.9    70.1    66084.3  14.50  66.7  -0.00    
 262.300   9.5     2.5    61.3    64704.3  14.50  66.7  -0.00    
 262.400   9.0     2.4    58.3    64222.9  14.50  66.7  0.00     
 262.500   9.3     2.5    60.1    64505.7  14.50  66.7  -0.00    
 262.600  10.1     2.7    65.2    65311.4  14.51  66.7  0.00     
 262.700  11.0     2.9    71.4    66280.0  14.50  66.7  -0.00    
 262.800  11.9     3.1    77.2    67188.6  14.50  66.7  0.00     
 262.900  12.7     3.3    82.0    67940.0  14.49  66.7  0.00     
 263.000  13.6     3.6    88.3    68927.1  14.49  66.7  -0.00    
 263.100  15.5     4.1    100.3   70807.1  14.50  66.7  0.00     
 263.200  18.0     4.8    116.7   73376.7  14.50  66.7  -0.00    
 263.300  20.7     5.5    134.0   76091.4  14.50  66.7  -0.00    
 263.400  22.4     5.9    145.3   77851.4  14.49  66.7  -0.01    
 263.500  22.1     5.8    143.3   77547.1  14.50  66.7  0.02     
 263.600  20.9     5.5    135.5   76315.7  14.49  66.7  -0.02    
 263.700  20.2     5.3    130.8   75586.7  14.51  66.7  0.01     
 263.800  20.4     5.4    132.1   75784.3  14.51  66.7  0.00     
 263.900  21.6     5.7    139.9   77010.0  14.49  66.7  -0.00    
 264.000  23.3     6.2    150.9   78731.4  14.50  66.7  -0.00    
 264.100  25.3     6.7    163.5   80708.6  14.50  66.7  0.00     
 264.200  27.0     7.1    174.6   82435.7  14.51  66.7  -0.00    
 264.300  28.0     7.4    181.5   83516.7  14.50  66.7  0.00     
 264.400  28.6     7.6    185.2   84098.6  14.49  66.7  -0.01    
 264.500  28.9     7.6    187.3   84425.0  14.50  66.7  -0.00    
 264.600  28.6     7.6    185.1   84094.3  14.51  66.7  0.01     
 264.700  27.9     7.4    180.7   83393.3  14.51  66.7  -0.00    
 264.800  26.7     7.1    173.0   82194.3  14.50  66.7  0.00     
 264.900  24.9     6.6    161.2   80346.7  14.50  66.7  -0.00    
 265.000  23.1     6.1    149.9   78571.4  14.51  66.7  -0.00    
 265.100  22.0     5.8    142.4   77401.7  14.49  66.7  0.01     
 265.200  20.9     5.5    135.2   76268.3  14.52  66.7  -0.00    
 265.300  19.0     5.0    123.0   74355.7  14.51  66.7  0.00     
 265.400  17.4     4.6    112.7   72744.3  14.51  66.7  -0.00    
 265.500  17.1     4.5    110.8   72448.3  14.52  66.7  -0.00    
 265.600  17.8     4.7    115.0   73112.9  14.52  66.7  -0.02    
 265.700  19.4     5.1    125.3   74721.7  14.52  66.7  0.02     
 265.800  21.4     5.6    138.3   76756.3  14.52  66.7  -0.01    
 265.900  22.5     5.9    145.5   77890.0  14.51  66.7  0.00     
 266.000  22.8     6.0    147.3   78170.0  14.51  66.7  -0.02    
 266.100  22.9     6.1    148.5   78358.8  14.50  66.7  0.02     
 266.200  23.0     6.1    148.7   78393.3  14.53  66.7  -0.00    
 266.300  22.4     5.9    145.0   77802.9  14.52  66.7  0.01     
 266.400  20.8     5.5    134.9   76227.1  14.51  66.7  -0.00    
 266.500  18.8     5.0    121.9   74195.7  14.51  66.7  -0.01    
 266.600  16.9     4.5    109.3   72214.3  14.51  66.7  0.01     
 266.700  15.4     4.1    99.8    70730.0  14.50  66.7  -0.00    
 266.800  14.2     3.8    92.1    69517.5  14.51  66.7  -0.00    
 266.900  13.4     3.6    87.1    68734.0  14.50  66.7  -0.02    
 267.000  13.2     3.5    85.3    68460.0  14.52  66.7  0.03     
 267.100  13.3     3.5    86.2    68595.7  14.52  66.7  -0.01    
 267.200  14.2     3.8    92.0    69506.7  14.51  66.7  0.01     
 267.300  15.8     4.2    102.3   71113.3  14.51  66.7  -0.00    
 267.400  18.2     4.8    117.6   73512.9  14.51  66.7  0.00     
 267.500  21.1     5.6    136.4   76464.3  14.52  66.7  -0.01    
 267.600  24.0     6.3    155.4   79428.6  14.50  66.7  -0.00    
 267.700  25.8     6.8    167.2   81285.7  14.51  66.7  -0.02    
 267.800  26.3     7.0    170.4   81785.7  14.52  66.7  0.02     
 267.900  26.7     7.1    172.8   82163.3  14.52  66.7  -0.01    
 268.000  27.2     7.2    176.4   82722.9  14.52  66.7  0.01     
 268.100  28.0     7.4    181.4   83502.9  14.50  66.7  0.00     
 268.200  28.4     7.5    184.1   83928.3  14.52  66.7  -0.00    
 268.300  28.2     7.4    182.3   83646.3  14.52  66.7  0.00     
 268.400  27.5     7.3    177.9   82961.7  14.51  66.7  -0.00    
 268.500  26.9     7.1    174.4   82412.9  14.52  66.7  0.00     
 268.600  26.2     6.9    169.3   81620.0  14.50  66.7  0.00     
 268.700  24.9     6.6    161.1   80331.4  14.52  66.7  -0.00    
 268.800  23.8     6.3    154.2   79253.3  14.52  66.7  0.00     
 268.900  22.5     5.9    145.5   77880.0  14.51  66.7  0.00     
 269.000  21.2     5.6    137.1   76576.7  14.52  66.7  -0.00    
 269.100  20.6     5.4    133.6   76017.1  14.53  66.7  -999.25  
 269.200  20.5     5.4    133.0   75920.0  14.52  66.7  -0.00    
 269.300  20.5     5.4    132.5   75843.8  14.52  66.7  -0.00    
 269.400  20.4     5.4    131.9   75751.7  14.52  66.7  -0.00    
 269.500  20.4     5.4    131.9   75761.3  14.51  66.7  0.00     
 269.600  20.5     5.4    133.0   75930.0  14.52  66.7  -0.00    
 269.700  20.9     5.5    135.4   76306.7  14.53  66.7  0.00     
 269.800  21.4     5.6    138.4   76778.3  14.53  66.7  -0.00    
 269.900  22.0     5.8    142.2   77368.3  14.51  66.7  0.00     
 270.000  22.7     6.0    147.1   78134.3  14.52  66.7  0.00     
 270.100  23.1     6.1    149.5   78518.6  14.51  66.7  -999.25  
 270.200  22.9     6.0    148.0   78270.0  14.54  66.7  -0.00    
 270.300  22.3     5.9    144.3   77702.9  14.53  66.7  -0.00    
 270.400  21.8     5.8    141.2   77207.1  14.52  66.7  0.00     
 270.500  21.5     5.7    139.1   76884.3  14.53  66.7  -999.25  
 270.600  21.6     5.7    139.6   76962.9  14.52  66.7  -0.03    
 270.700  21.7     5.7    140.7   77140.0  14.51  66.7  0.03     
 270.800  22.2     5.9    143.8   77625.7  14.53  66.7  0.00     
 270.900  22.9     6.1    148.3   78330.0  14.53  66.7  -0.00    
 271.000  23.6     6.2    152.9   79047.5  14.52  66.7  0.00     
