~Version Information
 VERS.                2.0:  CWLS LOG ASCII STANDARD -VERSION 2.0
 WRAP.                 NO:  ONE LINE PER DEPTH STEP
~WELL INFORMATION BLOCK
#MNEM.UNIT       DATA		            DESCRIPTION OF MNEMONIC
#---------    -------------            ------------------------
 STRT.FT  1.130                          :START DEPTH
 STOP.FT  518.850                        :STOP DEPTH
 STEP.FT  0.020                          :STEP    UP_HOLE  
 NULL.    -999.25                        :NULL VALUE
 COMP.    CARLETON GEO LOOP E-1          :COMPANY
 WELL.    278816-MULTITOOL                                             :WELL
 FLD .    NORTHFIELD 71-B                :FIELD\LOCATION
 LOC .    31    112   19                 :LOCATION
 CNTY.    RICE                           :COUNTY
 STAT.    CADDDC                         :STATE
 CTRY.    USA                            :COUNTRY
 SRVC.    TRUCK                          :SERVICE COMPANY
 DATE.    08/15/2017                     :LOG DATE
 API .                                       :API NUMBER
 LIC .                                   :LICENSE NUMBER
~Curve Information Block
#MNEM.UNIT      API CODE     Curve Description
#---------    -------------  ------------------------
 DEPT     .FT        00 001 00 00          :  1  DEPTH   
 GAMMA    .API-GR    00 310 00 00          :  2  GAMMA RAY           
 RES(FL)  .OHM-M     00 000 00 00          :  3  RES(FL)             
 SP       .MV        00 010 00 00          :  4  SPON POTENTIAL      
 TEMP     .DEG_F     00 660 00 00          :  5  TEMPERATURE         
 RES(16N) .OHM-M     00 040 00 00          :  6  16 NORMAL RES       
 RES(64N) .OHM-M     00 060 00 00          :  7  64 NORMAL RES       
 RES      .OHM       00 000 00 00          :  8  SINGLE POINT RES    
 DEL_TEMP .DEG_F     00 000 00 00          :  9  SAMPLE DELTA TEMP   
 LATERAL  .OHM-M     00 070 00 00          : 10  LATERAL             
 SP_COND  .US/CM     00 000 00 00          : 11  SP COND             
 TENSION  .CPS       00 000 00 00          : 12  LINE TENSION        
 TIME     .SECONDS   00 000 00 00          : 13  TIME                
~Parameter Information Block
#MNEM.UNIT   Information     Description
#---------- ---------------  ------------------------
 FILE.      PROCESSED          :File Type
 FIID.      8144A              :File Type Identifier
 VERS.      3.60Q              :System Version
 SER .      1                  :System Serial Number
 TRUK.      0.0                :Truck Calibration Number
 TOOL.        1229             :Tool Serial Number
 TIME.      1450               :Time    HrHrMinMin
 LAT .                         :Latitude
 LON .                         :Longitude
 LMF .                         :Log Measured From
 DMF .                         :Driller Measured From
 PD  .                         :Permanent Data
 PDEV.FT                       :Elevation Permanent Data
 EKB .FT                       :Elevation Kelly Bushing
 ELEV.FT                       :Elevation DF
 EGL .FT    938 L1             :Elevation Ground Level
 DRDP.FT    109                :Driller's Depth
 CASD.FT    6                  :Casing Diameter
 CASB.FT                       :Casing Bottom
 CASX.                         :Casing Type
 CAST.IN    0                  :Casing Thickness
 TNOC.                         :Time Circulation Stopped
 LOGU.                         :Logging Unit
 RECB.      PETTUS             :Recorded By
 OSR1.                         :Other Services
 OSR2.                         :Other Services
 OSR3.                         :Other Services
 BS  .IN           6           :Bit Size
 MST .F                        :Mean Surface Temperature
 TGRD.F     0                  :Temperature Gradiant
 MAGN.      0                  :Magnetic Declination
 MDEN.      2.84               :Density Matrix
 MATR.      DOLOMITE           :Neutron Matrix
 DTMT.      44                 :Delta T Matrix
 DTFL.                         :Delta T Fluid
 MUDS.      0                  :Mud Sample Source
 MRS .      0                  :Mud Resistivity
 MTP .      0                  :Mud Temperature
 MFRS.                         :Resistivity Mud Filtrate
 MFTP.                         :Temperature Mud Filtrate
 MCRS.      0                  :Resistivity Mud Cake
 MCTP.                         :Temperature Mud Cake
 FTYP.      0                  :Fluid Type
 FD  .LB/G     0               :Mud Weight
 DFV .S                        :Fluid Viscosity
 FPH .                         :Fuild PH
 ELCO.      2500               :Electron Cutoff
 CASL.IN    4                  :Casing Logger
 LOTD.FT                       :Logger TD
 ARTM.                         :Arrival Time
 DPTM.                         :Departure Time
 RIGN.                         :Rig Number
~Other Information
#MNEM.UNIT  Information      Description
#---------- ---------------  ------------------------
# -------------------------- 
~A DEPTH  GAMMA    RES(FL) SP    TEMP  RES(16N) RES(64N) RES      DEL_TEMP LATERAL  SP_COND  TENSION  TIME    
# ...
   6.730     10.6  -999.25 -999.25 -999.25  2500.0   2500.0   3521.4  -999.25   2500.0     50.0    -10.0  -999.25 
   6.750     10.6  -999.25 -999.25 -999.25  2500.0   2500.0   3521.4  -999.25   2500.0     50.0    -10.0  -999.25 
   6.770     10.6  -999.25 -999.25 -999.25  2500.0   2500.0   3521.6  -999.25   2500.0     50.0    -10.0  -999.25 
   6.790     57.6  -999.25 -999.25 -999.25  2500.0   2500.0   3520.9  -999.25   2500.0     50.0    -10.0  -999.25 
   6.810     69.4  -999.25 -999.25 -999.25  2500.0   2500.0   3520.9  -999.25   2500.0     50.0    -10.0  -999.25 
   6.830     69.4  -999.25 -999.25 -999.25  2500.0   2500.0   3521.7  -999.25   2500.0     50.0    -10.0  -999.25 
   6.850     45.9  -999.25 -999.25 -999.25  2500.0   2500.0   3521.7  -999.25   2500.0     50.0    -10.0  -999.25 
   6.870     10.6  -999.25 -999.25 -999.25  2500.0   2500.0   3521.7  -999.25   2500.0     50.0    -10.0  -999.25 
   6.890     10.6  -999.25 -999.25 -999.25  2500.0   2500.0   3521.2  -999.25   2500.0     50.0    -10.0  -999.25 
   6.910     10.6  -999.25 -999.25 -999.25  2500.0   2500.0   3521.2  -999.25   2500.0     50.0    -10.0  -999.25 
   6.930     -1.2  -999.25 -999.25 -999.25  2500.0   2500.0   3522.3  -999.25   2500.0     50.0    -10.0  -999.25 
   6.950     -1.2  -999.25 -999.25 -999.25  2500.0   2500.0   3521.8  -999.25   2500.0     50.0    -10.0  -999.25 
   6.970     22.4  -999.25 -999.25 -999.25  2500.0   2500.0   3521.8  -999.25   2500.0     50.0    -10.0  -999.25 
   6.990     22.4  -999.25 -999.25 -999.25  2500.0   2500.0   3522.6  -999.25   2500.0     50.0    -10.0  -999.25 
   7.010     10.6  -999.25 -999.25 -999.25  2500.0   2500.0   3521.7  -999.25   2500.0     50.0    -10.0  -999.25 
   7.030     45.9  -999.25 -999.25 -999.25  2500.0   2500.0   3521.7  -999.25   2500.0     50.0    -10.0  -999.25 
   7.050     45.9  -999.25 -999.25 -999.25  2500.0   2500.0   3522.0  -999.25   2500.0     50.0    -10.0  -999.25 
   7.070     45.9  -999.25 -999.25 -999.25  2500.0   2500.0   3521.8  -999.25   2500.0     50.0    -10.0  -999.25 
   7.090     34.1  -999.25 -999.25 -999.25  2500.0   2500.0   3521.7  -999.25   2500.0     50.0    -10.0  -999.25 
   7.110     34.1  -999.25 -999.25 -999.25  2500.0   2500.0   3521.7  -999.25   2500.0     50.0    -10.0  -999.25 
   7.130     45.9  -999.25 -999.25 -999.25  2500.0   2500.0   3521.4  -999.25   2500.0     50.0    -10.0  -999.25 
   7.150     45.9  -999.25 -999.25 -999.25  2500.0   2500.0   3521.3  -999.25   2500.0     50.0    -10.0  -999.25 
   7.170     22.4  -999.25 -999.25 -999.25  2500.0   2500.0   3521.3  -999.25   2500.0     50.0    -10.0  -999.25 
   7.190     34.1  -999.25 -999.25 -999.25  2500.0   2500.0   3522.4  -999.25   2500.0     50.0    -10.0  -999.25 
   7.210     34.1  -999.25 -999.25 -999.25  2500.0   2500.0   3521.3  -999.25   2500.0     50.0    -10.0  -999.25 
   7.230     10.6  -999.25 -999.25 -999.25  2500.0   2500.0   3521.3  -999.25   2500.0     50.0    -10.0  -999.25 
   7.250     22.4  -999.25 -999.25 -999.25  2500.0   2500.0   3522.0  -999.25   2500.0     50.0    -10.0  -999.25 
   7.270     22.4  -999.25 -999.25 -999.25  2500.0   2500.0   3522.0  -999.25   2500.0     50.0    -10.0  -999.25 
   7.290     -1.2  -999.25 -999.25 -999.25  2500.0   2500.0   3522.0  -999.25   2500.0     50.0    -10.0  -999.25 
   7.310     34.1  -999.25 -999.25 -999.25  2500.0   2500.0   3521.8  -999.25   2500.0     50.0    -10.0  -999.25 
   7.330     45.9  -999.25 -999.25 -999.25  2500.0   2500.0   3521.8  -999.25   2500.0     50.0    -10.0  -999.25 
   7.350     45.9  -999.25 -999.25 -999.25  2500.0   2500.0   3521.7  -999.25   2500.0     50.0    -10.0  -999.25 
   7.370     34.1  -999.25 -999.25 -999.25  2500.0   2500.0   3521.7  -999.25   2500.0     50.0    -10.0  -999.25 
   7.390     45.9  -999.25 -999.25 -999.25  2500.0   2500.0   3521.7  -999.25   2500.0     50.0    -10.0  -999.25 
   7.410     45.9  -999.25 -999.25 -999.25  2500.0   2500.0   3521.1  -999.25   2500.0     50.0    -10.0  -999.25 
   7.430     69.4  -999.25 -999.25 -999.25  2500.0   2500.0   3521.7  -999.25   2500.0     50.0    -10.0  -999.25 
   7.450     22.4  -999.25 -999.25 -999.25  2500.0   2500.0   3521.7  -999.25   2500.0     50.0    -10.0  -999.25 
   7.470     22.4  -999.25 -999.25 -999.25  2500.0   2500.0   3526.6  -999.25   2500.0     50.0    -10.0  -999.25 
   7.490     45.9  200.00  -999.25 -999.25  2500.0   2500.0   3526.6  -999.25   2500.0     50.0    -10.0  -999.25 
   7.510     45.9  200.00  -999.25 -999.25  2500.0   2500.0   3526.0  -999.25   2500.0     50.0    -10.0  -999.25 
   7.530     22.4  200.00  -999.25 -999.25  2500.0   2500.0   3522.5  -999.25   2500.0     50.0    -10.0  -999.25 
   7.550     45.9  200.00  -999.25 -999.25  2500.0   2500.0   3522.5  -999.25   2500.0     50.0    -10.0  -999.25 
   7.570     45.9  200.00  -999.25 -999.25  2500.0   2500.0   3522.2  -999.25   2500.0     50.0    -10.0  -999.25 
   7.590     81.2  200.00  -999.25 -999.25  2500.0   2500.0   3522.2  -999.25   2500.0     50.0    -10.0  -999.25 
   7.610     10.6  200.00  -999.25 -999.25  2500.0   2500.0   3521.5  -999.25   2500.0     50.0    -10.0  -999.25 
   7.630     10.6  200.00  -999.25 -999.25  2500.0   2500.0   3521.4  -999.25   2500.0     50.0    -10.0  -999.25 
   7.650     34.1  200.00  -999.25 -999.25  2500.0   2500.0   3521.4  -999.25   2500.0     50.0    -10.0  -999.25 
   7.670     22.4  200.00  -999.25 -999.25  2500.0   2500.0   3521.8  -999.25   2500.0     50.0    -10.0  -999.25 
   7.690     22.4  200.00  -999.25 -999.25  2500.0   2500.0   3521.8  -33.19    2500.0     50.0    -10.0  -999.25 
   7.710     57.6  200.00  -999.25 65.2   2500.0   2500.0   3521.2  0.02      2500.0     50.0    -10.0  0.10000 
   7.730     57.6  200.00  -999.25 65.2   2500.0   2500.0   3522.1  -0.06     2500.0     50.0    -10.0  0.10000 
   7.750     22.4  200.00  -999.25 65.2   2500.0   2500.0   3522.1  0.03      2500.0     50.0    -10.0  0.10000 
   7.770     34.1  200.00  -999.25 65.2   2500.0   2500.0   3522.2  0.03      2500.0     50.0    -10.0  0.10000 
   7.790     34.1  200.00  -999.25 65.2   2500.0   2500.0   3522.2  -999.25   2500.0     50.0    -10.0  -999.25 
   7.810     45.9  200.00  -999.25 65.2   2500.0   2500.0   3520.9  -0.04     2500.0     50.0    -10.0  0.10000 
   7.830     45.9  200.00  -999.25 65.2   2500.0   2500.0   3522.0  0.06      2500.0     50.0    -10.0  0.10000 
   7.850     45.9  200.00  -999.25 65.2   2500.0   2500.0   3522.0  -0.01     2500.0     50.0    -10.0  0.10000 
   7.870     34.1  200.00  -999.25 65.2   2500.0   2500.0   3521.4  -0.05     2500.0     50.0    -10.0  0.10000 
   7.890     34.1  200.00  -999.25 65.2   2500.0   2500.0   3521.4  -999.25   2500.0     50.0    -10.0  -999.25 
   7.910     69.4  200.00  -999.25 65.2   2500.0   2500.0   3521.4  0.01      2500.0     50.0    -10.0  0.10000 
   7.930     69.4  200.00  -999.25 65.2   2500.0   2500.0   3521.4  -0.03     2500.0     50.0    -10.0  0.10000 
   7.950     69.4  200.00  -999.25 65.2   2500.0   2500.0   3521.8  0.01      2500.0     50.0    -10.0  0.10000 
   7.970     34.1  200.00  -999.25 65.2   2500.0   2500.0   3521.8  -999.25   2500.0     50.0    -10.0  -999.25 
   7.990     34.1  200.00  -999.25 65.2   2500.0   2500.0   3520.9  -0.03     2500.0     50.0    -10.0  0.10000 
   8.010     10.6  200.00  -999.25 65.3   2500.0   2500.0   3522.3  0.06      2500.0     50.0    -10.0  0.10000 
   8.030     10.6  200.00  -999.25 65.2   2500.0   2500.0   3522.3  0.07      2500.0     50.0    -10.0  0.10000 
   8.050     45.9  200.00  -999.25 65.1   2500.0   2500.0   3521.2  -999.25   2500.0     50.0    -10.0  -999.25 
   8.070     10.6  200.00  -999.25 65.1   2500.0   2500.0   3521.2  -0.07     2500.0     50.0    -10.0  0.10000 
   8.090     10.6  200.00  -999.25 65.2   2500.0   2500.0   3522.0  0.03      2500.0     50.0    -10.0  0.10000 
   8.110     57.6  200.00  -999.25 65.2   2500.0   2500.0   3522.0  -999.25   2500.0     50.0    -10.0  -999.25 
