~Version Information
 VERS.                2.0:  CWLS LOG ASCII STANDARD -VERSION 2.0
 WRAP.                 NO:  ONE LINE PER DEPTH STEP
~WELL INFORMATION BLOCK
#MNEM.UNIT       DATA		            DESCRIPTION OF MNEMONIC
#---------    -------------            ------------------------
 STRT.FT  1.130                          :START DEPTH
 STOP.FT  518.850                        :STOP DEPTH
 STEP.FT  0.020                          :STEP    UP_HOLE  
 NULL.    -999.25                        :NULL VALUE
 COMP.    CARLETON GEO LOOP E-1          :COMPANY
 WELL.    278816-MULTITOOL                                             :WELL
 FLD .    NORTHFIELD 71-B                :FIELD\LOCATION
 LOC .    31    112   19                 :LOCATION
 CNTY.    RICE                           :COUNTY
 STAT.    CADDDC                         :STATE
 CTRY.    USA                            :COUNTRY
 SRVC.    TRUCK                          :SERVICE COMPANY
 DATE.    08/15/2017                     :LOG DATE
 API .                                       :API NUMBER
 LIC .                                   :LICENSE NUMBER
~Curve Information Block
#MNEM.UNIT      API CODE     Curve Description
#---------    -------------  ------------------------
 DEPT     .FT        00 001 00 00          :  1  DEPTH   
 GAMMA    .API-GR    00 310 00 00          :  2  GAMMA RAY           
 RES(FL)  .OHM-M     00 000 00 00          :  3  RES(FL)             
 SP       .MV        00 010 00 00          :  4  SPON POTENTIAL      
 TEMP     .DEG_F     00 660 00 00          :  5  TEMPERATURE         
 RES(16N) .OHM-M     00 040 00 00          :  6  16 NORMAL RES       
 RES(64N) .OHM-M     00 060 00 00          :  7  64 NORMAL RES       
 RES      .OHM       00 000 00 00          :  8  SINGLE POINT RES    
 DEL_TEMP .DEG_F     00 000 00 00          :  9  SAMPLE DELTA TEMP   
 LATERAL  .OHM-M     00 070 00 00          : 10  LATERAL             
 SP_COND  .US/CM     00 000 00 00          : 11  SP COND             
 TENSION  .CPS       00 000 00 00          : 12  LINE TENSION        
 TIME     .SECONDS   00 000 00 00          : 13  TIME                
~Parameter Information Block
#MNEM.UNIT   Information     Description
#---------- ---------------  ------------------------
 FILE.      PROCESSED          :File Type
 FIID.      8144A              :File Type Identifier
 VERS.      3.60Q              :System Version
 SER .      1                  :System Serial Number
 TRUK.      0.0                :Truck Calibration Number
 TOOL.        1229             :Tool Serial Number
 TIME.      1450               :Time    HrHrMinMin
 LAT .                         :Latitude
 LON .                         :Longitude
 LMF .                         :Log Measured From
 DMF .                         :Driller Measured From
 PD  .                         :Permanent Data
 PDEV.FT                       :Elevation Permanent Data
 EKB .FT                       :Elevation Kelly Bushing
 ELEV.FT                       :Elevation DF
 EGL .FT    938 L1             :Elevation Ground Level
 DRDP.FT    109                :Driller's Depth
 CASD.FT    6                  :Casing Diameter
 CASB.FT                       :Casing Bottom
 CASX.                         :Casing Type
 CAST.IN    0                  :Casing Thickness
 TNOC.                         :Time Circulation Stopped
 LOGU.                         :Logging Unit
 RECB.      PETTUS             :Recorded By
 OSR1.                         :Other Services
 OSR2.                         :Other Services
 OSR3.                         :Other Services
 BS  .IN           6           :Bit Size
 MST .F                        :Mean Surface Temperature
 TGRD.F     0                  :Temperature Gradiant
 MAGN.      0                  :Magnetic Declination
 MDEN.      2.84               :Density Matrix
 MATR.      DOLOMITE           :Neutron Matrix
 DTMT.      44                 :Delta T Matrix
 DTFL.                         :Delta T Fluid
 MUDS.      0                  :Mud Sample Source
 MRS .      0                  :Mud Resistivity
 MTP .      0                  :Mud Temperature
 MFRS.                         :Resistivity Mud Filtrate
 MFTP.                         :Temperature Mud Filtrate
 MCRS.      0                  :Resistivity Mud Cake
 MCTP.                         :Temperature Mud Cake
 FTYP.      0                  :Fluid Type
 FD  .LB/G     0               :Mud Weight
 DFV .S                        :Fluid Viscosity
 FPH .                         :Fuild PH
 ELCO.      2500               :Electron Cutoff
 CASL.IN    4                  :Casing Logger
 LOTD.FT                       :Logger TD
 ARTM.                         :Arrival Time
 DPTM.                         :Departure Time
 RIGN.                         :Rig Number
~Other Information
#MNEM.UNIT  Information      Description
#---------- ---------------  ------------------------
# -------------------------- 
~A DEPTH  GAMMA    RES(FL) SP    TEMP  RES(16N) RES(64N) RES      DEL_TEMP LATERAL  SP_COND  TENSION  TIME    
# ...
 209.530     22.4   20.03  -657.2 61.8    793.6    527.5    320.1  -999.25    882.4    499.2    -10.0  -999.25 
 209.550     22.4   20.03  -657.2 61.8    794.1    528.3    320.1  -999.25    882.6    499.2    -10.0  -999.25 
 209.570     10.6   20.00  -657.2 61.8    794.1    528.3    320.1  0.04       882.6    500.1    -10.0  0.10000 
 209.590     10.6   20.00  -657.2 61.8    792.4    528.3    320.2  -999.25    880.4    500.1    -10.0  -999.25 
 209.610     10.6   19.99  -657.1 61.8    792.4    527.0    320.2  -0.02      880.8    500.2    -10.0  0.10000 
 209.630     22.4   19.99  -657.1 61.8    792.4    527.0    320.2  -999.25    880.8    500.2    -10.0  -999.25 
 209.650     22.4   19.99  -657.1 61.8    791.4    527.4    320.8  -999.25    879.4    500.2    -10.0  -999.25 
 209.670     34.1   20.00  -657.1 61.8    791.4    527.4    320.8  0.04       879.4    500.1    -10.0  0.10000 
 209.690     34.1   20.00  -657.1 61.8    791.4    527.4    319.5  -999.25    879.4    500.1    -10.0  -999.25 
 209.710     34.1   20.00  -657.1 61.8    789.5    523.3    319.5  -0.01      878.3    500.1    -10.0  0.10000 
 209.730     45.9   19.99  -657.2 61.8    789.5    523.3    319.5  -999.25    878.3    500.2    -10.0  -999.25 
 209.750     45.9   19.99  -657.2 61.8    789.1    523.9    321.9  -999.25    877.5    500.2    -10.0  -999.25 
 209.770     10.6   20.02  -657.5 61.8    789.1    523.9    321.9  -0.02      877.5    499.5    -10.0  0.10000 
 209.790     10.6   20.02  -657.5 61.8    789.1    523.9    319.8  -999.25    877.5    499.5    -10.0  -999.25 
 209.810     10.6   20.02  -657.5 61.8    787.3    521.2    319.8  -0.06      876.1    499.5    -10.0  0.10000 
 209.830     22.4   19.99  -657.3 61.9    787.3    521.2    319.8  -999.25    876.1    500.2    -10.0  -999.25 
 209.850     22.4   19.99  -657.3 61.9    784.6    521.2    321.5  -999.25    872.4    500.2    -10.0  -999.25 
 209.870     22.4   20.05  -657.1 61.9    784.6    522.7    321.5  0.08       871.9    498.7    -10.0  0.10000 
 209.890     10.6   20.05  -657.1 61.8    784.6    522.7    318.3  -999.25    871.9    498.7    -10.0  -999.25 
 209.910     10.6   20.05  -657.1 61.8    783.5    522.4    318.3  -999.25    870.5    498.7    -10.0  -999.25 
 209.930     22.4   19.97  -657.2 61.8    783.5    522.4    318.3  -0.07      870.5    500.8    -10.0  0.10000 
 209.950     22.4   19.97  -657.2 61.8    780.8    522.4    318.9  -999.25    867.0    500.8    -10.0  -999.25 
 209.970     22.4   19.97  -657.2 61.8    780.8    520.9    318.9  -0.01      867.5    500.8    -10.0  0.10000 
 209.990     10.6   20.04  -657.1 61.9    780.8    520.9    318.9  -999.25    867.5    499.0    -10.0  -999.25 
 210.010     10.6   20.04  -657.1 61.9    779.5    520.3    319.5  -999.25    865.9    499.0    -10.0  -999.25 
 210.030     10.6   19.99  -656.9 61.9    779.5    520.3    319.5  -0.01      865.9    500.2    -10.0  0.10000 
 210.050     10.6   19.99  -656.9 61.9    779.5    520.3    318.2  -999.25    865.9    500.2    -10.0  -999.25 
 210.070     10.6   19.99  -656.9 61.9    778.2    518.3    318.2  0.03       864.9    500.2    -10.0  0.10000 
 210.090     -1.2   19.97  -657.0 61.8    778.2    518.3    318.2  -999.25    864.9    500.8    -10.0  -999.25 
 210.110     -1.2   19.97  -657.0 61.8    776.8    520.3    318.1  -999.25    862.3    500.8    -10.0  -999.25 
 210.130     34.1   19.98  -657.1 61.8    776.8    520.3    318.1  -0.05      862.3    500.4    -10.0  0.10000 
 210.150     34.1   19.98  -657.1 61.9    776.8    520.3    315.9  -999.25    862.3    500.4    -10.0  -999.25 
 210.170     34.1   19.98  -657.1 61.9    773.9    517.4    315.9  -999.25    859.4    500.4    -10.0  -999.25 
 210.190     10.6   19.96  -657.0 61.9    773.9    517.4    315.9  -0.01      859.4    501.1    -10.0  0.10000 
 210.210     10.6   19.96  -657.0 61.9    772.4    517.4    317.9  -999.25    857.5    501.1    -10.0  -999.25 
 210.230     10.6   19.96  -656.9 61.9    772.4    517.4    317.9  -999.25    857.5    501.1    -10.0  0.10000 
 210.250     45.9   19.94  -656.9 61.9    772.4    517.4    316.1  -999.25    857.5    501.5    -10.0  -999.25 
 210.270     45.9   19.94  -656.9 61.9    771.6    515.8    316.1  -999.25    856.9    501.5    -10.0  -999.25 
 210.290     81.2   19.93  -656.5 61.9    771.6    515.8    316.1  0.01       856.9    501.6    -10.0  0.10000 
 210.310     81.2   19.93  -656.5 61.9    770.3    516.3    317.7  -999.25    855.0    501.6    -10.0  -999.25 
 210.330     81.2   19.93  -657.0 61.9    770.3    516.3    317.7  -0.04      855.0    501.6    -10.0  0.10000 
 210.350     45.9   20.00  -657.0 61.9    770.3    516.3    317.7  -999.25    855.0    500.1    -10.0  -999.25 
 210.370     45.9   20.00  -657.0 61.9    769.9    514.8    316.1  -999.25    854.9    500.1    -10.0  -999.25 
 210.390     57.6   19.91  -656.9 61.9    769.9    514.8    316.1  0.02       854.9    502.2    -10.0  0.10000 
 210.410     57.6   19.91  -656.9 61.9    769.9    512.2    317.4  -999.25    855.8    502.2    -10.0  -999.25 
 210.430     57.6   19.91  -656.9 61.9    766.8    512.2    317.4  -999.25    851.7    502.2    -10.0  -999.25 
 210.450     10.6   19.96  -657.1 61.9    766.8    512.2    317.4  0.01       851.7    501.1    -10.0  0.10000 
 210.470     10.6   19.96  -657.1 61.9    765.6    511.0    318.0  -999.25    850.5    501.1    -10.0  -999.25 
 210.490     34.1   19.92  -657.2 61.9    765.6    511.0    318.0  0.01       850.5    502.0    -10.0  0.10000 
 210.510     34.1   19.92  -657.2 61.9    765.6    507.1    318.1  -999.25    851.8    502.0    -10.0  -999.25 
 210.530     34.1   19.92  -657.2 61.9    762.9    507.1    318.1  -999.25    848.2    502.0    -10.0  -999.25 
 210.550     10.6   19.94  -656.9 61.9    762.9    507.1    318.1  -0.02      848.2    501.5    -10.0  0.10000 
 210.570     10.6   19.94  -656.9 61.9    761.0    508.3    319.3  -999.25    845.2    501.5    -10.0  -999.25 
 210.590     10.6   19.94  -657.1 61.9    761.0    508.3    319.3  -0.05      845.2    501.5    -10.0  0.10000 
 210.610     45.9   19.90  -657.1 61.9    761.0    505.4    316.6  -999.25    846.2    502.5    -10.0  -999.25 
 210.630     45.9   19.90  -657.1 61.9    758.2    505.4    316.6  -999.25    842.4    502.5    -10.0  -999.25 
 210.650     22.4   19.91  -656.5 61.9    758.2    505.4    316.6  0.01       842.4    502.2    -10.0  0.10000 
 210.670     22.4   19.91  -656.5 61.9    758.2    504.5    318.0  -999.25    842.7    502.2    -10.0  -999.25 
 210.690     22.4   19.91  -656.5 61.9    754.6    504.5    318.0  0.01       838.0    502.2    -10.0  0.10000 
 210.710     10.6   19.86  -657.2 61.9    754.6    501.7    318.0  -999.25    838.9    503.4    -10.0  -999.25 
 210.730     10.6   19.86  -657.2 61.9    752.2    501.7    316.8  -999.25    835.7    503.4    -10.0  -999.25 
 210.750     57.6   19.87  -656.9 61.9    752.2    501.7    316.8  -0.01      835.7    503.2    -10.0  0.10000 
 210.770     57.6   19.87  -656.9 61.9    752.2    499.1    318.6  -999.25    836.6    503.2    -10.0  -999.25 
 210.790     57.6   19.87  -656.9 61.9    748.2    499.1    318.6  -999.25    831.2    503.2    -10.0  -999.25 
 210.810     34.1   19.84  -657.1 61.9    748.2    496.4    318.6  0.05       832.1    503.9    -10.0  0.10000 
 210.830     34.1   19.84  -657.1 61.9    746.6    496.4    316.2  -999.25    830.0    503.9    -10.0  -999.25 
 210.850     57.6   19.86  -657.3 61.9    746.6    496.4    316.2  -0.04      830.0    503.6    -10.0  0.10000 
 210.870     57.6   19.86  -657.3 61.9    746.6    493.4    316.2  -999.25    831.0    503.6    -10.0  -999.25 
 210.890     57.6   19.86  -657.3 61.9    743.6    493.4    316.2  -999.25    827.0    503.6    -10.0  -999.25 
 210.910     10.6   19.85  -656.9 61.9    743.6    493.3    316.2  0.02       827.1    503.8    -10.0  0.10000 
 210.930     10.6   19.85  -656.9 61.9    742.5    493.3    316.0  -999.25    825.5    503.8    -10.0  -999.25 
 210.950     10.6   19.85  -657.0 61.9    742.5    493.3    316.0  0.03       825.5    503.8    -10.0  0.10000 
