~Version Information
 VERS.                2.0:  CWLS LOG ASCII STANDARD -VERSION 2.0
 WRAP.                 NO:  ONE LINE PER DEPTH STEP
~WELL INFORMATION BLOCK
#MNEM.UNIT       DATA		            DESCRIPTION OF MNEMONIC
#---------    -------------            ------------------------
 STRT.FT  1.130                          :START DEPTH
 STOP.FT  518.850                        :STOP DEPTH
 STEP.FT  0.020                          :STEP    UP_HOLE  
 NULL.    -999.25                        :NULL VALUE
 COMP.    CARLETON GEO LOOP E-1          :COMPANY
 WELL.    278816-MULTITOOL                                             :WELL
 FLD .    NORTHFIELD 71-B                :FIELD\LOCATION
 LOC .    31    112   19                 :LOCATION
 CNTY.    RICE                           :COUNTY
 STAT.    CADDDC                         :STATE
 CTRY.    USA                            :COUNTRY
 SRVC.    TRUCK                          :SERVICE COMPANY
 DATE.    08/15/2017                     :LOG DATE
 API .                                       :API NUMBER
 LIC .                                   :LICENSE NUMBER
~Curve Information Block
#MNEM.UNIT      API CODE     Curve Description
#---------    -------------  ------------------------
 DEPT     .FT        00 001 00 00          :  1  DEPTH   
 GAMMA    .API-GR    00 310 00 00          :  2  GAMMA RAY           
 RES(FL)  .OHM-M     00 000 00 00          :  3  RES(FL)             
 SP       .MV        00 010 00 00          :  4  SPON POTENTIAL      
 TEMP     .DEG_F     00 660 00 00          :  5  TEMPERATURE         
 RES(16N) .OHM-M     00 040 00 00          :  6  16 NORMAL RES       
 RES(64N) .OHM-M     00 060 00 00          :  7  64 NORMAL RES       
 RES      .OHM       00 000 00 00          :  8  SINGLE POINT RES    
 DEL_TEMP .DEG_F     00 000 00 00          :  9  SAMPLE DELTA TEMP   
 LATERAL  .OHM-M     00 070 00 00          : 10  LATERAL             
 SP_COND  .US/CM     00 000 00 00          : 11  SP COND             
 TENSION  .CPS       00 000 00 00          : 12  LINE TENSION        
 TIME     .SECONDS   00 000 00 00          : 13  TIME                
~Parameter Information Block
#MNEM.UNIT   Information     Description
#---------- ---------------  ------------------------
 FILE.      PROCESSED          :File Type
 FIID.      8144A              :File Type Identifier
 VERS.      3.60Q              :System Version
 SER .      1                  :System Serial Number
 TRUK.      0.0                :Truck Calibration Number
 TOOL.        1229             :Tool Serial Number
 TIME.      1450               :Time    HrHrMinMin
 LAT .                         :Latitude
 LON .                         :Longitude
 LMF .                         :Log Measured From
 DMF .                         :Driller Measured From
 PD  .                         :Permanent Data
 PDEV.FT                       :Elevation Permanent Data
 EKB .FT                       :Elevation Kelly Bushing
 ELEV.FT                       :Elevation DF
 EGL .FT    938 L1             :Elevation Ground Level
 DRDP.FT    109                :Driller's Depth
 CASD.FT    6                  :Casing Diameter
 CASB.FT                       :Casing Bottom
 CASX.                         :Casing Type
 CAST.IN    0                  :Casing Thickness
 TNOC.                         :Time Circulation Stopped
 LOGU.                         :Logging Unit
 RECB.      PETTUS             :Recorded By
 OSR1.                         :Other Services
 OSR2.                         :Other Services
 OSR3.                         :Other Services
 BS  .IN           6           :Bit Size
 MST .F                        :Mean Surface Temperature
 TGRD.F     0                  :Temperature Gradiant
 MAGN.      0                  :Magnetic Declination
 MDEN.      2.84               :Density Matrix
 MATR.      DOLOMITE           :Neutron Matrix
 DTMT.      44                 :Delta T Matrix
 DTFL.                         :Delta T Fluid
 MUDS.      0                  :Mud Sample Source
 MRS .      0                  :Mud Resistivity
 MTP .      0                  :Mud Temperature
 MFRS.                         :Resistivity Mud Filtrate
 MFTP.                         :Temperature Mud Filtrate
 MCRS.      0                  :Resistivity Mud Cake
 MCTP.                         :Temperature Mud Cake
 FTYP.      0                  :Fluid Type
 FD  .LB/G     0               :Mud Weight
 DFV .S                        :Fluid Viscosity
 FPH .                         :Fuild PH
 ELCO.      2500               :Electron Cutoff
 CASL.IN    4                  :Casing Logger
 LOTD.FT                       :Logger TD
 ARTM.                         :Arrival Time
 DPTM.                         :Departure Time
 RIGN.                         :Rig Number
~Other Information
#MNEM.UNIT  Information      Description
#---------- ---------------  ------------------------
# -------------------------- 
~A DEPTH  GAMMA    RES(FL) SP    TEMP  RES(16N) RES(64N) RES      DEL_TEMP LATERAL  SP_COND  TENSION  TIME    
# ...
 412.570     69.4   19.87  -656.6 61.6    180.7    174.2    151.6  -999.25    182.9    503.2    -10.0  -999.25 
 412.590     69.4   19.85  -656.5 61.6    179.5    171.9    151.6  0.01       182.0    503.8    -10.0  0.10000 
 412.610    104.7   19.85  -656.5 61.6    179.5    171.9    151.6  -999.25    182.0    503.8    -10.0  -999.25 
 412.630    104.7   19.85  -656.5 61.6    179.5    173.7    151.6  -999.25    181.4    503.8    -10.0  -999.25 
 412.650     34.1   19.86  -656.7 61.6    178.9    173.7    151.6  -0.12      180.6    503.4    -10.0  0.10000 
 412.670     34.1   19.86  -656.7 61.7    178.9    173.7    151.6  -999.25    180.6    503.4    -10.0  -999.25 
 412.690     34.1   19.89  -656.5 61.7    177.5    169.9    151.6  0.08       180.0    502.9    -10.0  0.10000 
 412.710    128.2   19.89  -656.5 61.6    177.5    169.9    153.0  -999.25    180.0    502.9    -10.0  -999.25 
 412.730    128.2   19.89  -656.5 61.6    177.5    173.1    153.0  -999.25    178.9    502.9    -10.0  -999.25 
 412.750    175.3   19.85  -656.7 61.6    176.9    173.1    153.0  -0.02      178.1    503.8    -10.0  0.10000 
 412.770    175.3   19.85  -656.7 61.6    176.9    173.1    153.3  -999.25    178.1    503.8    -10.0  -999.25 
 412.790    175.3   19.86  -656.5 61.6    175.1    168.2    153.3  0.07       177.4    503.6    -10.0  0.10000 
 412.810    151.8   19.86  -656.5 61.6    175.1    168.2    155.8  -999.25    177.4    503.6    -10.0  -999.25 
 412.830    151.8   19.86  -656.5 61.6    175.1    170.5    155.8  -999.25    176.7    503.6    -10.0  -999.25 
 412.850     92.9   19.84  -657.1 61.6    174.1    170.5    155.8  -0.05      175.3    503.9    -10.0  0.10000 
 412.870     92.9   19.84  -657.1 61.6    174.1    170.5    156.1  -999.25    175.3    503.9    -10.0  -999.25 
 412.890     92.9   19.87  -656.8 61.6    173.4    168.7    156.1  -0.02      175.0    503.2    -10.0  0.10000 
 412.910    151.8   19.87  -656.8 61.6    173.4    168.7    157.5  -999.25    175.0    503.2    -10.0  -999.25 
 412.930    151.8   19.87  -656.8 61.6    173.4    167.0    157.5  -999.25    175.6    503.2    -10.0  -999.25 
 412.950     92.9   19.88  -656.8 61.6    171.9    167.0    157.5  0.08       173.5    503.1    -10.0  0.10000 
 412.970     92.9   19.88  -656.8 61.6    171.9    167.0    159.0  -999.25    173.5    503.1    -10.0  -999.25 
 412.990     92.9   19.87  -656.4 61.6    170.9    168.2    159.0  -0.02      171.8    503.2    -10.0  0.10000 
 413.010     92.9   19.87  -656.4 61.6    170.9    168.2    160.0  -999.25    171.8    503.2    -10.0  -999.25 
 413.030     92.9   19.87  -656.6 61.6    170.9    164.0    160.0  -999.25    173.2    503.2    -10.0  -999.25 
 413.050     69.4   19.89  -656.6 61.6    169.1    164.0    160.0  0.05       170.8    502.9    -10.0  0.10000 
 413.070     69.4   19.89  -656.6 61.5    169.1    168.4    162.8  -999.25    169.3    502.9    -10.0  -999.25 
 413.090     69.4   19.89  -656.9 61.5    168.5    168.4    162.8  -0.06      168.6    502.9    -10.0  0.09900 
 413.110    175.3   19.89  -656.9 61.6    168.5    168.4    164.3  -999.25    168.6    502.9    -10.0  -999.25 
 413.130    175.3   19.89  -656.7 61.6    168.5    163.9    164.3  -999.25    170.1    502.9    -10.0  -999.25 
 413.150     92.9   19.88  -656.7 61.6    166.9    163.9    164.3  -999.25    167.9    503.1    -10.0  0.10100 
 413.170     92.9   19.88  -656.7 61.6    166.9    166.3    166.8  -999.25    167.1    503.1    -10.0  -999.25 
 413.190     92.9   19.85  -656.5 61.6    166.0    166.3    166.8  -0.01      165.9    503.8    -10.0  0.10000 
 413.210     81.2   19.85  -656.5 61.6    166.0    166.3    168.9  -999.25    165.9    503.8    -10.0  -999.25 
 413.230     81.2   19.85  -656.7 61.6    166.0    164.9    168.9  -999.25    166.4    503.8    -10.0  -999.25 
 413.250    140.0   19.86  -656.7 61.6    165.7    164.9    170.2  -0.03      166.0    503.6    -10.0  0.10000 
 413.270    140.0   19.86  -656.7 61.6    165.7    164.7    170.2  -999.25    166.1    503.6    -10.0  -999.25 
 413.290    140.0   19.86  -656.6 61.6    164.7    164.7    170.2  0.03       164.7    503.4    -10.0  0.10000 
 413.310     92.9   19.86  -656.6 61.6    164.7    164.7    172.0  -999.25    164.7    503.4    -10.0  -999.25 
 413.330     92.9   19.86  -656.7 61.6    164.7    165.8    172.0  -999.25    164.3    503.6    -10.0  -999.25 
 413.350     57.6   19.86  -656.7 61.6    165.0    165.8    172.0  0.02       164.8    503.6    -10.0  0.10000 
 413.370     57.6   19.86  -656.7 61.6    165.0    162.1    172.0  -999.25    166.0    503.6    -10.0  -999.25 
 413.390     57.6   19.87  -656.6 61.6    164.5    162.1    172.0  -0.05      165.3    503.2    -10.0  0.10000 
 413.410     81.2   19.87  -656.6 61.6    164.5    162.1    173.8  -999.25    165.3    503.2    -10.0  -999.25 
 413.430     81.2   19.87  -656.6 61.6    164.5    166.1    173.8  -999.25    163.9    503.2    -10.0  -999.25 
 413.450     34.1   19.87  -656.6 61.6    165.0    166.1    174.3  0.04       164.7    503.2    -10.0  0.10000 
 413.470     34.1   19.87  -656.6 61.6    165.0    162.2    174.3  -999.25    166.0    503.2    -10.0  -999.25 
 413.490     57.6   19.85  -656.6 61.6    165.3    162.2    174.3  0.01       166.3    503.8    -10.0  0.09900 
 413.510     57.6   19.85  -656.6 61.6    165.3    162.2    174.3  -999.25    166.3    503.8    -10.0  -999.25 
 413.530     57.6   19.86  -656.5 61.6    165.3    165.3    174.3  -0.05      165.3    503.4    -10.0  0.10100 
 413.550    163.5   19.86  -656.5 61.6    165.1    165.3    174.2  -999.25    165.0    503.4    -10.0  -999.25 
 413.570    163.5   19.86  -656.5 61.6    165.1    163.8    174.2  -999.25    165.6    503.4    -10.0  -999.25 
 413.590    187.1   19.89  -656.8 61.6    166.4    163.8    174.2  -0.01      167.2    502.9    -10.0  0.09900 
 413.610    187.1   19.89  -656.8 61.6    166.4    163.8    172.4  -999.25    167.2    502.9    -10.0  -999.25 
 413.630    187.1   19.86  -656.5 61.6    166.4    163.6    172.4  -0.00      167.3    503.4    -10.0  0.10100 
 413.650    104.7   19.86  -656.5 61.6    166.6    163.6    170.6  -999.25    167.6    503.4    -10.0  -999.25 
 413.670    104.7   19.86  -656.5 61.6    166.6    165.7    170.6  -999.25    166.9    503.4    -10.0  -999.25 
 413.690    187.1   19.88  -656.6 61.6    168.1    165.7    170.6  -0.03      168.9    503.1    -10.0  0.10000 
 413.710    187.1   19.88  -656.6 61.6    168.1    165.7    167.5  -999.25    168.9    503.1    -10.0  -999.25 
 413.730    187.1   19.86  -656.5 61.6    168.1    162.4    167.5  0.04       170.0    503.4    -10.0  0.09900 
 413.750    128.2   19.86  -656.5 61.6    167.9    162.4    165.0  -999.25    169.8    503.4    -10.0  -999.25 
 413.770    128.2   19.86  -656.5 61.6    167.9    166.7    165.0  -999.25    168.3    503.4    -10.0  -999.25 
 413.790     81.2   19.87  -656.8 61.6    168.9    166.7    165.0  -0.03      169.7    503.2    -10.0  0.10100 
 413.810     81.2   19.87  -656.8 61.6    168.9    166.7    161.2  -999.25    169.7    503.2    -10.0  -999.25 
 413.830     81.2   19.87  -657.1 61.6    168.9    164.6    161.2  0.01       170.4    503.2    -10.0  0.09900 
 413.850    128.2   19.87  -657.1 61.6    169.6    164.6    157.6  -999.25    171.3    503.2    -10.0  -999.25 
 413.870    128.2   19.87  -657.1 61.6    169.6    167.9    157.6  -999.25    170.2    503.2    -10.0  -999.25 
 413.890    210.6   19.87  -656.7 61.6    169.6    167.9    157.6  0.02       170.2    503.2    -10.0  0.10100 
 413.910    210.6   19.87  -656.7 61.6    169.6    167.9    155.3  -999.25    170.2    503.2    -10.0  -999.25 
 413.930    210.6   19.85  -656.8 61.6    169.6    167.2    155.3  0.01       170.4    503.8    -10.0  0.10000 
 413.950     92.9   19.85  -656.8 61.6    170.7    167.2    151.5  -999.25    171.8    503.8    -10.0  -999.25 
 413.970     92.9   19.85  -656.8 61.6    170.7    168.6    151.5  -999.25    171.4    503.8    -10.0  -999.25 
 413.990    128.2   19.88  -656.5 61.6    170.1    168.6    151.5  0.01       170.6    503.1    -10.0  0.09900 
