~Version Information
 VERS.                2.0:  CWLS LOG ASCII STANDARD -VERSION 2.0
 WRAP.                 NO:  ONE LINE PER DEPTH STEP
~WELL INFORMATION BLOCK
#MNEM.UNIT       DATA		            DESCRIPTION OF MNEMONIC
#---------    -------------            ------------------------
 STRT.FT  1.130                          :START DEPTH
 STOP.FT  518.850                        :STOP DEPTH
 STEP.FT  0.020                          :STEP    UP_HOLE  
 NULL.    -999.25                        :NULL VALUE
 COMP.    CARLETON GEO LOOP E-1          :COMPANY
 WELL.    278816-MULTITOOL                                             :WELL
 FLD .    NORTHFIELD 71-B                :FIELD\LOCATION
 LOC .    31    112   19                 :LOCATION
 CNTY.    RICE                           :COUNTY
 STAT.    CADDDC                         :STATE
 CTRY.    USA                            :COUNTRY
 SRVC.    TRUCK                          :SERVICE COMPANY
 DATE.    08/15/2017                     :LOG DATE
 API .                                       :API NUMBER
 LIC .                                   :LICENSE NUMBER
~Curve Information Block
#MNEM.UNIT      API CODE     Curve Description
#---------    -------------  ------------------------
 DEPT     .FT        00 001 00 00          :  1  DEPTH   
 GAMMA    .API-GR    00 310 00 00          :  2  GAMMA RAY           
 RES(FL)  .OHM-M     00 000 00 00          :  3  RES(FL)             
 SP       .MV        00 010 00 00          :  4  SPON POTENTIAL      
 TEMP     .DEG_F     00 660 00 00          :  5  TEMPERATURE         
 RES(16N) .OHM-M     00 040 00 00          :  6  16 NORMAL RES       
 RES(64N) .OHM-M     00 060 00 00          :  7  64 NORMAL RES       
 RES      .OHM       00 000 00 00          :  8  SINGLE POINT RES    
 DEL_TEMP .DEG_F     00 000 00 00          :  9  SAMPLE DELTA TEMP   
 LATERAL  .OHM-M     00 070 00 00          : 10  LATERAL             
 SP_COND  .US/CM     00 000 00 00          : 11  SP COND             
 TENSION  .CPS       00 000 00 00          : 12  LINE TENSION        
 TIME     .SECONDS   00 000 00 00          : 13  TIME                
~Parameter Information Block
#MNEM.UNIT   Information     Description
#---------- ---------------  ------------------------
 FILE.      PROCESSED          :File Type
 FIID.      8144A              :File Type Identifier
 VERS.      3.60Q              :System Version
 SER .      1                  :System Serial Number
 TRUK.      0.0                :Truck Calibration Number
 TOOL.        1229             :Tool Serial Number
 TIME.      1450               :Time    HrHrMinMin
 LAT .                         :Latitude
 LON .                         :Longitude
 LMF .                         :Log Measured From
 DMF .                         :Driller Measured From
 PD  .                         :Permanent Data
 PDEV.FT                       :Elevation Permanent Data
 EKB .FT                       :Elevation Kelly Bushing
 ELEV.FT                       :Elevation DF
 EGL .FT    938 L1             :Elevation Ground Level
 DRDP.FT    109                :Driller's Depth
 CASD.FT    6                  :Casing Diameter
 CASB.FT                       :Casing Bottom
 CASX.                         :Casing Type
 CAST.IN    0                  :Casing Thickness
 TNOC.                         :Time Circulation Stopped
 LOGU.                         :Logging Unit
 RECB.      PETTUS             :Recorded By
 OSR1.                         :Other Services
 OSR2.                         :Other Services
 OSR3.                         :Other Services
 BS  .IN           6           :Bit Size
 MST .F                        :Mean Surface Temperature
 TGRD.F     0                  :Temperature Gradiant
 MAGN.      0                  :Magnetic Declination
 MDEN.      2.84               :Density Matrix
 MATR.      DOLOMITE           :Neutron Matrix
 DTMT.      44                 :Delta T Matrix
 DTFL.                         :Delta T Fluid
 MUDS.      0                  :Mud Sample Source
 MRS .      0                  :Mud Resistivity
 MTP .      0                  :Mud Temperature
 MFRS.                         :Resistivity Mud Filtrate
 MFTP.                         :Temperature Mud Filtrate
 MCRS.      0                  :Resistivity Mud Cake
 MCTP.                         :Temperature Mud Cake
 FTYP.      0                  :Fluid Type
 FD  .LB/G     0               :Mud Weight
 DFV .S                        :Fluid Viscosity
 FPH .                         :Fuild PH
 ELCO.      2500               :Electron Cutoff
 CASL.IN    4                  :Casing Logger
 LOTD.FT                       :Logger TD
 ARTM.                         :Arrival Time
 DPTM.                         :Departure Time
 RIGN.                         :Rig Number
~Other Information
#MNEM.UNIT  Information      Description
#---------- ---------------  ------------------------
# -------------------------- 
~A DEPTH  GAMMA    RES(FL) SP    TEMP  RES(16N) RES(64N) RES      DEL_TEMP LATERAL  SP_COND  TENSION  TIME    
# ...
  74.170     45.9   19.18  -656.1 63.8      1.4      8.7     29.0  -999.25     -1.0    521.5    -10.0  -999.25 
  74.190     45.9   19.15  -656.1 63.8      1.4     13.0     29.0  -999.25     -2.4    522.1    -10.0  -999.25 
  74.210     45.9   19.15  -655.9 63.8      1.4     13.0     29.0  0.03        -2.4    522.1    -10.0  0.10100 
  74.230     45.9   19.15  -655.9 63.8      0.8     13.0     29.0  -999.25     -3.3    522.1    -10.0  -999.25 
  74.250     22.4   19.15  -655.9 63.8      0.8     13.0     29.6  -999.25     -3.3    522.1    -10.0  -999.25 
  74.270     22.4   19.17  -655.9 63.8      0.8     10.2     29.6  -999.25     -2.3    521.7    -10.0  -999.25 
  74.290     22.4   19.17  -655.9 63.8      0.8     10.2     29.6  -0.09       -2.3    521.7    -10.0  0.09900 
  74.310     22.4   19.17  -655.9 63.9      0.8     10.2     29.6  -999.25     -2.4    521.7    -10.0  -999.25 
  74.330     -1.2   19.17  -655.9 63.9      0.8     10.2     28.9  -999.25     -2.4    521.7    -10.0  -999.25 
  74.350     -1.2   19.15  -655.9 63.9      0.8     10.8     28.9  -999.25     -2.6    522.1    -10.0  -999.25 
  74.370     -1.2   19.15  -656.0 63.9      0.8     10.8     28.9  -999.25     -2.6    522.1    -10.0  -999.25 
  74.390     -1.2   19.15  -656.0 63.9      0.3     10.8     28.9  0.00        -3.2    522.1    -10.0  0.10100 
  74.410     -1.2   19.15  -656.0 63.9      0.3     10.8     29.3  -999.25     -3.2    522.1    -10.0  -999.25 
  74.430     -1.2   19.17  -656.0 63.9      0.3      9.5     29.3  -999.25     -2.8    521.7    -10.0  -999.25 
  74.450     -1.2   19.17  -656.1 63.9      0.3      9.5     29.3  -999.25     -2.8    521.7    -10.0  -999.25 
  74.470     -1.2   19.17  -656.1 63.9      0.4      9.5     29.3  -0.04       -2.6    521.7    -10.0  0.09900 
  74.490     34.1   19.17  -656.1 63.9      0.4      9.5     29.0  -999.25     -2.6    521.7    -10.0  -999.25 
  74.510     34.1   19.15  -656.1 63.9      0.4      9.0     29.0  -999.25     -2.5    522.1    -10.0  -999.25 
  74.530     34.1   19.15  -655.9 63.9      0.4      9.0     29.0  -999.25     -2.5    522.1    -10.0  -999.25 
  74.550     34.1   19.15  -655.9 63.9      0.4      9.0     29.0  0.06        -2.5    522.1    -10.0  0.10000 
  74.570     34.1   19.15  -655.9 63.9      0.2      9.0     29.1  -999.25     -2.8    522.1    -10.0  -999.25 
  74.590     34.1   19.18  -655.9 63.9      0.2      9.0     29.1  -999.25     -2.8    521.3    -10.0  -999.25 
  74.610     34.1   19.18  -656.0 63.9      0.2      8.8     29.1  -999.25     -2.7    521.3    -10.0  -999.25 
  74.630     34.1   19.18  -656.0 63.9      0.2      8.8     29.1  0.00        -2.7    521.3    -10.0  0.10100 
  74.650     22.4   19.18  -656.0 63.9      0.5      8.8     28.5  -999.25     -2.3    521.3    -10.0  -999.25 
  74.670     22.4   19.18  -656.0 63.9      0.5      8.8     28.5  -999.25     -2.3    521.5    -10.0  -999.25 
  74.690     22.4   19.18  -656.0 63.9      0.5      8.9     28.5  -999.25     -2.3    521.5    -10.0  -999.25 
  74.710     22.4   19.18  -656.0 63.9      0.5      8.9     28.5  -0.01       -2.3    521.5    -10.0  0.09900 
  74.730     10.6   19.18  -656.0 63.9      0.8      8.9     28.3  -999.25     -1.9    521.5    -10.0  -999.25 
  74.750     10.6   19.17  -656.0 63.9      0.8      8.9     28.3  -999.25     -1.9    521.7    -10.0  -999.25 
  74.770     10.6   19.17  -656.1 63.9      0.8      8.9     28.3  -999.25     -1.9    521.7    -10.0  -999.25 
  74.790     10.6   19.17  -656.1 63.9      0.8      8.9     28.3  0.04        -1.9    521.7    -10.0  0.10000 
  74.810     34.1   19.17  -656.1 63.8      1.2      8.9     28.1  -999.25     -1.3    521.7    -10.0  -999.25 
  74.830     34.1   19.17  -656.1 63.8      1.2      8.9     28.1  -999.25     -1.3    521.7    -10.0  -999.25 
  74.850     34.1   19.16  -656.0 63.8      1.2      8.8     28.1  -999.25     -1.3    521.9    -10.0  -999.25 
  74.870     34.1   19.16  -656.0 63.8      1.2      8.8     28.1  -0.01       -1.3    521.9    -10.0  0.10000 
  74.890     34.1   19.16  -656.0 63.8      1.4      8.8     27.6  -999.25     -1.1    521.9    -10.0  -999.25 
  74.910     34.1   19.16  -656.0 63.8      1.4      8.8     27.6  -999.25     -1.1    521.9    -10.0  -999.25 
  74.930     34.1   19.18  -656.0 63.8      1.4      9.6     27.6  -999.25     -1.4    521.5    -10.0  -999.25 
  74.950     34.1   19.18  -656.0 63.8      1.4      9.6     27.6  -0.02       -1.4    521.5    -10.0  0.10000 
  74.970     -1.2   19.18  -656.0 63.9      2.2      9.6     27.1  -999.25     -0.3    521.5    -10.0  -999.25 
  74.990     -1.2   19.18  -656.0 63.9      2.2      9.6     27.1  -999.25     -0.3    521.5    -10.0  -999.25 
  75.010     -1.2   19.18  -656.0 63.9      2.2     10.1     27.1  -999.25     -0.5    521.3    -10.0  -999.25 
  75.030     -1.2   19.18  -655.9 63.9      2.2     10.1     27.1  -999.25     -0.5    521.3    -10.0  -999.25 
  75.050     34.1   19.18  -655.9 63.9      1.6     10.1     25.5  0.02        -1.2    521.3    -10.0  0.10100 
  75.070     34.1   19.18  -655.9 63.8      1.6     10.1     25.5  -999.25     -1.2    521.3    -10.0  -999.25 
  75.090     34.1   19.20  -655.9 63.8      1.6      8.2     25.5  -999.25     -0.6    520.9    -10.0  -999.25 
  75.110     34.1   19.20  -656.0 63.8      1.6      8.2     25.5  -999.25     -0.6    520.9    -10.0  -999.25 
  75.130     34.1   19.20  -656.0 63.8      1.2      8.2     24.1  -0.03       -1.1    520.9    -10.0  0.09900 
  75.150     34.1   19.20  -656.0 63.9      1.2      8.2     24.1  -999.25     -1.1    520.9    -10.0  -999.25 
  75.170     34.1   19.16  -656.0 63.9      1.2      8.9     24.1  -999.25     -1.3    521.9    -10.0  -999.25 
  75.190     34.1   19.16  -656.0 63.9      1.2      8.9     24.1  -999.25     -1.3    521.9    -10.0  -999.25 
  75.210     69.4   19.16  -656.0 63.9      0.9      8.9     24.1  0.04        -1.8    521.9    -10.0  0.10000 
  75.230     69.4   19.16  -656.0 63.8      0.9      8.9     23.8  -999.25     -1.8    521.9    -10.0  -999.25 
  75.250     69.4   19.19  -656.0 63.8      0.9     10.8     23.8  -999.25     -2.5    521.1    -10.0  -999.25 
  75.270     69.4   19.19  -656.1 63.8      0.9     10.8     23.8  -999.25     -2.5    521.1    -10.0  -999.25 
  75.290     -1.2   19.19  -656.1 63.8      0.7     10.8     23.8  -0.08       -2.7    521.1    -10.0  0.10000 
  75.310     -1.2   19.19  -656.1 63.9      0.7     10.8     23.8  -999.25     -2.7    521.1    -10.0  -999.25 
  75.330     -1.2   19.20  -656.1 63.9      0.7      8.7     23.8  -999.25     -2.0    520.7    -10.0  -999.25 
  75.350     -1.2   19.20  -655.9 63.9      0.7      8.7     23.8  -999.25     -2.0    520.7    -10.0  -999.25 
  75.370     -1.2   19.20  -655.9 63.9      0.4      8.7     23.8  0.02        -2.3    520.7    -10.0  0.10000 
  75.390     -1.2   19.20  -655.9 63.9      0.4      8.7     23.4  -999.25     -2.3    520.7    -10.0  -999.25 
  75.410     -1.2   19.20  -655.9 63.9      0.4      8.7     23.4  -999.25     -2.3    520.9    -10.0  -999.25 
  75.430     -1.2   19.20  -656.0 63.9      0.4     11.1     23.4  -999.25     -3.1    520.9    -10.0  -999.25 
  75.450     -1.2   19.20  -656.0 63.9      0.1     11.1     23.4  0.01        -3.6    520.9    -10.0  0.10000 
  75.470     22.4   19.20  -656.0 63.9      0.1     11.1     23.4  -999.25     -3.6    520.9    -10.0  -999.25 
  75.490     22.4   19.20  -656.0 63.9      0.1     11.1     23.4  -999.25     -3.6    520.7    -10.0  -999.25 
  75.510     22.4   19.20  -655.9 63.9      0.1     13.6     23.4  -999.25     -4.5    520.7    -10.0  -999.25 
  75.530     22.4   19.20  -655.9 63.9      0.6     13.6     23.4  -0.01       -3.8    520.7    -10.0  0.10000 
  75.550     10.6   19.20  -655.9 63.9      0.6     13.6     23.2  -999.25     -3.8    520.7    -10.0  -999.25 
  75.570     10.6   19.20  -655.9 63.9      0.6     13.6     23.2  -999.25     -3.8    520.9    -10.0  -999.25 
  75.590     10.6   19.20  -655.9 63.9      0.6     14.3     23.2  -999.25     -4.0    520.9    -10.0  -999.25 
