~Version Information
 VERS.                2.0:  CWLS LOG ASCII STANDARD -VERSION 2.0
 WRAP.                 NO:  ONE LINE PER DEPTH STEP
~WELL INFORMATION BLOCK
#MNEM.UNIT       DATA		            DESCRIPTION OF MNEMONIC
#---------    -------------            ------------------------
 STRT.FT  1.130                          :START DEPTH
 STOP.FT  518.850                        :STOP DEPTH
 STEP.FT  0.020                          :STEP    UP_HOLE  
 NULL.    -999.25                        :NULL VALUE
 COMP.    CARLETON GEO LOOP E-1          :COMPANY
 WELL.    278816-MULTITOOL                                             :WELL
 FLD .    NORTHFIELD 71-B                :FIELD\LOCATION
 LOC .    31    112   19                 :LOCATION
 CNTY.    RICE                           :COUNTY
 STAT.    CADDDC                         :STATE
 CTRY.    USA                            :COUNTRY
 SRVC.    TRUCK                          :SERVICE COMPANY
 DATE.    08/15/2017                     :LOG DATE
 API .                                       :API NUMBER
 LIC .                                   :LICENSE NUMBER
~Curve Information Block
#MNEM.UNIT      API CODE     Curve Description
#---------    -------------  ------------------------
 DEPT     .FT        00 001 00 00          :  1  DEPTH   
 GAMMA    .API-GR    00 310 00 00          :  2  GAMMA RAY           
 RES(FL)  .OHM-M     00 000 00 00          :  3  RES(FL)             
 SP       .MV        00 010 00 00          :  4  SPON POTENTIAL      
 TEMP     .DEG_F     00 660 00 00          :  5  TEMPERATURE         
 RES(16N) .OHM-M     00 040 00 00          :  6  16 NORMAL RES       
 RES(64N) .OHM-M     00 060 00 00          :  7  64 NORMAL RES       
 RES      .OHM       00 000 00 00          :  8  SINGLE POINT RES    
 DEL_TEMP .DEG_F     00 000 00 00          :  9  SAMPLE DELTA TEMP   
 LATERAL  .OHM-M     00 070 00 00          : 10  LATERAL             
 SP_COND  .US/CM     00 000 00 00          : 11  SP COND             
 TENSION  .CPS       00 000 00 00          : 12  LINE TENSION        
 TIME     .SECONDS   00 000 00 00          : 13  TIME                
~Parameter Information Block
#MNEM.UNIT   Information     Description
#---------- ---------------  ------------------------
 FILE.      PROCESSED          :File Type
 FIID.      8144A              :File Type Identifier
 VERS.      3.60Q              :System Version
 SER .      1                  :System Serial Number
 TRUK.      0.0                :Truck Calibration Number
 TOOL.        1229             :Tool Serial Number
 TIME.      1450               :Time    HrHrMinMin
 LAT .                         :Latitude
 LON .                         :Longitude
 LMF .                         :Log Measured From
 DMF .                         :Driller Measured From
 PD  .                         :Permanent Data
 PDEV.FT                       :Elevation Permanent Data
 EKB .FT                       :Elevation Kelly Bushing
 ELEV.FT                       :Elevation DF
 EGL .FT    938 L1             :Elevation Ground Level
 DRDP.FT    109                :Driller's Depth
 CASD.FT    6                  :Casing Diameter
 CASB.FT                       :Casing Bottom
 CASX.                         :Casing Type
 CAST.IN    0                  :Casing Thickness
 TNOC.                         :Time Circulation Stopped
 LOGU.                         :Logging Unit
 RECB.      PETTUS             :Recorded By
 OSR1.                         :Other Services
 OSR2.                         :Other Services
 OSR3.                         :Other Services
 BS  .IN           6           :Bit Size
 MST .F                        :Mean Surface Temperature
 TGRD.F     0                  :Temperature Gradiant
 MAGN.      0                  :Magnetic Declination
 MDEN.      2.84               :Density Matrix
 MATR.      DOLOMITE           :Neutron Matrix
 DTMT.      44                 :Delta T Matrix
 DTFL.                         :Delta T Fluid
 MUDS.      0                  :Mud Sample Source
 MRS .      0                  :Mud Resistivity
 MTP .      0                  :Mud Temperature
 MFRS.                         :Resistivity Mud Filtrate
 MFTP.                         :Temperature Mud Filtrate
 MCRS.      0                  :Resistivity Mud Cake
 MCTP.                         :Temperature Mud Cake
 FTYP.      0                  :Fluid Type
 FD  .LB/G     0               :Mud Weight
 DFV .S                        :Fluid Viscosity
 FPH .                         :Fuild PH
 ELCO.      2500               :Electron Cutoff
 CASL.IN    4                  :Casing Logger
 LOTD.FT                       :Logger TD
 ARTM.                         :Arrival Time
 DPTM.                         :Departure Time
 RIGN.                         :Rig Number
~Other Information
#MNEM.UNIT  Information      Description
#---------- ---------------  ------------------------
# -------------------------- 
~A DEPTH  GAMMA    RES(FL) SP    TEMP  RES(16N) RES(64N) RES      DEL_TEMP LATERAL  SP_COND  TENSION  TIME    
# ...
 379.450     81.2   20.05  -656.4 61.6    339.1    140.0    232.8  -999.25    405.5    498.8    -10.0  -999.25 
 379.470     81.2   20.05  -656.8 61.6    341.1    140.0    232.8  -999.25    408.2    498.7    -10.0  0.10000 
 379.490     45.9   20.05  -656.8 61.6    341.1    140.0    233.4  -999.25    408.2    498.7    -10.0  -999.25 
 379.510     45.9   20.05  -656.3 61.6    341.1    139.3    233.4  -999.25    408.4    498.7    -10.0  -999.25 
 379.530     57.6   20.05  -656.3 61.6    342.9    139.3    233.4  0.02       410.8    498.7    -10.0  0.10000 
 379.550     57.6   20.05  -656.3 61.6    342.9    142.3    234.5  -999.25    409.8    498.7    -10.0  -999.25 
 379.570     57.6   20.05  -656.6 61.6    345.5    142.3    234.5  -0.02      413.2    498.8    -10.0  0.10000 
 379.590     34.1   20.05  -656.6 61.6    345.5    142.3    233.5  -999.25    413.2    498.8    -10.0  -999.25 
 379.610     34.1   20.05  -656.5 61.6    345.5    140.2    233.5  -999.25    413.9    498.8    -10.0  -999.25 
 379.630     69.4   20.10  -656.5 61.6    347.8    140.2    233.5  0.05       417.0    497.4    -10.0  0.10000 
 379.650     69.4   20.10  -656.5 61.5    347.8    142.9    234.9  -999.25    416.1    497.4    -10.0  -999.25 
 379.670     69.4   20.04  -656.4 61.5    350.4    142.9    234.9  0.03       419.6    499.0    -10.0  0.10000 
 379.690    104.7   20.04  -656.4 61.5    350.4    142.9    233.9  -999.25    419.6    499.0    -10.0  -999.25 
 379.710    104.7   20.04  -656.6 61.5    350.4    140.3    233.9  -999.25    420.5    499.0    -10.0  -999.25 
 379.730     92.9   20.09  -656.6 61.5    352.2    140.3    233.9  -0.03      422.9    497.8    -10.0  0.10000 
 379.750     92.9   20.09  -656.6 61.5    352.2    143.1    234.1  -999.25    421.9    497.8    -10.0  -999.25 
 379.770     92.9   20.09  -656.6 61.5    354.7    143.1    234.1  -0.01      425.2    497.8    -10.0  0.10000 
 379.790     45.9   20.09  -656.6 61.5    354.7    143.1    234.0  -999.25    425.2    497.8    -10.0  -999.25 
 379.810     45.9   20.09  -656.6 61.5    354.7    143.8    234.0  -999.25    425.0    497.8    -10.0  -999.25 
 379.830     81.2   20.12  -656.6 61.5    357.4    143.8    233.2  -0.01      428.6    497.1    -10.0  0.10000 
 379.850     81.2   20.12  -656.6 61.6    357.4    143.7    233.2  -999.25    428.6    497.1    -10.0  -999.25 
 379.870     81.2   20.14  -656.5 61.6    358.8    143.7    233.2  0.06       430.6    496.6    -10.0  0.10000 
 379.890     45.9   20.14  -656.5 61.5    358.8    143.7    232.1  -999.25    430.6    496.6    -10.0  -999.25 
 379.910     45.9   20.14  -656.5 61.5    358.8    147.3    232.1  -999.25    429.3    496.6    -10.0  -999.25 
 379.930    163.5   20.10  -656.5 61.5    360.7    147.3    229.9  -0.04      431.9    497.4    -10.0  0.10000 
 379.950    163.5   20.10  -656.5 61.5    360.7    144.9    229.9  -999.25    432.7    497.4    -10.0  -999.25 
 379.970    163.5   20.13  -656.3 61.5    361.7    144.9    229.9  -0.02      434.0    496.7    -10.0  0.10000 
 379.990    175.3   20.13  -656.3 61.6    361.7    144.9    229.2  -999.25    434.0    496.7    -10.0  -999.25 
 380.010    175.3   20.09  -656.5 61.6    361.7    149.8    229.2  -999.25    432.4    497.8    -10.0  -999.25 
 380.030     69.4   20.09  -656.5 61.6    362.7    149.8    227.3  -0.04      433.6    497.8    -10.0  0.10000 
 380.050     69.4   20.09  -656.5 61.6    362.7    147.3    227.3  -999.25    434.4    497.8    -10.0  -999.25 
 380.070    116.5   20.10  -656.3 61.6    363.4    147.3    227.3  0.06       435.4    497.6    -10.0  0.10000 
 380.090    116.5   20.10  -656.3 61.5    363.4    147.3    226.5  -999.25    435.4    497.6    -10.0  -999.25 
 380.110    116.5   20.10  -656.7 61.5    363.4    150.2    226.5  -999.25    434.5    497.4    -10.0  -999.25 
 380.130     81.2   20.10  -656.7 61.5    363.9    150.2    225.7  0.04       435.1    497.4    -10.0  0.10000 
 380.150     81.2   20.10  -656.7 61.5    363.9    149.5    225.7  -999.25    435.3    497.4    -10.0  -999.25 
 380.170    151.8   20.01  -656.9 61.5    364.5    149.5    225.7  -0.07      436.1    499.7    -10.0  0.10000 
 380.190    151.8   20.01  -656.9 61.6    364.5    149.5    224.6  -999.25    436.1    499.7    -10.0  -999.25 
 380.210    151.8   20.07  -656.8 61.6    364.5    150.6    224.6  0.01       435.7    498.3    -10.0  0.10000 
 380.230    116.5   20.07  -656.8 61.6    364.5    150.6    225.2  -999.25    435.8    498.3    -10.0  -999.25 
 380.250    116.5   20.07  -656.8 61.6    364.5    154.0    225.2  -999.25    434.7    498.3    -10.0  -999.25 
 380.270    104.7   20.01  -656.4 61.6    365.4    154.0    225.2  -0.01      435.9    499.7    -10.0  0.10000 
 380.290    104.7   20.01  -656.4 61.6    365.4    154.0    225.0  -999.25    435.9    499.7    -10.0  -999.25 
 380.310    104.7   20.05  -656.4 61.6    365.2    152.1    225.0  0.05       436.3    498.7    -10.0  0.10000 
 380.330    104.7   20.05  -656.4 61.5    365.2    152.1    225.7  -999.25    436.3    498.7    -10.0  -999.25 
 380.350    104.7   20.05  -656.5 61.5    365.2    156.0    225.7  -999.25    435.0    498.7    -10.0  -999.25 
 380.370    187.1   20.07  -656.5 61.5    364.8    156.0    225.7  -999.25    434.4    498.3    -10.0  0.10000 
 380.390    187.1   20.07  -656.5 61.5    364.8    156.0    225.8  -999.25    434.4    498.3    -10.0  -999.25 
 380.410    187.1   20.04  -656.4 61.5    364.1    153.4    225.8  -0.04      434.3    499.0    -10.0  0.10000 
 380.430    151.8   20.04  -656.4 61.6    364.1    153.4    226.8  -999.25    434.3    499.0    -10.0  -999.25 
 380.450    151.8   20.04  -656.7 61.6    364.1    157.1    226.8  -999.25    433.1    499.0    -10.0  -999.25 
 380.470     81.2   20.06  -656.7 61.6    363.0    157.1    226.8  0.01       431.7    498.5    -10.0  0.10000 
 380.490     81.2   20.06  -656.7 61.6    363.0    157.1    228.4  -999.25    431.7    498.5    -10.0  -999.25 
 380.510     81.2   20.05  -656.7 61.6    361.9    155.9    228.4  0.04       430.5    498.7    -10.0  0.10000 
 380.530    163.5   20.05  -656.7 61.5    361.9    155.9    228.8  -999.25    430.5    498.7    -10.0  -999.25 
 380.550    163.5   20.05  -656.7 61.5    361.9    156.8    228.8  -999.25    430.2    498.7    -10.0  -999.25 
 380.570     81.2   20.08  -656.7 61.5    359.8    156.8    228.8  -0.08      427.4    498.0    -10.0  0.10000 
 380.590     81.2   20.08  -656.7 61.6    359.8    156.8    230.5  -999.25    427.4    498.0    -10.0  -999.25 
 380.610     81.2   20.05  -656.8 61.6    358.1    159.1    230.5  0.04       424.4    498.7    -10.0  0.10000 
 380.630    128.2   20.05  -656.8 61.6    358.1    159.1    231.4  -999.25    424.4    498.7    -10.0  -999.25 
 380.650    128.2   20.05  -656.4 61.6    358.1    157.5    231.4  -999.25    424.9    498.7    -10.0  -999.25 
 380.670    175.3   20.07  -656.4 61.6    355.6    157.5    231.4  -0.01      421.6    498.3    -10.0  0.10000 
 380.690    175.3   20.07  -656.4 61.6    355.6    161.0    232.3  -999.25    420.4    498.3    -10.0  -999.25 
 380.710    175.3   20.01  -656.4 61.6    353.4    161.0    232.3  -999.25    417.6    499.7    -10.0  0.10000 
 380.730    140.0   20.01  -656.4 61.6    353.4    161.0    233.0  -999.25    417.6    499.7    -10.0  -999.25 
 380.750    140.0   20.01  -656.5 61.6    353.4    158.2    233.0  -999.25    418.5    499.7    -10.0  -999.25 
 380.770     92.9   20.05  -656.5 61.6    350.9    158.2    233.0  0.01       415.2    498.8    -10.0  0.10000 
 380.790     92.9   20.05  -656.5 61.6    350.9    162.4    232.8  -999.25    413.8    498.8    -10.0  -999.25 
 380.810     92.9   20.05  -656.4 61.6    348.7    162.4    232.8  -0.02      410.8    498.8    -10.0  0.10000 
 380.830    104.7   20.05  -656.4 61.6    348.7    162.4    233.4  -999.25    410.8    498.8    -10.0  -999.25 
 380.850    104.7   20.05  -656.3 61.6    348.7    160.5    233.4  -999.25    411.4    498.8    -10.0  -999.25 
 380.870     34.1   20.05  -656.3 61.6    347.0    160.5    233.4  0.03       409.2    498.8    -10.0  0.10000 
