~Version Information
 VERS.                2.0:  CWLS LOG ASCII STANDARD -VERSION 2.0
 WRAP.                 NO:  ONE LINE PER DEPTH STEP
~WELL INFORMATION BLOCK
#MNEM.UNIT       DATA		            DESCRIPTION OF MNEMONIC
#---------    -------------            ------------------------
 STRT.FT  1.130                          :START DEPTH
 STOP.FT  518.850                        :STOP DEPTH
 STEP.FT  0.020                          :STEP    UP_HOLE  
 NULL.    -999.25                        :NULL VALUE
 COMP.    CARLETON GEO LOOP E-1          :COMPANY
 WELL.    278816-MULTITOOL                                             :WELL
 FLD .    NORTHFIELD 71-B                :FIELD\LOCATION
 LOC .    31    112   19                 :LOCATION
 CNTY.    RICE                           :COUNTY
 STAT.    CADDDC                         :STATE
 CTRY.    USA                            :COUNTRY
 SRVC.    TRUCK                          :SERVICE COMPANY
 DATE.    08/15/2017                     :LOG DATE
 API .                                       :API NUMBER
 LIC .                                   :LICENSE NUMBER
~Curve Information Block
#MNEM.UNIT      API CODE     Curve Description
#---------    -------------  ------------------------
 DEPT     .FT        00 001 00 00          :  1  DEPTH   
 GAMMA    .API-GR    00 310 00 00          :  2  GAMMA RAY           
 RES(FL)  .OHM-M     00 000 00 00          :  3  RES(FL)             
 SP       .MV        00 010 00 00          :  4  SPON POTENTIAL      
 TEMP     .DEG_F     00 660 00 00          :  5  TEMPERATURE         
 RES(16N) .OHM-M     00 040 00 00          :  6  16 NORMAL RES       
 RES(64N) .OHM-M     00 060 00 00          :  7  64 NORMAL RES       
 RES      .OHM       00 000 00 00          :  8  SINGLE POINT RES    
 DEL_TEMP .DEG_F     00 000 00 00          :  9  SAMPLE DELTA TEMP   
 LATERAL  .OHM-M     00 070 00 00          : 10  LATERAL             
 SP_COND  .US/CM     00 000 00 00          : 11  SP COND             
 TENSION  .CPS       00 000 00 00          : 12  LINE TENSION        
 TIME     .SECONDS   00 000 00 00          : 13  TIME                
~Parameter Information Block
#MNEM.UNIT   Information     Description
#---------- ---------------  ------------------------
 FILE.      PROCESSED          :File Type
 FIID.      8144A              :File Type Identifier
 VERS.      3.60Q              :System Version
 SER .      1                  :System Serial Number
 TRUK.      0.0                :Truck Calibration Number
 TOOL.        1229             :Tool Serial Number
 TIME.      1450               :Time    HrHrMinMin
 LAT .                         :Latitude
 LON .                         :Longitude
 LMF .                         :Log Measured From
 DMF .                         :Driller Measured From
 PD  .                         :Permanent Data
 PDEV.FT                       :Elevation Permanent Data
 EKB .FT                       :Elevation Kelly Bushing
 ELEV.FT                       :Elevation DF
 EGL .FT    938 L1             :Elevation Ground Level
 DRDP.FT    109                :Driller's Depth
 CASD.FT    6                  :Casing Diameter
 CASB.FT                       :Casing Bottom
 CASX.                         :Casing Type
 CAST.IN    0                  :Casing Thickness
 TNOC.                         :Time Circulation Stopped
 LOGU.                         :Logging Unit
 RECB.      PETTUS             :Recorded By
 OSR1.                         :Other Services
 OSR2.                         :Other Services
 OSR3.                         :Other Services
 BS  .IN           6           :Bit Size
 MST .F                        :Mean Surface Temperature
 TGRD.F     0                  :Temperature Gradiant
 MAGN.      0                  :Magnetic Declination
 MDEN.      2.84               :Density Matrix
 MATR.      DOLOMITE           :Neutron Matrix
 DTMT.      44                 :Delta T Matrix
 DTFL.                         :Delta T Fluid
 MUDS.      0                  :Mud Sample Source
 MRS .      0                  :Mud Resistivity
 MTP .      0                  :Mud Temperature
 MFRS.                         :Resistivity Mud Filtrate
 MFTP.                         :Temperature Mud Filtrate
 MCRS.      0                  :Resistivity Mud Cake
 MCTP.                         :Temperature Mud Cake
 FTYP.      0                  :Fluid Type
 FD  .LB/G     0               :Mud Weight
 DFV .S                        :Fluid Viscosity
 FPH .                         :Fuild PH
 ELCO.      2500               :Electron Cutoff
 CASL.IN    4                  :Casing Logger
 LOTD.FT                       :Logger TD
 ARTM.                         :Arrival Time
 DPTM.                         :Departure Time
 RIGN.                         :Rig Number
~Other Information
#MNEM.UNIT  Information      Description
#---------- ---------------  ------------------------
# -------------------------- 
~A DEPTH  GAMMA    RES(FL) SP    TEMP  RES(16N) RES(64N) RES      DEL_TEMP LATERAL  SP_COND  TENSION  TIME    
# ...
 480.250    175.3   20.67  -656.6 61.1    118.9    114.2    139.0  -999.25    120.5    483.9    -10.0  -999.25 
 480.270    175.3   20.67  -656.4 61.1    118.9    114.2    136.6  -999.25    120.5    483.9    -10.0  -999.25 
 480.290    175.3   20.66  -656.4 61.1    118.9    114.2    136.6  0.01       120.5    484.1    -10.0  0.10000 
 480.310    175.3   20.66  -656.4 61.1    117.9    114.6    137.1  -999.25    118.9    484.1    -10.0  -999.25 
 480.330    175.3   20.66  -656.6 61.1    117.9    114.6    137.1  -0.02      118.9    484.1    -10.0  0.10000 
 480.350    140.0   20.66  -656.6 61.1    118.3    113.4    137.1  -999.25    120.0    484.1    -10.0  -999.25 
 480.370    140.0   20.66  -656.7 61.1    118.3    113.4    136.2  -999.25    120.0    484.1    -10.0  -999.25 
 480.390    140.0   20.66  -656.7 61.1    118.3    113.4    136.2  0.01       120.0    484.1    -10.0  0.10000 
 480.410    175.3   20.66  -656.7 61.1    117.0    116.9    136.2  -999.25    117.0    484.1    -10.0  -999.25 
 480.430    175.3   20.66  -656.5 61.1    117.0    116.9    136.2  0.00       117.0    484.1    -10.0  0.10000 
 480.450    198.8   20.66  -656.5 61.1    117.4    115.8    136.2  -999.25    117.9    484.1    -10.0  -999.25 
 480.470    198.8   20.66  -656.4 61.1    117.4    115.8    137.5  -999.25    117.9    484.1    -10.0  -999.25 
 480.490    198.8   20.67  -656.4 61.1    117.4    115.8    137.5  0.03       117.9    483.7    -10.0  0.10000 
 480.510    210.6   20.67  -656.4 61.0    116.9    119.6    136.2  -999.25    116.0    483.7    -10.0  -999.25 
 480.530    210.6   20.67  -656.6 61.0    116.9    119.6    136.2  -0.00      116.0    483.9    -10.0  0.10000 
 480.550    140.0   20.67  -656.6 61.0    116.6    118.5    136.2  -999.25    115.9    483.9    -10.0  -999.25 
 480.570    140.0   20.67  -656.7 61.0    116.6    118.5    137.6  -999.25    115.9    483.9    -10.0  -999.25 
 480.590    140.0   20.67  -656.7 61.0    116.6    118.5    137.6  -0.02      115.9    483.9    -10.0  0.10000 
 480.610    140.0   20.67  -656.7 61.1    116.9    120.8    135.0  -999.25    115.6    483.9    -10.0  -999.25 
 480.630    140.0   20.67  -656.8 61.1    116.9    120.8    135.0  -0.03      115.6    483.9    -10.0  0.10000 
 480.650    187.1   20.67  -656.8 61.1    115.7    121.6    135.0  -999.25    113.7    483.9    -10.0  -999.25 
 480.670    187.1   20.67  -656.2 61.1    115.7    121.6    136.3  -999.25    113.7    483.9    -10.0  -999.25 
 480.690    187.1   20.65  -656.2 61.1    115.7    121.6    136.3  0.03       113.7    484.2    -10.0  0.10000 
 480.710    245.9   20.65  -656.2 61.1    115.9    123.0    135.3  -999.25    113.6    484.2    -10.0  -999.25 
 480.730    245.9   20.67  -656.5 61.1    115.9    123.0    135.3  -0.01      113.6    483.9    -10.0  0.10000 
 480.750    163.5   20.67  -656.5 61.1    115.1    125.1    135.3  -999.25    111.8    483.9    -10.0  -999.25 
 480.770    163.5   20.67  -656.5 61.1    115.1    125.1    136.7  -999.25    111.8    483.9    -10.0  -999.25 
 480.790    163.5   20.67  -656.5 61.1    115.1    125.1    136.7  -0.04      111.8    483.7    -10.0  0.10000 
 480.810    175.3   20.67  -656.5 61.1    115.8    123.4    135.4  -999.25    113.3    483.7    -10.0  -999.25 
 480.830    175.3   20.67  -656.6 61.1    115.8    123.4    135.4  0.05       113.3    483.9    -10.0  0.10000 
 480.850    128.2   20.67  -656.6 61.1    114.8    126.7    135.4  -999.25    110.8    483.9    -10.0  -999.25 
 480.870    128.2   20.67  -656.4 61.1    114.8    126.7    134.8  -999.25    110.8    483.9    -10.0  -999.25 
 480.890    128.2   20.67  -656.4 61.1    114.8    126.7    134.8  0.01       110.8    483.7    -10.0  0.10000 
 480.910    128.2   20.67  -656.4 61.0    115.0    124.7    135.7  -999.25    111.8    483.7    -10.0  -999.25 
 480.930    128.2   20.67  -656.8 61.0    115.0    124.7    135.7  -0.02      111.8    483.9    -10.0  0.10000 
 480.950    104.7   20.67  -656.8 61.1    114.9    127.2    135.7  -999.25    110.8    483.9    -10.0  -999.25 
 480.970    104.7   20.67  -656.8 61.1    114.9    127.2    134.1  -999.25    110.8    483.9    -10.0  -999.25 
 480.990    104.7   20.67  -656.8 61.1    114.9    127.2    134.1  0.03       110.8    483.9    -10.0  0.10000 
 481.010    198.8   20.67  -656.8 61.0    114.8    125.3    135.2  -999.25    111.3    483.9    -10.0  -999.25 
 481.030    198.8   20.66  -657.0 61.0    114.8    125.3    135.2  -0.12      111.3    484.1    -10.0  0.10000 
 481.050     81.2   20.66  -657.0 61.1    115.0    126.7    135.2  -999.25    111.1    484.1    -10.0  -999.25 
 481.070     81.2   20.66  -656.6 61.1    115.0    126.7    132.8  -999.25    111.1    484.1    -10.0  -999.25 
 481.090     81.2   20.66  -656.6 61.1    115.0    126.7    132.8  0.12       111.1    484.1    -10.0  0.10000 
 481.110    116.5   20.66  -656.6 61.0    113.8    126.0    134.2  -999.25    109.7    484.1    -10.0  -999.25 
 481.130    116.5   20.66  -656.4 61.0    113.8    126.0    134.2  -0.06      109.7    484.1    -10.0  0.10000 
 481.150    151.8   20.66  -656.4 61.1    114.4    126.3    134.2  -999.25    110.4    484.1    -10.0  -999.25 
 481.170    151.8   20.66  -656.7 61.1    114.4    126.3    133.8  -999.25    110.4    484.1    -10.0  -999.25 
 481.190    151.8   20.67  -656.7 61.1    114.4    126.3    133.8  0.03       110.4    483.9    -10.0  0.10000 
 481.210    175.3   20.67  -656.7 61.0    112.9    128.5    134.6  -999.25    107.6    483.9    -10.0  -999.25 
 481.230    175.3   20.67  -656.4 61.0    112.9    128.5    134.6  -0.00      107.6    483.9    -10.0  0.10000 
 481.250    222.4   20.67  -656.4 61.1    113.4    125.2    134.6  -999.25    109.5    483.9    -10.0  -999.25 
 481.270    222.4   20.67  -656.3 61.1    113.4    125.2    134.9  -999.25    109.5    483.9    -10.0  -999.25 
 481.290    222.4   20.67  -656.3 61.1    113.4    125.2    134.9  -0.02      109.5    483.9    -10.0  0.10000 
 481.310    128.2   20.67  -656.3 61.1    113.1    127.5    134.2  -999.25    108.3    483.9    -10.0  -999.25 
 481.330    128.2   20.67  -656.5 61.1    113.1    127.5    134.2  0.00       108.3    483.9    -10.0  0.10000 
 481.350    151.8   20.67  -656.5 61.1    113.4    124.3    134.2  -999.25    109.7    483.9    -10.0  -999.25 
 481.370    151.8   20.67  -656.4 61.1    113.4    124.3    135.5  -999.25    109.7    483.9    -10.0  -999.25 
 481.390    151.8   20.67  -656.4 61.1    113.4    124.3    135.5  0.03       109.7    483.7    -10.0  0.10000 
 481.410     81.2   20.67  -656.4 61.0    113.3    127.1    134.0  -999.25    108.7    483.7    -10.0  -999.25 
 481.430     81.2   20.65  -656.5 61.0    113.3    127.1    134.0  -0.04      108.7    484.2    -10.0  0.10000 
 481.450     92.9   20.65  -656.5 61.1    113.3    125.3    134.0  -999.25    109.3    484.2    -10.0  -999.25 
 481.470     92.9   20.65  -656.5 61.1    113.3    125.3    135.2  -999.25    109.3    484.2    -10.0  -999.25 
 481.490     92.9   20.66  -656.5 61.1    113.3    125.3    135.2  0.01       109.3    484.1    -10.0  0.10000 
 481.510     81.2   20.66  -656.5 61.1    114.5    124.9    133.1  -999.25    111.0    484.1    -10.0  -999.25 
 481.530     81.2   20.67  -656.4 61.1    114.5    124.9    133.1  -0.02      111.0    483.9    -10.0  0.10000 
 481.550     92.9   20.67  -656.4 61.1    114.1    124.0    133.1  -999.25    110.8    483.9    -10.0  -999.25 
 481.570     92.9   20.67  -656.6 61.1    114.1    124.0    134.2  -999.25    110.8    483.9    -10.0  -999.25 
 481.590     92.9   20.66  -656.6 61.1    114.1    124.0    134.2  -0.01      110.8    484.1    -10.0  0.10000 
 481.610    128.2   20.66  -656.6 61.1    115.6    123.3    134.1  -999.25    113.0    484.1    -10.0  -999.25 
 481.630    128.2   20.67  -656.2 61.1    115.6    123.3    134.1  0.01       113.0    483.9    -10.0  0.10000 
 481.650    128.2   20.67  -656.2 61.1    115.3    125.4    134.1  -999.25    112.0    483.9    -10.0  -999.25 
 481.670    128.2   20.67  -656.6 61.1    115.3    125.4    135.5  -999.25    112.0    483.9    -10.0  -999.25 
