~Version Information
 VERS.                2.0:  CWLS LOG ASCII STANDARD -VERSION 2.0
 WRAP.                 NO:  ONE LINE PER DEPTH STEP
~WELL INFORMATION BLOCK
#MNEM.UNIT       DATA		            DESCRIPTION OF MNEMONIC
#---------    -------------            ------------------------
 STRT.FT  1.130                          :START DEPTH
 STOP.FT  518.850                        :STOP DEPTH
 STEP.FT  0.020                          :STEP    UP_HOLE  
 NULL.    -999.25                        :NULL VALUE
 COMP.    CARLETON GEO LOOP E-1          :COMPANY
 WELL.    278816-MULTITOOL                                             :WELL
 FLD .    NORTHFIELD 71-B                :FIELD\LOCATION
 LOC .    31    112   19                 :LOCATION
 CNTY.    RICE                           :COUNTY
 STAT.    CADDDC                         :STATE
 CTRY.    USA                            :COUNTRY
 SRVC.    TRUCK                          :SERVICE COMPANY
 DATE.    08/15/2017                     :LOG DATE
 API .                                       :API NUMBER
 LIC .                                   :LICENSE NUMBER
~Curve Information Block
#MNEM.UNIT      API CODE     Curve Description
#---------    -------------  ------------------------
 DEPT     .FT        00 001 00 00          :  1  DEPTH   
 GAMMA    .API-GR    00 310 00 00          :  2  GAMMA RAY           
 RES(FL)  .OHM-M     00 000 00 00          :  3  RES(FL)             
 SP       .MV        00 010 00 00          :  4  SPON POTENTIAL      
 TEMP     .DEG_F     00 660 00 00          :  5  TEMPERATURE         
 RES(16N) .OHM-M     00 040 00 00          :  6  16 NORMAL RES       
 RES(64N) .OHM-M     00 060 00 00          :  7  64 NORMAL RES       
 RES      .OHM       00 000 00 00          :  8  SINGLE POINT RES    
 DEL_TEMP .DEG_F     00 000 00 00          :  9  SAMPLE DELTA TEMP   
 LATERAL  .OHM-M     00 070 00 00          : 10  LATERAL             
 SP_COND  .US/CM     00 000 00 00          : 11  SP COND             
 TENSION  .CPS       00 000 00 00          : 12  LINE TENSION        
 TIME     .SECONDS   00 000 00 00          : 13  TIME                
~Parameter Information Block
#MNEM.UNIT   Information     Description
#---------- ---------------  ------------------------
 FILE.      PROCESSED          :File Type
 FIID.      8144A              :File Type Identifier
 VERS.      3.60Q              :System Version
 SER .      1                  :System Serial Number
 TRUK.      0.0                :Truck Calibration Number
 TOOL.        1229             :Tool Serial Number
 TIME.      1450               :Time    HrHrMinMin
 LAT .                         :Latitude
 LON .                         :Longitude
 LMF .                         :Log Measured From
 DMF .                         :Driller Measured From
 PD  .                         :Permanent Data
 PDEV.FT                       :Elevation Permanent Data
 EKB .FT                       :Elevation Kelly Bushing
 ELEV.FT                       :Elevation DF
 EGL .FT    938 L1             :Elevation Ground Level
 DRDP.FT    109                :Driller's Depth
 CASD.FT    6                  :Casing Diameter
 CASB.FT                       :Casing Bottom
 CASX.                         :Casing Type
 CAST.IN    0                  :Casing Thickness
 TNOC.                         :Time Circulation Stopped
 LOGU.                         :Logging Unit
 RECB.      PETTUS             :Recorded By
 OSR1.                         :Other Services
 OSR2.                         :Other Services
 OSR3.                         :Other Services
 BS  .IN           6           :Bit Size
 MST .F                        :Mean Surface Temperature
 TGRD.F     0                  :Temperature Gradiant
 MAGN.      0                  :Magnetic Declination
 MDEN.      2.84               :Density Matrix
 MATR.      DOLOMITE           :Neutron Matrix
 DTMT.      44                 :Delta T Matrix
 DTFL.                         :Delta T Fluid
 MUDS.      0                  :Mud Sample Source
 MRS .      0                  :Mud Resistivity
 MTP .      0                  :Mud Temperature
 MFRS.                         :Resistivity Mud Filtrate
 MFTP.                         :Temperature Mud Filtrate
 MCRS.      0                  :Resistivity Mud Cake
 MCTP.                         :Temperature Mud Cake
 FTYP.      0                  :Fluid Type
 FD  .LB/G     0               :Mud Weight
 DFV .S                        :Fluid Viscosity
 FPH .                         :Fuild PH
 ELCO.      2500               :Electron Cutoff
 CASL.IN    4                  :Casing Logger
 LOTD.FT                       :Logger TD
 ARTM.                         :Arrival Time
 DPTM.                         :Departure Time
 RIGN.                         :Rig Number
~Other Information
#MNEM.UNIT  Information      Description
#---------- ---------------  ------------------------
# -------------------------- 
~A DEPTH  GAMMA    RES(FL) SP    TEMP  RES(16N) RES(64N) RES      DEL_TEMP LATERAL  SP_COND  TENSION  TIME    
# ...
 344.890     69.4   20.35  -655.9 62.1    223.4    177.9    175.0  -999.25    238.5    491.4    -10.0  -999.25 
 344.910     69.4   20.34  -655.9 62.1    223.4    177.4    175.0  -0.06      238.7    491.8    -10.0  0.10000 
 344.930    163.5   20.34  -655.9 62.1    224.5    177.4    177.1  -999.25    240.1    491.8    -10.0  -999.25 
 344.950    163.5   20.41  -655.9 62.1    224.5    174.5    177.1  0.05       241.1    489.9    -10.0  0.10000 
 344.970     45.9   20.41  -656.2 62.1    226.3    174.5    177.1  -999.25    243.5    489.9    -10.0  -999.25 
 344.990     45.9   20.41  -656.2 62.1    226.3    174.5    174.0  -999.25    243.5    489.9    -10.0  -999.25 
 345.010     45.9   20.40  -656.0 62.1    226.3    177.8    174.0  -0.10      242.4    490.2    -10.0  0.10000 
 345.030    104.7   20.40  -656.0 62.2    226.5    177.8    176.9  -999.25    242.7    490.2    -10.0  -999.25 
 345.050    104.7   20.43  -656.0 62.2    226.5    174.0    176.9  0.01       244.0    489.4    -10.0  0.10000 
 345.070     22.4   20.43  -656.1 62.2    228.8    174.0    176.9  -999.25    247.1    489.4    -10.0  -999.25 
 345.090     22.4   20.43  -656.1 62.2    228.8    174.0    174.7  -999.25    247.1    489.4    -10.0  -999.25 
 345.110     22.4   20.36  -656.0 62.2    228.8    176.6    174.7  -0.01      246.2    491.1    -10.0  0.10000 
 345.130    116.5   20.36  -656.0 62.2    228.2    176.6    176.1  -999.25    245.4    491.1    -10.0  -999.25 
 345.150    116.5   20.45  -656.0 62.2    228.2    174.9    176.1  0.06       245.9    489.1    -10.0  0.10000 
 345.170     81.2   20.45  -656.1 62.1    230.2    174.9    176.1  -999.25    248.7    489.1    -10.0  -999.25 
 345.190     81.2   20.45  -656.1 62.1    230.2    174.9    175.7  -999.25    248.7    489.1    -10.0  -999.25 
 345.210     81.2   20.42  -656.1 62.1    230.1    175.3    175.7  -0.05      248.3    489.7    -10.0  0.10000 
 345.230     92.9   20.42  -656.1 62.2    230.1    175.3    174.8  -999.25    248.3    489.7    -10.0  -999.25 
 345.250     92.9   20.37  -656.1 62.2    230.1    173.5    174.8  0.03       248.9    490.9    -10.0  0.10000 
 345.270     69.4   20.37  -656.0 62.1    231.4    173.5    174.8  -999.25    250.7    490.9    -10.0  -999.25 
 345.290     69.4   20.37  -656.0 62.1    231.4    173.5    176.4  -999.25    250.7    490.9    -10.0  -999.25 
 345.310     69.4   20.36  -656.2 62.1    232.9    171.9    176.4  0.06       253.2    491.1    -10.0  0.10000 
 345.330     57.6   20.36  -656.2 62.1    232.9    171.9    174.7  -999.25    253.2    491.1    -10.0  -999.25 
 345.350     57.6   20.33  -656.2 62.1    232.9    173.9    174.7  -0.08      252.6    491.9    -10.0  0.10000 
 345.370     92.9   20.33  -656.0 62.2    233.5    173.9    174.7  -999.25    253.3    491.9    -10.0  -999.25 
 345.390     92.9   20.33  -656.0 62.2    233.5    173.9    177.9  -999.25    253.3    491.9    -10.0  -999.25 
 345.410     92.9   20.29  -656.0 62.2    235.6    169.7    177.9  -999.25    257.6    492.8    -10.0  0.10000 
 345.430     81.2   20.29  -656.0 62.2    235.6    169.7    175.3  -999.25    257.6    492.8    -10.0  -999.25 
 345.450     81.2   20.41  -656.0 62.2    235.6    172.2    175.3  0.01       256.7    489.9    -10.0  0.10000 
 345.470    104.7   20.41  -656.3 62.2    235.3    172.2    175.3  -999.25    256.3    489.9    -10.0  -999.25 
 345.490    104.7   20.41  -656.3 62.2    235.3    172.2    177.9  -999.25    256.3    489.9    -10.0  -999.25 
 345.510    104.7   20.42  -656.0 62.2    238.1    168.0    177.9  0.06       261.5    489.7    -10.0  0.10000 
 345.530     81.2   20.42  -656.0 62.1    238.1    168.0    177.0  -999.25    261.5    489.7    -10.0  -999.25 
 345.550     81.2   20.36  -656.0 62.1    238.1    168.6    177.0  -0.09      261.3    491.1    -10.0  0.10000 
 345.570     34.1   20.36  -656.1 62.2    238.5    168.6    177.0  -999.25    261.8    491.1    -10.0  -999.25 
 345.590     34.1   20.36  -656.1 62.2    238.5    168.6    177.3  -999.25    261.8    491.1    -10.0  -999.25 
 345.610     34.1   20.32  -655.9 62.2    241.0    166.4    177.3  0.10       265.9    492.1    -10.0  0.10000 
 345.630    140.0   20.32  -655.9 62.1    241.0    166.4    178.3  -999.25    265.9    492.1    -10.0  -999.25 
 345.650    140.0   20.38  -655.9 62.1    241.0    165.6    178.3  0.01       266.1    490.7    -10.0  0.10000 
 345.670    116.5   20.38  -656.0 62.1    242.5    165.6    178.3  -999.25    268.1    490.7    -10.0  -999.25 
 345.690    116.5   20.38  -656.0 62.1    242.5    165.6    177.1  -999.25    268.1    490.7    -10.0  -999.25 
 345.710    116.5   20.42  -656.1 62.1    243.5    165.6    177.1  0.01       269.4    489.7    -10.0  0.10000 
 345.730     81.2   20.42  -656.1 62.1    243.5    165.6    179.5  -999.25    269.4    489.7    -10.0  -999.25 
 345.750     81.2   20.36  -656.1 62.1    243.5    161.3    179.5  -0.06      270.9    491.1    -10.0  0.10000 
 345.770     57.6   20.36  -656.0 62.1    245.4    161.3    179.5  -999.25    273.4    491.1    -10.0  -999.25 
 345.790     57.6   20.36  -656.0 62.1    245.4    161.3    176.2  -999.25    273.4    491.1    -10.0  -999.25 
 345.810     57.6   20.34  -656.0 62.1    245.6    163.0    176.2  0.00       273.2    491.6    -10.0  0.10000 
 345.830     34.1   20.34  -656.0 62.1    245.6    163.0    178.6  -999.25    273.2    491.6    -10.0  -999.25 
 345.850     34.1   20.36  -656.0 62.1    245.6    158.4    178.6  0.03       274.7    491.2    -10.0  0.10000 
 345.870     45.9   20.36  -656.1 62.1    248.4    158.4    175.5  -999.25    278.5    491.2    -10.0  -999.25 
 345.890     45.9   20.36  -656.1 62.1    248.4    158.4    175.5  -999.25    278.5    491.2    -10.0  -999.25 
 345.910     45.9   20.43  -656.1 62.1    248.7    160.2    175.5  -0.06      278.2    489.4    -10.0  0.10000 
 345.930     92.9   20.43  -656.1 62.1    248.7    160.2    176.3  -999.25    278.2    489.4    -10.0  -999.25 
 345.950     92.9   20.39  -656.1 62.1    248.7    160.2    176.3  0.07       278.2    490.4    -10.0  0.10000 
 345.970     57.6   20.39  -655.9 62.1    251.4    156.8    175.2  -999.25    282.9    490.4    -10.0  -999.25 
 345.990     57.6   20.39  -655.9 62.1    251.4    156.8    175.2  -999.25    282.9    490.4    -10.0  -999.25 
 346.010     57.6   20.32  -655.9 62.1    252.1    155.9    175.2  -0.05      284.2    492.1    -10.0  0.10000 
 346.030     81.2   20.32  -656.0 62.1    252.1    155.9    173.5  -999.25    284.2    492.1    -10.0  -999.25 
 346.050     81.2   20.29  -656.0 62.1    252.1    155.9    173.5  0.09       284.2    492.9    -10.0  0.10000 
 346.070    128.2   20.29  -656.1 62.0    253.8    155.1    174.2  -999.25    286.7    492.9    -10.0  -999.25 
 346.090    128.2   20.29  -656.1 62.0    253.8    155.1    174.2  -999.25    286.7    492.9    -10.0  -999.25 
 346.110     57.6   20.36  -656.1 62.0    255.6    152.0    174.2  -0.07      290.1    491.1    -10.0  0.10000 
 346.130     57.6   20.36  -656.0 62.1    255.6    152.0    171.3  -999.25    290.1    491.1    -10.0  -999.25 
 346.150     57.6   20.35  -656.0 62.1    255.6    152.0    171.3  0.00       290.1    491.4    -10.0  0.10000 
 346.170     81.2   20.35  -656.0 62.1    256.3    153.7    173.8  -999.25    290.5    491.4    -10.0  -999.25 
 346.190     81.2   20.35  -656.0 62.1    256.3    153.7    173.8  -999.25    290.5    491.4    -10.0  -999.25 
 346.210    151.8   20.29  -656.0 62.1    259.1    149.8    173.8  -0.04      295.6    492.8    -10.0  0.10000 
 346.230    151.8   20.29  -656.0 62.1    259.1    149.8    172.0  -999.25    295.6    492.8    -10.0  -999.25 
 346.250    151.8   20.38  -656.0 62.1    259.1    149.8    172.0  0.07       295.6    490.6    -10.0  0.10000 
 346.270     92.9   20.38  -656.1 62.1    259.2    151.9    174.7  -999.25    294.9    490.6    -10.0  -999.25 
 346.290     92.9   20.38  -656.1 62.1    259.2    151.9    174.7  -999.25    294.9    490.6    -10.0  -999.25 
 346.310    128.2   20.36  -656.1 62.1    262.1    148.6    174.7  0.00       300.0    491.1    -10.0  0.10000 
