~Version Information
 VERS.                2.0:  CWLS LOG ASCII STANDARD -VERSION 2.0
 WRAP.                 NO:  ONE LINE PER DEPTH STEP
~WELL INFORMATION BLOCK
#MNEM.UNIT       DATA		            DESCRIPTION OF MNEMONIC
#---------    -------------            ------------------------
 STRT.FT  1.130                          :START DEPTH
 STOP.FT  518.850                        :STOP DEPTH
 STEP.FT  0.020                          :STEP    UP_HOLE  
 NULL.    -999.25                        :NULL VALUE
 COMP.    CARLETON GEO LOOP E-1          :COMPANY
 WELL.    278816-MULTITOOL                                             :WELL
 FLD .    NORTHFIELD 71-B                :FIELD\LOCATION
 LOC .    31    112   19                 :LOCATION
 CNTY.    RICE                           :COUNTY
 STAT.    CADDDC                         :STATE
 CTRY.    USA                            :COUNTRY
 SRVC.    TRUCK                          :SERVICE COMPANY
 DATE.    08/15/2017                     :LOG DATE
 API .                                       :API NUMBER
 LIC .                                   :LICENSE NUMBER
~Curve Information Block
#MNEM.UNIT      API CODE     Curve Description
#---------    -------------  ------------------------
 DEPT     .FT        00 001 00 00          :  1  DEPTH   
 GAMMA    .API-GR    00 310 00 00          :  2  GAMMA RAY           
 RES(FL)  .OHM-M     00 000 00 00          :  3  RES(FL)             
 SP       .MV        00 010 00 00          :  4  SPON POTENTIAL      
 TEMP     .DEG_F     00 660 00 00          :  5  TEMPERATURE         
 RES(16N) .OHM-M     00 040 00 00          :  6  16 NORMAL RES       
 RES(64N) .OHM-M     00 060 00 00          :  7  64 NORMAL RES       
 RES      .OHM       00 000 00 00          :  8  SINGLE POINT RES    
 DEL_TEMP .DEG_F     00 000 00 00          :  9  SAMPLE DELTA TEMP   
 LATERAL  .OHM-M     00 070 00 00          : 10  LATERAL             
 SP_COND  .US/CM     00 000 00 00          : 11  SP COND             
 TENSION  .CPS       00 000 00 00          : 12  LINE TENSION        
 TIME     .SECONDS   00 000 00 00          : 13  TIME                
~Parameter Information Block
#MNEM.UNIT   Information     Description
#---------- ---------------  ------------------------
 FILE.      PROCESSED          :File Type
 FIID.      8144A              :File Type Identifier
 VERS.      3.60Q              :System Version
 SER .      1                  :System Serial Number
 TRUK.      0.0                :Truck Calibration Number
 TOOL.        1229             :Tool Serial Number
 TIME.      1450               :Time    HrHrMinMin
 LAT .                         :Latitude
 LON .                         :Longitude
 LMF .                         :Log Measured From
 DMF .                         :Driller Measured From
 PD  .                         :Permanent Data
 PDEV.FT                       :Elevation Permanent Data
 EKB .FT                       :Elevation Kelly Bushing
 ELEV.FT                       :Elevation DF
 EGL .FT    938 L1             :Elevation Ground Level
 DRDP.FT    109                :Driller's Depth
 CASD.FT    6                  :Casing Diameter
 CASB.FT                       :Casing Bottom
 CASX.                         :Casing Type
 CAST.IN    0                  :Casing Thickness
 TNOC.                         :Time Circulation Stopped
 LOGU.                         :Logging Unit
 RECB.      PETTUS             :Recorded By
 OSR1.                         :Other Services
 OSR2.                         :Other Services
 OSR3.                         :Other Services
 BS  .IN           6           :Bit Size
 MST .F                        :Mean Surface Temperature
 TGRD.F     0                  :Temperature Gradiant
 MAGN.      0                  :Magnetic Declination
 MDEN.      2.84               :Density Matrix
 MATR.      DOLOMITE           :Neutron Matrix
 DTMT.      44                 :Delta T Matrix
 DTFL.                         :Delta T Fluid
 MUDS.      0                  :Mud Sample Source
 MRS .      0                  :Mud Resistivity
 MTP .      0                  :Mud Temperature
 MFRS.                         :Resistivity Mud Filtrate
 MFTP.                         :Temperature Mud Filtrate
 MCRS.      0                  :Resistivity Mud Cake
 MCTP.                         :Temperature Mud Cake
 FTYP.      0                  :Fluid Type
 FD  .LB/G     0               :Mud Weight
 DFV .S                        :Fluid Viscosity
 FPH .                         :Fuild PH
 ELCO.      2500               :Electron Cutoff
 CASL.IN    4                  :Casing Logger
 LOTD.FT                       :Logger TD
 ARTM.                         :Arrival Time
 DPTM.                         :Departure Time
 RIGN.                         :Rig Number
~Other Information
#MNEM.UNIT  Information      Description
#---------- ---------------  ------------------------
# -------------------------- 
~A DEPTH  GAMMA    RES(FL) SP    TEMP  RES(16N) RES(64N) RES      DEL_TEMP LATERAL  SP_COND  TENSION  TIME    
# ...
 514.770    116.5   21.45  -999.25 60.6    139.2  -999.25    142.1  -999.25  -999.25  -999.25    -10.0  -999.25 
 514.790     69.4   21.45  -999.25 60.6    139.6  -999.25    144.2  -999.25  -999.25  -999.25    -10.0  0.10000 
 514.810     69.4   21.45  -999.25 60.6    139.6  -999.25    144.2  -999.25  -999.25  -999.25    -10.0  -999.25 
 514.830     69.4   21.45  -999.25 60.6    137.9  -999.25    144.3  -999.25  -999.25  -999.25    -10.0  0.10000 
 514.850    187.1   21.45  -999.25 60.5    137.9  -999.25    144.3  -999.25  -999.25  -999.25    -10.0  -999.25 
 514.870    187.1   21.45  -999.25 60.5    138.0  -999.25    144.3  -999.25  -999.25  -999.25    -10.0  -999.25 
 514.890     92.9   21.45  -999.25 60.5    138.0  -999.25    144.3  -999.25  -999.25  -999.25    -10.0  0.09900 
 514.910     92.9   21.45  -999.25 60.6    136.8  -999.25    144.3  -999.25  -999.25  -999.25    -10.0  -999.25 
 514.930    163.5   21.45  -999.25 60.6    136.8  -999.25    145.2  -999.25  -999.25  -999.25    -10.0  0.10100 
 514.950    163.5   21.45  -999.25 60.6    136.2  -999.25    145.2  -999.25  -999.25  -999.25    -10.0  -999.25 
 514.970    163.5   21.45  -999.25 60.6    136.2  -999.25    145.3  -999.25  -999.25  -999.25    -10.0  -999.25 
 514.990    151.8   21.46  -999.25 60.6    135.1  -999.25    145.3  -999.25  -999.25  -999.25    -10.0  0.10000 
 515.010    151.8   21.46  -999.25 60.6    135.1  -999.25    145.3  -999.25  -999.25  -999.25    -10.0  -999.25 
 515.030    104.7   21.46  -999.25 60.6    134.0  -999.25    146.5  -999.25  -999.25  -999.25    -10.0  0.10000 
 515.050    104.7   21.46  -999.25 60.5    134.0  -999.25    146.5  -999.25  -999.25  -999.25    -10.0  -999.25 
 515.070    198.8   21.47  -999.25 60.5    134.0  -999.25    146.3  -999.25  -999.25  -999.25    -10.0  -999.25 
 515.090    198.8   21.47  -999.25 60.5    132.9  -999.25    146.3  -999.25  -999.25  -999.25    -10.0  0.10000 
 515.110    198.8   21.47  -999.25 60.6    132.9  -999.25    148.0  -999.25  -999.25  -999.25    -10.0  -999.25 
 515.130    175.3   21.47  -999.25 60.6    131.4  -999.25    148.0  -999.25  -999.25  -999.25    -10.0  0.09900 
 515.150    175.3   21.47  -999.25 60.6    131.4  -999.25    148.0  -999.25  -999.25  -999.25    -10.0  -999.25 
 515.170    187.1   21.47  -999.25 60.6    130.4  -999.25    148.5  -999.25  -999.25  -999.25    -10.0  -999.25 
 515.190    187.1   21.47  -999.25 60.6    130.4  -999.25    148.5  -999.25  -999.25  -999.25    -10.0  0.10100 
 515.210    163.5   21.47  -999.25 60.6    128.5  -999.25    149.5  -999.25  -999.25  -999.25    -10.0  -999.25 
 515.230    163.5   21.52  -999.25 60.6    128.5  -999.25    149.5  -999.25  -999.25  -999.25    -10.0  0.10000 
 515.250    163.5   21.52  -999.25 60.5    128.4  -999.25    149.5  -999.25  -999.25  -999.25    -10.0  -999.25 
 515.270    187.1   21.49  -999.25 60.5    128.4  -999.25    149.0  -999.25  -999.25  -999.25    -10.0  0.10000 
 515.290    187.1   21.49  -999.25 60.4    127.5  -999.25    149.0  -999.25  -999.25  -999.25    -10.0  -999.25 
 515.310    140.0   21.49  -999.25 60.4    127.5  -999.25    149.7  -999.25  -999.25  -999.25    -10.0  -999.25 
 515.330    140.0   21.49  -999.25 60.4    127.3  -999.25    149.7  -999.25  -999.25  -999.25    -10.0  0.10000 
 515.350    316.5   21.49  -999.25 60.6    127.3  -999.25    150.3  -999.25  -999.25  -999.25    -10.0  -999.25 
 515.370    316.5   21.49  -999.25 60.6    126.6  -999.25    150.3  -999.25  -999.25  -999.25    -10.0  0.09900 
 515.390    316.5   21.49  -999.25 60.6    126.6  -999.25    151.6  -999.25  -999.25  -999.25    -10.0  -999.25 
 515.410    128.2   21.49  -999.25 60.6    126.9  -999.25    151.6  -999.25  -999.25  -999.25    -10.0  -999.25 
 515.430    128.2   21.49  -999.25 60.6    126.9  -999.25    151.6  -999.25  -999.25  -999.25    -10.0  0.10100 
 515.450     81.2   21.49  -999.25 60.5    126.8  -999.25    153.1  -999.25  -999.25  -999.25    -10.0  -999.25 
 515.470     81.2   21.49  -999.25 60.5    126.8  -999.25    153.1  -999.25  -999.25  -999.25    -10.0  0.10000 
 515.490     81.2   21.49  -999.25 60.5    126.8  -999.25    153.1  -999.25  -999.25  -999.25    -10.0  -999.25 
 515.510    104.7   21.49  -999.25 60.5    126.8  -999.25    153.1  -999.25  -999.25  -999.25    -10.0  -999.25 
 515.530    104.7   21.51  -999.25 60.5    127.8  -999.25    155.3  -999.25  -999.25  -999.25    -10.0  0.09900 
 515.550    210.6   21.51  -999.25 60.5    127.8  -999.25    155.3  -999.25  -999.25  -999.25    -10.0  -999.25 
 515.570    210.6   21.52  -999.25 60.5    127.7  -999.25    156.0  -999.25  -999.25  -999.25    -10.0  0.10100 
 515.590     81.2   21.52  -999.25 60.5    128.6  -999.25    156.0  -999.25  -999.25  -999.25    -10.0  -999.25 
 515.610     81.2   21.52  -999.25 60.5    128.6  -999.25    157.9  -999.25  -999.25  -999.25    -10.0  -999.25 
 515.630    175.3   21.52  -999.25 60.5    128.6  -999.25    157.9  -999.25  -999.25  -999.25    -10.0  0.09900 
 515.650    175.3   21.52  -999.25 60.5    128.6  -999.25    158.0  -999.25  -999.25  -999.25    -10.0  -999.25 
 515.670    175.3   21.51  -999.25 60.5    129.7  -999.25    158.0  -999.25  -999.25  -999.25    -10.0  0.10100 
 515.690    140.0   21.51  -999.25 60.5    129.7  -999.25    158.9  -999.25  -999.25  -999.25    -10.0  -999.25 
 515.710    140.0   21.51  -999.25 60.5    130.0  -999.25    158.9  -999.25  -999.25  -999.25    -10.0  -999.25 
 515.730     81.2   21.49  -999.25 60.5    130.0  -999.25    158.9  -999.25  -999.25  -999.25    -10.0  0.10000 
 515.750     81.2   21.49  -999.25 60.4    130.8  -999.25    159.7  -999.25  -999.25  -999.25    -10.0  -999.25 
 515.770    140.0   21.51  -999.25 60.4    130.8  -999.25    159.7  -999.25  -999.25  -999.25    -10.0  0.09900 
 515.790    140.0   21.51  -999.25 60.6    130.9  -999.25    158.5  -999.25  -999.25  -999.25    -10.0  -999.25 
 515.810    187.1   21.51  -999.25 60.6    130.9  -999.25    158.5  -999.25  -999.25  -999.25    -10.0  -999.25 
 515.830    187.1   21.52  -999.25 60.6    131.2  -999.25    155.9  -999.25  -999.25  -999.25    -10.0  0.10100 
 515.850    140.0   21.52  -999.25 60.5    131.9  -999.25    155.9  -999.25  -999.25  -999.25    -10.0  -999.25 
 515.870    140.0   21.53  -999.25 60.5    131.9  -999.25    153.4  -999.25  -999.25  -999.25    -10.0  0.09900 
 515.890    116.5   21.53  -999.25 60.6    131.7  -999.25    153.4  -999.25  -999.25  -999.25    -10.0  -999.25 
 515.910    116.5   21.53  -999.25 60.6    131.7  -999.25    152.9  -999.25  -999.25  -999.25    -10.0  -999.25 
 515.930    198.8   21.50  -999.25 60.6    132.0  -999.25    152.9  -999.25  -999.25  -999.25    -10.0  0.10100 
 515.950    198.8   21.50  -999.25 60.5    131.9  -999.25    151.4  -999.25  -999.25  -999.25    -10.0  -999.25 
 515.970    198.8   21.54  -999.25 60.5    131.9  -999.25    151.4  -999.25  -999.25  -999.25    -10.0  0.10000 
 515.990     69.4   21.54  -999.25 60.5    132.1  -999.25    151.1  -999.25  -999.25  -999.25    -10.0  -999.25 
 516.010     69.4   21.55  -999.25 60.5    132.1  -999.25    151.1  -999.25  -999.25  -999.25    -10.0  -999.25 
 516.030    269.4   21.55  -999.25 60.5    132.0  -999.25    149.1  -999.25  -999.25  -999.25    -10.0  0.09900 
 516.050    269.4   21.55  -999.25 60.5    131.7  -999.25    149.1  -999.25  -999.25  -999.25    -10.0  -999.25 
 516.070     92.9   21.55  -999.25 60.5    131.7  -999.25    148.7  -999.25  -999.25  -999.25    -10.0  0.10100 
 516.090     92.9   21.55  -999.25 60.5    131.6  -999.25    148.7  -999.25  -999.25  -999.25    -10.0  -999.25 
 516.110    187.1   21.55  -999.25 60.5    131.6  -999.25    148.2  -999.25  -999.25  -999.25    -10.0  -999.25 
 516.130    187.1   21.55  -999.25 60.5    131.8  -999.25    148.2  -999.25  -999.25  -999.25    -10.0  0.09900 
 516.150    198.8   21.55  -999.25 60.5    132.4  -999.25    147.4  -999.25  -999.25  -999.25    -10.0  -999.25 
 516.170    198.8   21.55  -999.25 60.5    132.4  -999.25    147.4  -999.25  -999.25  -999.25    -10.0  0.10100 
