~Version Information
 VERS.                2.0:  CWLS LOG ASCII STANDARD -VERSION 2.0
 WRAP.                 NO:  ONE LINE PER DEPTH STEP
~WELL INFORMATION BLOCK
#MNEM.UNIT       DATA		            DESCRIPTION OF MNEMONIC
#---------    -------------            ------------------------
 STRT.FT  1.130                          :START DEPTH
 STOP.FT  518.850                        :STOP DEPTH
 STEP.FT  0.020                          :STEP    UP_HOLE  
 NULL.    -999.25                        :NULL VALUE
 COMP.    CARLETON GEO LOOP E-1          :COMPANY
 WELL.    278816-MULTITOOL                                             :WELL
 FLD .    NORTHFIELD 71-B                :FIELD\LOCATION
 LOC .    31    112   19                 :LOCATION
 CNTY.    RICE                           :COUNTY
 STAT.    CADDDC                         :STATE
 CTRY.    USA                            :COUNTRY
 SRVC.    TRUCK                          :SERVICE COMPANY
 DATE.    08/15/2017                     :LOG DATE
 API .                                       :API NUMBER
 LIC .                                   :LICENSE NUMBER
~Curve Information Block
#MNEM.UNIT      API CODE     Curve Description
#---------    -------------  ------------------------
 DEPT     .FT        00 001 00 00          :  1  DEPTH   
 GAMMA    .API-GR    00 310 00 00          :  2  GAMMA RAY           
 RES(FL)  .OHM-M     00 000 00 00          :  3  RES(FL)             
 SP       .MV        00 010 00 00          :  4  SPON POTENTIAL      
 TEMP     .DEG_F     00 660 00 00          :  5  TEMPERATURE         
 RES(16N) .OHM-M     00 040 00 00          :  6  16 NORMAL RES       
 RES(64N) .OHM-M     00 060 00 00          :  7  64 NORMAL RES       
 RES      .OHM       00 000 00 00          :  8  SINGLE POINT RES    
 DEL_TEMP .DEG_F     00 000 00 00          :  9  SAMPLE DELTA TEMP   
 LATERAL  .OHM-M     00 070 00 00          : 10  LATERAL             
 SP_COND  .US/CM     00 000 00 00          : 11  SP COND             
 TENSION  .CPS       00 000 00 00          : 12  LINE TENSION        
 TIME     .SECONDS   00 000 00 00          : 13  TIME                
~Parameter Information Block
#MNEM.UNIT   Information     Description
#---------- ---------------  ------------------------
 FILE.      PROCESSED          :File Type
 FIID.      8144A              :File Type Identifier
 VERS.      3.60Q              :System Version
 SER .      1                  :System Serial Number
 TRUK.      0.0                :Truck Calibration Number
 TOOL.        1229             :Tool Serial Number
 TIME.      1450               :Time    HrHrMinMin
 LAT .                         :Latitude
 LON .                         :Longitude
 LMF .                         :Log Measured From
 DMF .                         :Driller Measured From
 PD  .                         :Permanent Data
 PDEV.FT                       :Elevation Permanent Data
 EKB .FT                       :Elevation Kelly Bushing
 ELEV.FT                       :Elevation DF
 EGL .FT    938 L1             :Elevation Ground Level
 DRDP.FT    109                :Driller's Depth
 CASD.FT    6                  :Casing Diameter
 CASB.FT                       :Casing Bottom
 CASX.                         :Casing Type
 CAST.IN    0                  :Casing Thickness
 TNOC.                         :Time Circulation Stopped
 LOGU.                         :Logging Unit
 RECB.      PETTUS             :Recorded By
 OSR1.                         :Other Services
 OSR2.                         :Other Services
 OSR3.                         :Other Services
 BS  .IN           6           :Bit Size
 MST .F                        :Mean Surface Temperature
 TGRD.F     0                  :Temperature Gradiant
 MAGN.      0                  :Magnetic Declination
 MDEN.      2.84               :Density Matrix
 MATR.      DOLOMITE           :Neutron Matrix
 DTMT.      44                 :Delta T Matrix
 DTFL.                         :Delta T Fluid
 MUDS.      0                  :Mud Sample Source
 MRS .      0                  :Mud Resistivity
 MTP .      0                  :Mud Temperature
 MFRS.                         :Resistivity Mud Filtrate
 MFTP.                         :Temperature Mud Filtrate
 MCRS.      0                  :Resistivity Mud Cake
 MCTP.                         :Temperature Mud Cake
 FTYP.      0                  :Fluid Type
 FD  .LB/G     0               :Mud Weight
 DFV .S                        :Fluid Viscosity
 FPH .                         :Fuild PH
 ELCO.      2500               :Electron Cutoff
 CASL.IN    4                  :Casing Logger
 LOTD.FT                       :Logger TD
 ARTM.                         :Arrival Time
 DPTM.                         :Departure Time
 RIGN.                         :Rig Number
~Other Information
#MNEM.UNIT  Information      Description
#---------- ---------------  ------------------------
# -------------------------- 
~A DEPTH  GAMMA    RES(FL) SP    TEMP  RES(16N) RES(64N) RES      DEL_TEMP LATERAL  SP_COND  TENSION  TIME    
# ...
 108.730     -1.2   19.82  -655.9 62.4    933.5    348.0    370.1  -999.25   1128.7    504.7    -10.0  -999.25 
 108.750     -1.2   19.82  -655.9 62.4    933.5    347.8    372.9  0.00      1128.7    504.5    -10.0  0.10000 
 108.770     -1.2   19.82  -655.9 62.4    933.5    347.8    372.9  -999.25   1128.7    504.5    -10.0  -999.25 
 108.790     22.4   19.82  -656.1 62.4    946.4    348.2    375.4  -999.25   1145.8    504.5    -10.0  -999.25 
 108.810     22.4   19.84  -656.1 62.4    946.4    348.2    375.4  -0.03     1145.8    504.1    -10.0  0.10000 
 108.830     10.6   19.84  -656.1 62.4    959.4    348.2    375.4  -999.25   1163.1    504.1    -10.0  -999.25 
 108.850     10.6   19.81  -656.1 62.4    959.4    349.5    377.8  0.02      1162.7    504.8    -10.0  0.10000 
 108.870     10.6   19.81  -656.1 62.4    959.4    349.5    377.8  -999.25   1162.7    504.8    -10.0  -999.25 
 108.890     -1.2   19.81  -655.9 62.4    972.0    353.1    380.0  -999.25   1178.3    504.8    -10.0  -999.25 
 108.910     -1.2   19.82  -655.9 62.4    972.0    353.1    380.0  -0.01     1178.3    504.7    -10.0  0.10000 
 108.930     10.6   19.82  -656.3 62.4    985.3    353.1    380.0  -999.25   1196.0    504.7    -10.0  -999.25 
 108.950     10.6   19.81  -656.3 62.4    985.3    361.0    382.8  -0.06     1193.3    504.8    -10.0  0.10000 
 108.970     10.6   19.81  -656.3 62.5    985.3    361.0    382.8  -999.25   1193.3    504.8    -10.0  -999.25 
 108.990     10.6   19.81  -656.2 62.5    998.2    369.4    385.8  -999.25   1207.8    504.8    -10.0  -999.25 
 109.010     10.6   19.82  -656.2 62.5    998.2    369.4    385.8  0.07      1207.8    504.5    -10.0  0.10000 
 109.030     10.6   19.82  -656.2 62.4   1010.7    369.4    385.8  -999.25   1224.4    504.5    -10.0  -999.25 
 109.050     10.6   19.82  -656.2 62.4   1010.7    380.6    388.5  -0.01     1220.7    504.5    -10.0  0.10000 
 109.070     10.6   19.82  -656.2 62.4   1010.7    380.6    388.5  -999.25   1220.7    504.5    -10.0  -999.25 
 109.090     10.6   19.82  -656.0 62.4   1023.1    392.8    390.8  -999.25   1233.2    504.5    -10.0  -999.25 
 109.110     10.6   19.81  -656.0 62.4   1023.1    392.8    390.8  0.03      1233.2    504.8    -10.0  0.10000 
 109.130     34.1   19.81  -655.9 62.4   1035.7    392.8    390.8  -999.25   1250.0    504.8    -10.0  -999.25 
 109.150     34.1   19.81  -655.9 62.4   1035.7    405.0    392.7  -0.03     1246.0    504.8    -10.0  0.10000 
 109.170     34.1   19.84  -655.9 62.4   1035.7    405.0    392.7  -999.25   1246.0    503.9    -10.0  -999.25 
 109.190     -1.2   19.84  -655.9 62.4   1047.0    418.4    393.4  -999.25   1256.5    503.9    -10.0  -999.25 
 109.210     -1.2   19.81  -655.9 62.4   1047.0    418.4    393.4  -0.01     1256.5    504.8    -10.0  0.10000 
 109.230     34.1   19.81  -655.9 62.4   1057.5    418.4    393.4  -999.25   1270.5    504.8    -10.0  -999.25 
 109.250     34.1   19.81  -656.0 62.4   1057.5    435.8    394.4  -999.25   1264.7    504.8    -10.0  -999.25 
 109.270     34.1   19.84  -656.0 62.4   1057.5    435.8    394.4  0.01      1264.7    503.9    -10.0  0.10000 
 109.290     22.4   19.84  -655.9 62.4   1067.6    459.7    395.7  -999.25   1270.2    503.9    -10.0  -999.25 
 109.310     22.4   19.81  -655.9 62.4   1067.6    459.7    395.7  0.02      1270.2    504.8    -10.0  0.10000 
 109.330     -1.2   19.81  -655.9 62.4   1077.3    459.7    395.7  -999.25   1283.1    504.8    -10.0  -999.25 
 109.350     -1.2   19.81  -656.1 62.4   1077.3    481.6    395.1  -999.25   1275.8    504.8    -10.0  -999.25 
 109.370     -1.2   19.83  -656.1 62.4   1077.3    481.6    395.1  -0.02     1275.8    504.3    -10.0  0.10000 
 109.390     10.6   19.83  -656.2 62.4   1087.3    501.4    396.2  -999.25   1282.6    504.3    -10.0  -999.25 
 109.410     10.6   19.82  -656.2 62.4   1087.3    501.4    396.2  0.03      1282.6    504.5    -10.0  0.10000 
 109.430     22.4   19.82  -656.2 62.4   1096.8    501.4    396.2  -999.25   1295.3    504.5    -10.0  -999.25 
 109.450     22.4   19.82  -656.0 62.4   1096.8    521.4    397.1  -999.25   1288.6    504.5    -10.0  -999.25 
 109.470     22.4   19.82  -656.0 62.4   1096.8    521.4    397.1  -0.01     1288.6    504.5    -10.0  0.09900 
 109.490     -1.2   19.82  -655.9 62.4   1106.0    541.1    398.4  -999.25   1294.4    504.5    -10.0  -999.25 
 109.510     -1.2   19.82  -655.9 62.4   1106.0    541.1    398.4  -0.01     1294.4    504.5    -10.0  0.10100 
 109.530     10.6   19.82  -655.9 62.4   1115.5    541.1    398.4  -999.25   1306.9    504.5    -10.0  -999.25 
 109.550     10.6   19.82  -656.0 62.4   1115.5    558.0    398.6  -999.25   1301.3    504.5    -10.0  -999.25 
 109.570     10.6   19.84  -656.0 62.4   1115.5    558.0    398.6  0.03      1301.3    503.9    -10.0  0.10000 
 109.590     -1.2   19.84  -656.0 62.4   1125.6    574.7    399.4  -999.25   1309.3    503.9    -10.0  -999.25 
 109.610     -1.2   19.84  -656.0 62.4   1125.6    574.7    399.4  -999.25   1309.3    504.1    -10.0  0.10000 
 109.630     10.6   19.84  -656.0 62.4   1135.0    574.7    399.4  -999.25   1321.8    504.1    -10.0  -999.25 
 109.650     10.6   19.84  -656.0 62.4   1135.0    592.4    400.9  -999.25   1315.8    504.1    -10.0  -999.25 
 109.670     10.6   19.85  -656.0 62.4   1135.0    592.4    400.9  0.01      1315.8    503.8    -10.0  0.10000 
 109.690     10.6   19.85  -656.0 62.4   1143.6    607.3    402.5  -999.25   1322.3    503.8    -10.0  -999.25 
 109.710     10.6   19.84  -656.0 62.4   1143.6    607.3    402.5  -0.00     1322.3    504.1    -10.0  0.09900 
 109.730     22.4   19.84  -656.0 62.4   1143.6    607.3    402.5  -999.25   1322.3    504.1    -10.0  -999.25 
 109.750     22.4   19.84  -656.2 62.4   1151.6    620.8    405.4  -999.25   1328.5    504.1    -10.0  -999.25 
 109.770     22.4   19.83  -656.2 62.4   1151.6    620.8    405.4  0.01      1328.5    504.3    -10.0  0.10100 
 109.790     10.6   19.83  -656.3 62.4   1159.5    634.6    407.4  -999.25   1334.4    504.3    -10.0  -999.25 
 109.810     10.6   19.84  -656.3 62.4   1159.5    634.6    407.4  0.02      1334.4    504.1    -10.0  0.10000 
 109.830     34.1   19.84  -656.3 62.4   1159.5    634.6    407.4  -999.25   1334.4    504.1    -10.0  -999.25 
 109.850     34.1   19.84  -656.0 62.4   1166.6    649.4    409.3  -999.25   1339.0    504.1    -10.0  -999.25 
 109.870     34.1   19.86  -656.0 62.4   1166.6    649.4    409.3  -0.04     1339.0    503.4    -10.0  0.10000 
 109.890     34.1   19.86  -656.0 62.4   1173.7    649.4    411.6  -999.25   1348.5    503.4    -10.0  -999.25 
 109.910     34.1   19.83  -656.0 62.4   1173.7    660.7    411.6  0.02      1344.8    504.3    -10.0  0.10000 
 109.930     10.6   19.83  -656.0 62.4   1173.7    660.7    411.6  -999.25   1344.8    504.3    -10.0  -999.25 
 109.950     10.6   19.83  -656.1 62.4   1179.7    667.6    414.3  -999.25   1350.4    504.3    -10.0  -999.25 
 109.970     10.6   19.87  -656.1 62.4   1179.7    667.6    414.3  0.03      1350.4    503.2    -10.0  0.09900 
 109.990     22.4   19.87  -655.9 62.4   1185.2    667.6    416.8  -999.25   1357.8    503.2    -10.0  -999.25 
 110.010     22.4   19.84  -655.9 62.4   1185.2    674.9    416.8  0.01      1355.4    503.9    -10.0  0.10100 
 110.030     -1.2   19.84  -655.9 62.4   1185.2    674.9    416.8  -999.25   1355.4    503.9    -10.0  -999.25 
 110.050     -1.2   19.84  -656.1 62.4   1190.4    685.8    419.2  -999.25   1358.6    503.9    -10.0  -999.25 
 110.070     -1.2   19.84  -656.1 62.4   1190.4    685.8    419.2  -0.00     1358.6    503.9    -10.0  0.10000 
 110.090     10.6   19.84  -656.1 62.4   1195.3    685.8    420.8  -999.25   1365.2    503.9    -10.0  -999.25 
 110.110     10.6   19.84  -656.1 62.4   1195.3    695.9    420.8  0.01      1361.8    504.1    -10.0  0.10000 
 110.130     10.6   19.84  -656.1 62.3   1195.3    695.9    420.8  -999.25   1361.8    504.1    -10.0  -999.25 
 110.150     10.6   19.84  -656.0 62.3   1200.3    705.0    422.1  -999.25   1365.4    504.1    -10.0  -999.25 
