~Version Information
 VERS.                2.0:  CWLS LOG ASCII STANDARD -VERSION 2.0
 WRAP.                 NO:  ONE LINE PER DEPTH STEP
~WELL INFORMATION BLOCK
#MNEM.UNIT       DATA		            DESCRIPTION OF MNEMONIC
#---------    -------------            ------------------------
 STRT.FT  1.130                          :START DEPTH
 STOP.FT  518.850                        :STOP DEPTH
 STEP.FT  0.020                          :STEP    UP_HOLE  
 NULL.    -999.25                        :NULL VALUE
 COMP.    CARLETON GEO LOOP E-1          :COMPANY
 WELL.    278816-MULTITOOL                                             :WELL
 FLD .    NORTHFIELD 71-B                :FIELD\LOCATION
 LOC .    31    112   19                 :LOCATION
 CNTY.    RICE                           :COUNTY
 STAT.    CADDDC                         :STATE
 CTRY.    USA                            :COUNTRY
 SRVC.    TRUCK                          :SERVICE COMPANY
 DATE.    08/15/2017                     :LOG DATE
 API .                                       :API NUMBER
 LIC .                                   :LICENSE NUMBER
~Curve Information Block
#MNEM.UNIT      API CODE     Curve Description
#---------    -------------  ------------------------
 DEPT     .FT        00 001 00 00          :  1  DEPTH   
 GAMMA    .API-GR    00 310 00 00          :  2  GAMMA RAY           
 RES(FL)  .OHM-M     00 000 00 00          :  3  RES(FL)             
 SP       .MV        00 010 00 00          :  4  SPON POTENTIAL      
 TEMP     .DEG_F     00 660 00 00          :  5  TEMPERATURE         
 RES(16N) .OHM-M     00 040 00 00          :  6  16 NORMAL RES       
 RES(64N) .OHM-M     00 060 00 00          :  7  64 NORMAL RES       
 RES      .OHM       00 000 00 00          :  8  SINGLE POINT RES    
 DEL_TEMP .DEG_F     00 000 00 00          :  9  SAMPLE DELTA TEMP   
 LATERAL  .OHM-M     00 070 00 00          : 10  LATERAL             
 SP_COND  .US/CM     00 000 00 00          : 11  SP COND             
 TENSION  .CPS       00 000 00 00          : 12  LINE TENSION        
 TIME     .SECONDS   00 000 00 00          : 13  TIME                
~Parameter Information Block
#MNEM.UNIT   Information     Description
#---------- ---------------  ------------------------
 FILE.      PROCESSED          :File Type
 FIID.      8144A              :File Type Identifier
 VERS.      3.60Q              :System Version
 SER .      1                  :System Serial Number
 TRUK.      0.0                :Truck Calibration Number
 TOOL.        1229             :Tool Serial Number
 TIME.      1450               :Time    HrHrMinMin
 LAT .                         :Latitude
 LON .                         :Longitude
 LMF .                         :Log Measured From
 DMF .                         :Driller Measured From
 PD  .                         :Permanent Data
 PDEV.FT                       :Elevation Permanent Data
 EKB .FT                       :Elevation Kelly Bushing
 ELEV.FT                       :Elevation DF
 EGL .FT    938 L1             :Elevation Ground Level
 DRDP.FT    109                :Driller's Depth
 CASD.FT    6                  :Casing Diameter
 CASB.FT                       :Casing Bottom
 CASX.                         :Casing Type
 CAST.IN    0                  :Casing Thickness
 TNOC.                         :Time Circulation Stopped
 LOGU.                         :Logging Unit
 RECB.      PETTUS             :Recorded By
 OSR1.                         :Other Services
 OSR2.                         :Other Services
 OSR3.                         :Other Services
 BS  .IN           6           :Bit Size
 MST .F                        :Mean Surface Temperature
 TGRD.F     0                  :Temperature Gradiant
 MAGN.      0                  :Magnetic Declination
 MDEN.      2.84               :Density Matrix
 MATR.      DOLOMITE           :Neutron Matrix
 DTMT.      44                 :Delta T Matrix
 DTFL.                         :Delta T Fluid
 MUDS.      0                  :Mud Sample Source
 MRS .      0                  :Mud Resistivity
 MTP .      0                  :Mud Temperature
 MFRS.                         :Resistivity Mud Filtrate
 MFTP.                         :Temperature Mud Filtrate
 MCRS.      0                  :Resistivity Mud Cake
 MCTP.                         :Temperature Mud Cake
 FTYP.      0                  :Fluid Type
 FD  .LB/G     0               :Mud Weight
 DFV .S                        :Fluid Viscosity
 FPH .                         :Fuild PH
 ELCO.      2500               :Electron Cutoff
 CASL.IN    4                  :Casing Logger
 LOTD.FT                       :Logger TD
 ARTM.                         :Arrival Time
 DPTM.                         :Departure Time
 RIGN.                         :Rig Number
~Other Information
#MNEM.UNIT  Information      Description
#---------- ---------------  ------------------------
# -------------------------- 
~A DEPTH  GAMMA    RES(FL) SP    TEMP  RES(16N) RES(64N) RES      DEL_TEMP LATERAL  SP_COND  TENSION  TIME    
# ...
 311.770     22.4   20.57  -656.0 62.2    188.4    176.9    161.9  -999.25    192.3    486.0    -10.0  -999.25 
 311.790     22.4   20.60  -656.0 62.2    188.4    176.9    161.9  -0.00      192.3    485.5    -10.0  0.10000 
 311.810     -1.2   20.60  -656.0 62.2    187.9    177.1    161.7  -999.25    191.4    485.5    -10.0  -999.25 
 311.830     -1.2   20.62  -655.9 62.2    187.9    177.1    161.7  -999.25    191.4    484.9    -10.0  -999.25 
 311.850     22.4   20.62  -655.9 62.2    188.3    177.2    161.7  0.06       192.0    484.9    -10.0  0.10000 
 311.870     22.4   20.62  -655.9 62.1    188.3    177.2    160.1  -999.25    192.0    484.9    -10.0  -999.25 
 311.890     22.4   20.60  -656.0 62.1    188.3    177.2    160.1  0.03       192.0    485.4    -10.0  0.10000 
 311.910     -1.2   20.60  -656.0 62.1    188.6    178.1    162.4  -999.25    192.1    485.4    -10.0  -999.25 
 311.930     -1.2   20.57  -656.0 62.1    188.6    178.1    162.4  -0.07      192.1    486.0    -10.0  0.10000 
 311.950     -1.2   20.57  -656.0 62.2    188.7    175.9    162.4  -999.25    193.0    486.0    -10.0  -999.25 
 311.970     -1.2   20.57  -656.0 62.2    188.7    175.9    160.5  -999.25    193.0    486.0    -10.0  -999.25 
 311.990     -1.2   20.63  -656.0 62.2    188.7    175.9    160.5  0.03       193.0    484.7    -10.0  0.10000 
 312.010     -1.2   20.63  -656.0 62.1    187.7    176.9    161.3  -999.25    191.3    484.7    -10.0  -999.25 
 312.030     -1.2   20.62  -656.2 62.1    187.7    176.9    161.3  -0.07      191.3    484.9    -10.0  0.10000 
 312.050     -1.2   20.62  -656.2 62.2    188.4    175.9    161.3  -999.25    192.5    484.9    -10.0  -999.25 
 312.070     -1.2   20.62  -656.2 62.2    188.4    175.9    159.9  -999.25    192.5    484.9    -10.0  -999.25 
 312.090     -1.2   20.60  -656.1 62.2    188.4    175.9    159.9  0.05       192.5    485.5    -10.0  0.10000 
 312.110     10.6   20.60  -656.1 62.2    187.4    175.9    160.4  -999.25    191.3    485.5    -10.0  -999.25 
 312.130     10.6   20.60  -656.2 62.2    187.4    175.9    160.4  -0.05      191.3    485.5    -10.0  0.10000 
 312.150     -1.2   20.60  -656.2 62.2    188.2    176.1    160.4  -999.25    192.3    485.5    -10.0  -999.25 
 312.170     -1.2   20.60  -656.2 62.2    188.2    176.1    160.3  -999.25    192.3    485.5    -10.0  -999.25 
 312.190     -1.2   20.62  -656.0 62.2    188.2    176.1    160.3  0.07       192.3    485.1    -10.0  0.10000 
 312.210     22.4   20.62  -656.0 62.1    187.7    176.2    159.6  -999.25    191.6    485.1    -10.0  -999.25 
 312.230     22.4   20.63  -656.0 62.1    187.7    176.2    159.6  0.00       191.6    484.7    -10.0  0.10000 
 312.250     -1.2   20.63  -656.0 62.1    187.4    176.8    159.6  -999.25    190.9    484.7    -10.0  -999.25 
 312.270     -1.2   20.63  -656.0 62.1    187.4    176.8    161.0  -999.25    190.9    484.7    -10.0  -999.25 
 312.290     -1.2   20.60  -656.0 62.1    187.4    176.8    161.0  0.04       190.9    485.4    -10.0  0.10000 
 312.310     -1.2   20.60  -656.0 62.1    187.4    175.2    158.5  -999.25    191.4    485.4    -10.0  -999.25 
 312.330     -1.2   20.61  -656.0 62.1    187.4    175.2    158.5  -0.04      191.4    485.2    -10.0  0.10000 
 312.350     45.9   20.61  -656.0 62.1    186.7    176.6    158.5  -999.25    190.0    485.2    -10.0  -999.25 
 312.370     45.9   20.61  -656.0 62.1    186.7    176.6    161.5  -999.25    190.0    485.2    -10.0  -999.25 
 312.390     45.9   20.61  -655.9 62.1    186.7    176.6    161.5  -0.05      190.0    485.2    -10.0  0.10000 
 312.410     -1.2   20.61  -655.9 62.2    187.8    176.0    159.2  -999.25    191.8    485.2    -10.0  -999.25 
 312.430     -1.2   20.55  -656.1 62.2    187.8    176.0    159.2  0.01       191.8    486.5    -10.0  0.10000 
 312.450     -1.2   20.55  -656.1 62.2    187.3    177.8    159.2  -999.25    190.5    486.5    -10.0  -999.25 
 312.470     -1.2   20.55  -656.1 62.2    187.3    177.8    160.2  -999.25    190.5    486.5    -10.0  -999.25 
 312.490     -1.2   20.55  -656.1 62.2    187.3    177.8    160.2  0.04       190.5    486.5    -10.0  0.10000 
 312.510     -1.2   20.55  -656.1 62.1    187.6    177.1    160.0  -999.25    191.1    486.5    -10.0  -999.25 
 312.530     -1.2   20.60  -655.9 62.1    187.6    177.1    160.0  -0.07      191.1    485.5    -10.0  0.10000 
 312.550     10.6   20.60  -655.9 62.2    186.7    176.4    160.0  -999.25    190.2    485.5    -10.0  -999.25 
 312.570     10.6   20.60  -655.9 62.2    186.7    176.4    160.4  -999.25    190.2    485.5    -10.0  -999.25 
 312.590     10.6   20.56  -656.2 62.2    186.7    176.4    160.4  0.09       190.2    486.4    -10.0  0.10000 
 312.610     22.4   20.56  -656.2 62.1    186.8    176.6    161.0  -999.25    190.2    486.4    -10.0  -999.25 
 312.630     22.4   20.65  -656.1 62.1    186.8    176.6    161.0  -0.01      190.2    484.2    -10.0  0.10000 
 312.650     10.6   20.65  -656.1 62.1    186.8    175.7    161.0  -999.25    190.5    484.2    -10.0  -999.25 
 312.670     10.6   20.65  -656.1 62.1    186.8    175.7    159.3  -999.25    190.5    484.2    -10.0  -999.25 
 312.690     10.6   20.60  -656.0 62.1    186.8    175.7    159.3  -0.05      190.5    485.5    -10.0  0.10000 
 312.710     -1.2   20.60  -656.0 62.2    186.4    176.7    161.0  -999.25    189.6    485.5    -10.0  -999.25 
 312.730     -1.2   20.63  -655.9 62.2    186.4    176.7    161.0  0.06       189.6    484.7    -10.0  0.10000 
 312.750     -1.2   20.63  -655.9 62.1    187.0    175.3    161.0  -999.25    190.9    484.7    -10.0  -999.25 
 312.770     -1.2   20.63  -655.9 62.1    187.0    175.3    159.9  -999.25    190.9    484.7    -10.0  -999.25 
 312.790     -1.2   20.61  -656.1 62.1    187.0    175.3    159.9  -0.09      190.9    485.2    -10.0  0.10000 
 312.810     -1.2   20.61  -656.1 62.2    185.9    176.5    161.2  -999.25    189.0    485.2    -10.0  -999.25 
 312.830     -1.2   20.65  -656.0 62.2    185.9    176.5    161.2  0.02       189.0    484.2    -10.0  0.10000 
 312.850     22.4   20.65  -656.0 62.2    186.2    175.4    161.2  -999.25    189.7    484.2    -10.0  -999.25 
 312.870     22.4   20.65  -656.0 62.2    186.2    175.4    160.3  -999.25    189.7    484.2    -10.0  -999.25 
 312.890     22.4   20.57  -656.1 62.2    186.2    175.4    160.3  0.01       189.7    486.0    -10.0  0.10000 
 312.910     57.6   20.57  -656.1 62.2    185.5    175.2    160.9  -999.25    189.0    486.0    -10.0  -999.25 
 312.930     57.6   20.62  -656.1 62.2    185.5    175.2    160.9  -0.01      189.0    484.9    -10.0  0.10000 
 312.950     10.6   20.62  -656.1 62.2    185.4    175.5    160.9  -999.25    188.7    484.9    -10.0  -999.25 
 312.970     10.6   20.62  -656.1 62.2    185.4    175.5    161.0  -999.25    188.7    484.9    -10.0  -999.25 
 312.990     10.6   20.62  -656.0 62.2    185.4    175.5    161.0  0.04       188.7    485.1    -10.0  0.10000 
 313.010     -1.2   20.62  -656.0 62.1    185.0    175.3    160.3  -999.25    188.2    485.1    -10.0  -999.25 
 313.030     -1.2   20.62  -655.9 62.1    185.0    175.3    160.3  -999.25    188.2    485.1    -10.0  0.10000 
 313.050     34.1   20.62  -655.9 62.1    184.1    176.5    160.3  -999.25    186.7    485.1    -10.0  -999.25 
 313.070     34.1   20.62  -655.9 62.1    184.1    176.5    161.8  -999.25    186.7    485.1    -10.0  -999.25 
 313.090     34.1   20.62  -656.0 62.1    184.1    176.5    161.8  -0.07      186.7    484.9    -10.0  0.10000 
 313.110     -1.2   20.62  -656.0 62.2    184.0    175.1    160.6  -999.25    187.0    484.9    -10.0  -999.25 
 313.130     -1.2   20.62  -656.1 62.2    184.0    175.1    160.6  0.09       187.0    485.1    -10.0  0.10000 
 313.150     10.6   20.62  -656.1 62.1    184.1    175.9    160.6  -999.25    186.8    485.1    -10.0  -999.25 
 313.170     10.6   20.62  -656.1 62.1    184.1    175.9    161.9  -999.25    186.8    485.1    -10.0  -999.25 
 313.190     10.6   20.63  -655.9 62.1    184.1    175.9    161.9  -0.02      186.8    484.7    -10.0  0.10000 
