~Version Information
 VERS.                2.0:  CWLS LOG ASCII STANDARD -VERSION 2.0
 WRAP.                 NO:  ONE LINE PER DEPTH STEP
~WELL INFORMATION BLOCK
#MNEM.UNIT       DATA		            DESCRIPTION OF MNEMONIC
#---------    -------------            ------------------------
 STRT.FT  1.130                          :START DEPTH
 STOP.FT  518.850                        :STOP DEPTH
 STEP.FT  0.020                          :STEP    UP_HOLE  
 NULL.    -999.25                        :NULL VALUE
 COMP.    CARLETON GEO LOOP E-1          :COMPANY
 WELL.    278816-MULTITOOL                                             :WELL
 FLD .    NORTHFIELD 71-B                :FIELD\LOCATION
 LOC .    31    112   19                 :LOCATION
 CNTY.    RICE                           :COUNTY
 STAT.    CADDDC                         :STATE
 CTRY.    USA                            :COUNTRY
 SRVC.    TRUCK                          :SERVICE COMPANY
 DATE.    08/15/2017                     :LOG DATE
 API .                                       :API NUMBER
 LIC .                                   :LICENSE NUMBER
~Curve Information Block
#MNEM.UNIT      API CODE     Curve Description
#---------    -------------  ------------------------
 DEPT     .FT        00 001 00 00          :  1  DEPTH   
 GAMMA    .API-GR    00 310 00 00          :  2  GAMMA RAY           
 RES(FL)  .OHM-M     00 000 00 00          :  3  RES(FL)             
 SP       .MV        00 010 00 00          :  4  SPON POTENTIAL      
 TEMP     .DEG_F     00 660 00 00          :  5  TEMPERATURE         
 RES(16N) .OHM-M     00 040 00 00          :  6  16 NORMAL RES       
 RES(64N) .OHM-M     00 060 00 00          :  7  64 NORMAL RES       
 RES      .OHM       00 000 00 00          :  8  SINGLE POINT RES    
 DEL_TEMP .DEG_F     00 000 00 00          :  9  SAMPLE DELTA TEMP   
 LATERAL  .OHM-M     00 070 00 00          : 10  LATERAL             
 SP_COND  .US/CM     00 000 00 00          : 11  SP COND             
 TENSION  .CPS       00 000 00 00          : 12  LINE TENSION        
 TIME     .SECONDS   00 000 00 00          : 13  TIME                
~Parameter Information Block
#MNEM.UNIT   Information     Description
#---------- ---------------  ------------------------
 FILE.      PROCESSED          :File Type
 FIID.      8144A              :File Type Identifier
 VERS.      3.60Q              :System Version
 SER .      1                  :System Serial Number
 TRUK.      0.0                :Truck Calibration Number
 TOOL.        1229             :Tool Serial Number
 TIME.      1450               :Time    HrHrMinMin
 LAT .                         :Latitude
 LON .                         :Longitude
 LMF .                         :Log Measured From
 DMF .                         :Driller Measured From
 PD  .                         :Permanent Data
 PDEV.FT                       :Elevation Permanent Data
 EKB .FT                       :Elevation Kelly Bushing
 ELEV.FT                       :Elevation DF
 EGL .FT    938 L1             :Elevation Ground Level
 DRDP.FT    109                :Driller's Depth
 CASD.FT    6                  :Casing Diameter
 CASB.FT                       :Casing Bottom
 CASX.                         :Casing Type
 CAST.IN    0                  :Casing Thickness
 TNOC.                         :Time Circulation Stopped
 LOGU.                         :Logging Unit
 RECB.      PETTUS             :Recorded By
 OSR1.                         :Other Services
 OSR2.                         :Other Services
 OSR3.                         :Other Services
 BS  .IN           6           :Bit Size
 MST .F                        :Mean Surface Temperature
 TGRD.F     0                  :Temperature Gradiant
 MAGN.      0                  :Magnetic Declination
 MDEN.      2.84               :Density Matrix
 MATR.      DOLOMITE           :Neutron Matrix
 DTMT.      44                 :Delta T Matrix
 DTFL.                         :Delta T Fluid
 MUDS.      0                  :Mud Sample Source
 MRS .      0                  :Mud Resistivity
 MTP .      0                  :Mud Temperature
 MFRS.                         :Resistivity Mud Filtrate
 MFTP.                         :Temperature Mud Filtrate
 MCRS.      0                  :Resistivity Mud Cake
 MCTP.                         :Temperature Mud Cake
 FTYP.      0                  :Fluid Type
 FD  .LB/G     0               :Mud Weight
 DFV .S                        :Fluid Viscosity
 FPH .                         :Fuild PH
 ELCO.      2500               :Electron Cutoff
 CASL.IN    4                  :Casing Logger
 LOTD.FT                       :Logger TD
 ARTM.                         :Arrival Time
 DPTM.                         :Departure Time
 RIGN.                         :Rig Number
~Other Information
#MNEM.UNIT  Information      Description
#---------- ---------------  ------------------------
# -------------------------- 
~A DEPTH  GAMMA    RES(FL) SP    TEMP  RES(16N) RES(64N) RES      DEL_TEMP LATERAL  SP_COND  TENSION  TIME    
# ...
 277.210     34.1   20.38  -655.9 62.3    170.8    173.8    157.3  -999.25    169.8    490.6    -10.0  -999.25 
 277.230     -1.2   20.38  -655.9 62.3    170.4    173.8    157.3  -999.25    169.3    490.6    -10.0  -999.25 
 277.250     -1.2   20.40  -656.0 62.3    170.4    174.7    158.1  -0.05      169.0    490.2    -10.0  0.10000 
 277.270     -1.2   20.40  -656.0 62.3    170.4    174.7    158.1  -999.25    169.0    490.2    -10.0  -999.25 
 277.290     57.6   20.44  -656.0 62.3    171.4    173.9    155.3  0.01       170.5    489.2    -10.0  0.10000 
 277.310     57.6   20.44  -656.0 62.3    171.4    173.9    155.3  -999.25    170.5    489.2    -10.0  -999.25 
 277.330     22.4   20.44  -656.0 62.3    171.0    173.9    155.3  -999.25    170.0    489.2    -10.0  -999.25 
 277.350     22.4   20.41  -656.1 62.3    171.0    174.9    155.6  0.09       169.7    489.9    -10.0  0.10000 
 277.370     22.4   20.41  -656.1 62.2    171.0    174.9    155.6  -999.25    169.7    489.9    -10.0  -999.25 
 277.390     57.6   20.39  -656.1 62.2    170.7    172.0    155.1  -0.05      170.3    490.4    -10.0  0.09900 
 277.410     57.6   20.39  -655.9 62.3    170.7    172.0    155.1  -999.25    170.3    490.4    -10.0  -999.25 
 277.430     10.6   20.39  -655.9 62.3    170.4    172.0    155.1  -999.25    169.8    490.4    -10.0  -999.25 
 277.450     10.6   20.48  -656.1 62.3    170.4    175.4    154.4  -0.03      168.7    488.4    -10.0  0.10100 
 277.470     10.6   20.48  -656.1 62.3    170.4    175.4    154.4  -999.25    168.7    488.4    -10.0  -999.25 
 277.490     34.1   20.44  -656.1 62.3    170.9    172.6    155.3  0.04       170.3    489.2    -10.0  0.10000 
 277.510     34.1   20.44  -656.0 62.2    170.9    172.6    155.3  -999.25    170.3    489.2    -10.0  -999.25 
 277.530     22.4   20.44  -656.0 62.2    171.7    172.6    155.3  -999.25    171.4    489.2    -10.0  -999.25 
 277.550     22.4   20.48  -656.0 62.2    171.7    173.3    152.5  -0.08      171.2    488.2    -10.0  0.10000 
 277.570     22.4   20.48  -656.0 62.3    171.7    173.3    152.5  -999.25    171.2    488.2    -10.0  -999.25 
 277.590     22.4   20.39  -656.0 62.3    171.9    173.3    154.7  0.02       171.5    490.4    -10.0  0.10000 
 277.610     22.4   20.39  -656.0 62.3    171.9    171.2    154.7  -999.25    172.2    490.4    -10.0  -999.25 
 277.630     34.1   20.39  -656.0 62.3    172.8    171.2    154.7  -999.25    173.3    490.4    -10.0  -999.25 
 277.650     34.1   20.38  -655.9 62.3    172.8    173.6    153.3  0.03       172.5    490.6    -10.0  0.09900 
 277.670     34.1   20.38  -655.9 62.3    172.8    173.6    153.3  -999.25    172.5    490.6    -10.0  -999.25 
 277.690     22.4   20.39  -655.9 62.3    171.4    173.6    155.5  -0.03      170.6    490.4    -10.0  0.10100 
 277.710     22.4   20.39  -656.1 62.3    171.4    173.7    155.5  -999.25    170.6    490.4    -10.0  -999.25 
 277.730     10.6   20.39  -656.1 62.3    171.9    173.7    155.5  -999.25    171.3    490.4    -10.0  -999.25 
 277.750     10.6   20.38  -656.0 62.3    171.9    175.1    154.6  0.06       170.8    490.6    -10.0  0.10000 
 277.770     10.6   20.38  -656.0 62.2    171.9    175.1    154.6  -999.25    170.8    490.6    -10.0  -999.25 
 277.790     10.6   20.38  -656.0 62.2    171.1    175.1    154.7  -0.04      169.8    490.6    -10.0  0.09900 
 277.810     10.6   20.36  -656.1 62.3    171.1    177.4    154.7  -999.25    169.0    491.2    -10.0  -999.25 
 277.830     10.6   20.36  -656.1 62.3    172.1    177.4    154.7  -999.25    170.4    491.2    -10.0  -999.25 
 277.850     10.6   20.32  -656.1 62.3    172.1    174.3    155.0  0.03       171.4    492.1    -10.0  0.10100 
 277.870     10.6   20.32  -656.1 62.3    172.1    174.3    155.0  -999.25    171.4    492.1    -10.0  -999.25 
 277.890     10.6   20.32  -656.1 62.3    171.1    174.3    155.2  0.04       170.1    492.1    -10.0  0.09900 
 277.910     10.6   20.44  -656.0 62.2    171.1    177.4    155.2  -999.25    169.0    489.2    -10.0  -999.25 
 277.930     -1.2   20.44  -656.0 62.2    170.6    177.4    155.2  -999.25    168.3    489.2    -10.0  -999.25 
 277.950     -1.2   20.39  -655.9 62.2    170.6    175.4    157.2  -0.09      169.0    490.4    -10.0  0.10100 
 277.970     -1.2   20.39  -655.9 62.3    170.6    175.4    157.2  -999.25    169.0    490.4    -10.0  -999.25 
 277.990     22.4   20.39  -655.9 62.3    170.9    175.4    155.6  -999.25    169.4    490.4    -10.0  -999.25 
 278.010     22.4   20.41  -656.1 62.3    170.9    180.8    155.6  0.08       167.6    489.9    -10.0  0.10000 
 278.030     45.9   20.41  -656.1 62.2    170.7    180.8    155.6  -999.25    167.3    489.9    -10.0  -999.25 
 278.050     45.9   20.36  -656.1 62.2    170.7    178.8    156.6  -0.10      168.0    491.2    -10.0  0.09900 
 278.070     45.9   20.36  -656.1 62.3    170.7    178.8    156.6  -999.25    168.0    491.2    -10.0  -999.25 
 278.090     10.6   20.36  -656.1 62.3    171.5    178.8    155.0  -999.25    169.0    491.2    -10.0  -999.25 
 278.110     10.6   20.41  -656.1 62.3    171.5    178.2    155.0  0.03       169.2    490.1    -10.0  0.10100 
 278.130     34.1   20.41  -656.1 62.3    169.6    178.2    155.0  -999.25    166.7    490.1    -10.0  -999.25 
 278.150     34.1   20.34  -656.1 62.3    169.6    176.6    156.3  0.06       167.2    491.6    -10.0  0.09900 
 278.170     34.1   20.34  -656.0 62.2    169.6    176.6    156.3  -999.25    167.2    491.6    -10.0  -999.25 
 278.190     10.6   20.34  -656.0 62.2    170.2    176.6    156.6  -999.25    168.1    491.6    -10.0  -999.25 
 278.210     10.6   20.35  -655.9 62.2    170.2    178.5    156.6  -0.09      167.5    491.4    -10.0  0.10100 
 278.230     10.6   20.35  -655.9 62.3    169.2    178.5    156.6  -999.25    166.1    491.4    -10.0  -999.25 
 278.250     10.6   20.45  -655.9 62.3    169.2    184.3    156.3  0.06       164.1    488.9    -10.0  0.10000 
 278.270     10.6   20.45  -656.0 62.3    169.2    184.3    156.3  -999.25    164.1    488.9    -10.0  -999.25 
 278.290     57.6   20.45  -656.0 62.3    169.5    184.3    156.7  -999.25    164.5    488.9    -10.0  -999.25 
 278.310     57.6   20.49  -656.0 62.3    169.5    177.8    156.7  -0.02      166.7    488.0    -10.0  0.09900 
 278.330     22.4   20.49  -656.0 62.3    169.7    177.8    156.7  -999.25    167.0    488.0    -10.0  -999.25 
 278.350     22.4   20.49  -656.0 62.3    169.7    179.6    155.7  0.05       166.4    488.0    -10.0  0.10100 
 278.370     22.4   20.42  -655.9 62.2    169.7    179.6    155.7  -999.25    166.4    489.7    -10.0  -999.25 
 278.390     34.1   20.42  -655.9 62.2    169.7    179.6    157.9  -999.25    166.4    489.7    -10.0  -999.25 
 278.410     34.1   20.45  -656.0 62.2    169.7    173.9    157.9  0.01       168.2    489.1    -10.0  0.09900 
 278.430     81.2   20.45  -656.0 62.2    169.9    173.9    157.9  -999.25    168.5    489.1    -10.0  -999.25 
 278.450     81.2   20.45  -656.0 62.2    169.9    175.1    155.7  -0.05      168.2    489.1    -10.0  0.10100 
 278.470     81.2   20.49  -656.1 62.3    169.9    175.1    155.7  -999.25    168.2    488.0    -10.0  -999.25 
 278.490     45.9   20.49  -656.1 62.3    169.4    175.1    157.5  -999.25    167.5    488.0    -10.0  -999.25 
 278.510     45.9   20.40  -656.1 62.3    169.4    176.9    157.5  -0.06      166.9    490.2    -10.0  0.09900 
 278.530     34.1   20.40  -656.1 62.4    170.3    176.9    157.5  -999.25    168.1    490.2    -10.0  -999.25 
 278.550     34.1   20.40  -656.1 62.4    170.3    179.0    156.0  -999.25    167.3    490.2    -10.0  -999.25 
 278.570     34.1   20.48  -656.2 62.4    170.3    179.0    156.0  0.04       167.3    488.4    -10.0  0.10000 
 278.590     34.1   20.48  -656.2 62.3    168.9    179.0    156.7  -999.25    165.6    488.4    -10.0  -999.25 
 278.610     34.1   20.43  -656.0 62.3    168.9    177.2    156.7  -0.01      166.2    489.6    -10.0  0.10100 
 278.630     57.6   20.43  -656.0 62.3    168.9    177.2    156.7  -999.25    166.2    489.6    -10.0  -999.25 
