~Version Information
 VERS.                2.0:  CWLS LOG ASCII STANDARD -VERSION 2.0
 WRAP.                 NO:  ONE LINE PER DEPTH STEP
~WELL INFORMATION BLOCK
#MNEM.UNIT       DATA		            DESCRIPTION OF MNEMONIC
#---------    -------------            ------------------------
 STRT.FT  1.130                          :START DEPTH
 STOP.FT  518.850                        :STOP DEPTH
 STEP.FT  0.020                          :STEP    UP_HOLE  
 NULL.    -999.25                        :NULL VALUE
 COMP.    CARLETON GEO LOOP E-1          :COMPANY
 WELL.    278816-MULTITOOL                                             :WELL
 FLD .    NORTHFIELD 71-B                :FIELD\LOCATION
 LOC .    31    112   19                 :LOCATION
 CNTY.    RICE                           :COUNTY
 STAT.    CADDDC                         :STATE
 CTRY.    USA                            :COUNTRY
 SRVC.    TRUCK                          :SERVICE COMPANY
 DATE.    08/15/2017                     :LOG DATE
 API .                                       :API NUMBER
 LIC .                                   :LICENSE NUMBER
~Curve Information Block
#MNEM.UNIT      API CODE     Curve Description
#---------    -------------  ------------------------
 DEPT     .FT        00 001 00 00          :  1  DEPTH   
 GAMMA    .API-GR    00 310 00 00          :  2  GAMMA RAY           
 RES(FL)  .OHM-M     00 000 00 00          :  3  RES(FL)             
 SP       .MV        00 010 00 00          :  4  SPON POTENTIAL      
 TEMP     .DEG_F     00 660 00 00          :  5  TEMPERATURE         
 RES(16N) .OHM-M     00 040 00 00          :  6  16 NORMAL RES       
 RES(64N) .OHM-M     00 060 00 00          :  7  64 NORMAL RES       
 RES      .OHM       00 000 00 00          :  8  SINGLE POINT RES    
 DEL_TEMP .DEG_F     00 000 00 00          :  9  SAMPLE DELTA TEMP   
 LATERAL  .OHM-M     00 070 00 00          : 10  LATERAL             
 SP_COND  .US/CM     00 000 00 00          : 11  SP COND             
 TENSION  .CPS       00 000 00 00          : 12  LINE TENSION        
 TIME     .SECONDS   00 000 00 00          : 13  TIME                
~Parameter Information Block
#MNEM.UNIT   Information     Description
#---------- ---------------  ------------------------
 FILE.      PROCESSED          :File Type
 FIID.      8144A              :File Type Identifier
 VERS.      3.60Q              :System Version
 SER .      1                  :System Serial Number
 TRUK.      0.0                :Truck Calibration Number
 TOOL.        1229             :Tool Serial Number
 TIME.      1450               :Time    HrHrMinMin
 LAT .                         :Latitude
 LON .                         :Longitude
 LMF .                         :Log Measured From
 DMF .                         :Driller Measured From
 PD  .                         :Permanent Data
 PDEV.FT                       :Elevation Permanent Data
 EKB .FT                       :Elevation Kelly Bushing
 ELEV.FT                       :Elevation DF
 EGL .FT    938 L1             :Elevation Ground Level
 DRDP.FT    109                :Driller's Depth
 CASD.FT    6                  :Casing Diameter
 CASB.FT                       :Casing Bottom
 CASX.                         :Casing Type
 CAST.IN    0                  :Casing Thickness
 TNOC.                         :Time Circulation Stopped
 LOGU.                         :Logging Unit
 RECB.      PETTUS             :Recorded By
 OSR1.                         :Other Services
 OSR2.                         :Other Services
 OSR3.                         :Other Services
 BS  .IN           6           :Bit Size
 MST .F                        :Mean Surface Temperature
 TGRD.F     0                  :Temperature Gradiant
 MAGN.      0                  :Magnetic Declination
 MDEN.      2.84               :Density Matrix
 MATR.      DOLOMITE           :Neutron Matrix
 DTMT.      44                 :Delta T Matrix
 DTFL.                         :Delta T Fluid
 MUDS.      0                  :Mud Sample Source
 MRS .      0                  :Mud Resistivity
 MTP .      0                  :Mud Temperature
 MFRS.                         :Resistivity Mud Filtrate
 MFTP.                         :Temperature Mud Filtrate
 MCRS.      0                  :Resistivity Mud Cake
 MCTP.                         :Temperature Mud Cake
 FTYP.      0                  :Fluid Type
 FD  .LB/G     0               :Mud Weight
 DFV .S                        :Fluid Viscosity
 FPH .                         :Fuild PH
 ELCO.      2500               :Electron Cutoff
 CASL.IN    4                  :Casing Logger
 LOTD.FT                       :Logger TD
 ARTM.                         :Arrival Time
 DPTM.                         :Departure Time
 RIGN.                         :Rig Number
~Other Information
#MNEM.UNIT  Information      Description
#---------- ---------------  ------------------------
# -------------------------- 
~A DEPTH  GAMMA    RES(FL) SP    TEMP  RES(16N) RES(64N) RES      DEL_TEMP LATERAL  SP_COND  TENSION  TIME    
# ...
 176.410     -1.2   20.98  -657.0 60.6    889.6    526.9    358.2  0.05      1010.5    476.6    -10.0  0.10000 
 176.430     -1.2   20.98  -657.0 60.5    898.5    527.6    357.4  -999.25   1022.1    476.6    -10.0  -999.25 
 176.450     -1.2   20.97  -657.0 60.5    898.5    527.6    357.4  -0.09     1022.1    476.8    -10.0  0.10000 
 176.470     10.6   20.97  -657.0 60.6    907.3    531.4    357.4  -999.25   1032.6    476.8    -10.0  -999.25 
 176.490     10.6   20.97  -657.1 60.6    907.3    531.4    360.4  -999.25   1032.6    476.8    -10.0  -999.25 
 176.510     10.6   20.98  -657.1 60.6    907.3    530.5    360.4  0.03      1032.9    476.6    -10.0  0.10000 
 176.530     10.6   20.98  -657.1 60.6    918.4    530.5    359.9  -999.25   1047.7    476.6    -10.0  -999.25 
 176.550     10.6   20.99  -657.1 60.6    918.4    530.5    359.9  0.02      1047.7    476.4    -10.0  0.10000 
 176.570     -1.2   20.99  -657.1 60.6    926.3    534.8    359.9  -999.25   1056.8    476.4    -10.0  -999.25 
 176.590     -1.2   20.99  -657.0 60.6    926.3    534.8    361.7  -999.25   1056.8    476.4    -10.0  -999.25 
 176.610     -1.2   20.96  -657.0 60.6    926.3    535.1    361.7  -0.04     1056.7    477.1    -10.0  0.10000 
 176.630     22.4   20.96  -657.0 60.6    934.6    535.1    362.1  -999.25   1067.7    477.1    -10.0  -999.25 
 176.650     22.4   20.94  -656.9 60.6    934.6    535.1    362.1  0.00      1067.7    477.6    -10.0  0.10000 
 176.670     -1.2   20.94  -656.9 60.6    940.0    539.7    362.1  -999.25   1073.5    477.6    -10.0  -999.25 
 176.690     -1.2   20.94  -657.1 60.6    940.0    539.7    361.9  -999.25   1073.5    477.6    -10.0  -999.25 
 176.710     -1.2   20.97  -657.1 60.6    940.0    539.7    361.9  0.01      1073.5    476.9    -10.0  0.10000 
 176.730     10.6   20.97  -657.1 60.6    946.4    542.1    363.7  -999.25   1081.1    476.9    -10.0  -999.25 
 176.750     10.6   20.97  -657.0 60.6    946.4    542.1    363.7  -0.01     1081.1    476.9    -10.0  0.10000 
 176.770     -1.2   20.97  -657.0 60.6    953.4    544.6    363.7  -999.25   1089.7    476.9    -10.0  -999.25 
 176.790     -1.2   20.97  -657.0 60.6    953.4    544.6    362.9  -999.25   1089.7    476.9    -10.0  -999.25 
 176.810     -1.2   20.94  -657.0 60.6    953.4    548.0    362.9  -0.02     1088.5    477.6    -10.0  0.10000 
 176.830     10.6   20.94  -657.0 60.6    958.5    548.0    365.6  -999.25   1095.3    477.6    -10.0  -999.25 
 176.850     10.6   20.95  -656.8 60.6    958.5    548.0    365.6  0.04      1095.3    477.4    -10.0  0.10000 
 176.870     10.6   20.95  -656.8 60.6    964.6    548.5    365.6  -999.25   1103.3    477.4    -10.0  -999.25 
 176.890     10.6   20.95  -656.6 60.6    964.6    548.5    364.5  -999.25   1103.3    477.4    -10.0  -999.25 
 176.910     10.6   20.94  -656.6 60.6    964.6    554.5    364.5  0.03      1101.3    477.6    -10.0  0.10000 
 176.930     -1.2   20.94  -656.6 60.6    968.3    554.5    366.7  -999.25   1106.3    477.6    -10.0  -999.25 
 176.950     -1.2   20.93  -657.0 60.6    968.3    554.5    366.7  -0.05     1106.3    477.7    -10.0  0.10000 
 176.970     10.6   20.93  -657.0 60.6    974.3    554.9    366.7  -999.25   1114.1    477.7    -10.0  -999.25 
 176.990     10.6   20.93  -657.0 60.6    974.3    554.9    366.8  -999.25   1114.1    477.7    -10.0  -999.25 
 177.010     10.6   20.95  -657.0 60.6    974.3    559.9    366.8  -0.00     1112.4    477.2    -10.0  0.10000 
 177.030     -1.2   20.95  -657.0 60.6    977.6    559.9    367.7  -999.25   1116.9    477.2    -10.0  -999.25 
 177.050     -1.2   20.97  -657.2 60.6    977.6    559.9    367.7  -0.05     1116.9    476.9    -10.0  0.10000 
 177.070     34.1   20.97  -657.2 60.7    981.9    560.4    367.7  -999.25   1122.4    476.9    -10.0  -999.25 
 177.090     34.1   20.97  -656.9 60.7    981.9    560.4    368.8  -999.25   1122.4    476.9    -10.0  -999.25 
 177.110     34.1   20.94  -656.9 60.7    981.9    562.6    368.8  0.02      1121.7    477.6    -10.0  0.10000 
 177.130     -1.2   20.94  -656.9 60.6    985.1    562.6    368.6  -999.25   1126.0    477.6    -10.0  -999.25 
 177.150     -1.2   20.93  -657.1 60.6    985.1    562.6    368.6  -0.07     1126.0    477.7    -10.0  0.10000 
 177.170     34.1   20.93  -657.1 60.7    987.5    564.8    368.6  -999.25   1128.3    477.7    -10.0  -999.25 
 177.190     34.1   20.93  -656.9 60.7    987.5    564.8    370.2  -999.25   1128.3    477.7    -10.0  -999.25 
 177.210     34.1   20.94  -656.9 60.7    987.5    565.1    370.2  0.14      1128.2    477.6    -10.0  0.10000 
 177.230     10.6   20.94  -656.9 60.6    990.0    565.1    368.8  -999.25   1131.6    477.6    -10.0  -999.25 
 177.250     10.6   20.95  -656.7 60.6    990.0    565.1    368.8  -0.05     1131.6    477.4    -10.0  0.10000 
 177.270     22.4   20.95  -656.7 60.6    990.4    568.1    368.8  -999.25   1131.2    477.4    -10.0  -999.25 
 177.290     22.4   20.95  -657.1 60.6    990.4    568.1    371.0  -999.25   1131.2    477.4    -10.0  -999.25 
 177.310     22.4   20.95  -657.1 60.6    990.4    566.0    371.0  0.02      1131.9    477.2    -10.0  0.10000 
 177.330     -1.2   20.95  -657.1 60.6    992.4    566.0    369.6  -999.25   1134.5    477.2    -10.0  -999.25 
 177.350     -1.2   20.95  -657.1 60.6    992.4    566.0    369.6  -0.01     1134.5    477.4    -10.0  0.10000 
 177.370     34.1   20.95  -657.1 60.6    991.9    569.4    369.6  -999.25   1132.7    477.4    -10.0  -999.25 
 177.390     34.1   20.95  -657.0 60.6    991.9    569.4    370.9  -999.25   1132.7    477.4    -10.0  -999.25 
 177.410     34.1   20.94  -657.0 60.6    991.9    567.2    370.9  -0.02     1133.4    477.6    -10.0  0.10000 
 177.430     -1.2   20.94  -657.0 60.6    992.7    567.2    371.2  -999.25   1134.5    477.6    -10.0  -999.25 
 177.450     -1.2   20.93  -656.9 60.6    992.7    567.2    371.2  -0.02     1134.5    477.9    -10.0  0.10000 
 177.470     34.1   20.93  -656.9 60.7    992.2    567.8    371.2  -999.25   1133.7    477.9    -10.0  -999.25 
 177.490     34.1   20.93  -656.9 60.7    992.2    567.8    370.3  -999.25   1133.7    477.9    -10.0  -999.25 
 177.510     34.1   20.92  -656.9 60.7    992.2    566.3    370.3  0.03      1134.2    478.0    -10.0  0.10000 
 177.530     10.6   20.92  -656.9 60.6    992.5    566.3    371.4  -999.25   1134.6    478.0    -10.0  -999.25 
 177.550     10.6   20.94  -657.3 60.6    992.5    566.3    371.4  -0.04     1134.6    477.6    -10.0  0.10000 
 177.570     22.4   20.94  -657.3 60.7    993.8    562.8    371.4  -999.25   1137.5    477.6    -10.0  -999.25 
 177.590     22.4   20.94  -656.9 60.7    993.8    562.8    369.7  -999.25   1137.5    477.6    -10.0  -999.25 
 177.610     22.4   20.91  -656.9 60.7    993.8    560.1    369.7  0.00      1138.4    478.2    -10.0  0.10000 
 177.630     10.6   20.91  -656.9 60.7    994.5    560.1    371.7  -999.25   1139.3    478.2    -10.0  -999.25 
 177.650     10.6   20.91  -656.9 60.7    994.5    560.1    371.7  0.07      1139.3    478.2    -10.0  0.10000 
 177.670     34.1   20.91  -656.9 60.6    996.1    553.5    371.7  -999.25   1143.7    478.2    -10.0  -999.25 
 177.690     34.1   20.91  -657.0 60.6    996.1    553.5    370.2  -999.25   1143.7    478.2    -10.0  -999.25 
 177.710     34.1   20.93  -657.0 60.6    996.1    551.8    370.2  -0.09     1144.3    477.9    -10.0  0.10000 
 177.730     10.6   20.93  -657.0 60.7    996.3    551.8    371.9  -999.25   1144.4    477.9    -10.0  -999.25 
 177.750     10.6   20.93  -657.1 60.7    996.3    551.8    371.9  0.01      1144.4    477.7    -10.0  0.10000 
 177.770     -1.2   20.93  -657.1 60.7    999.3    544.7    371.9  -999.25   1150.9    477.7    -10.0  -999.25 
 177.790     -1.2   20.93  -657.0 60.7    999.3    544.7    371.3  -999.25   1150.9    477.7    -10.0  -999.25 
 177.810     -1.2   20.95  -657.0 60.7    999.3    542.8    371.3  -999.25   1151.5    477.4    -10.0  0.10000 
 177.830     -1.2   20.95  -657.0 60.7   1000.5    542.8    371.4  -999.25   1153.0    477.4    -10.0  -999.25 
