~Version Information
 VERS.                2.0:  CWLS LOG ASCII STANDARD -VERSION 2.0
 WRAP.                 NO:  ONE LINE PER DEPTH STEP
~WELL INFORMATION BLOCK
#MNEM.UNIT       DATA		            DESCRIPTION OF MNEMONIC
#---------    -------------            ------------------------
 STRT.FT  1.130                          :START DEPTH
 STOP.FT  518.850                        :STOP DEPTH
 STEP.FT  0.020                          :STEP    UP_HOLE  
 NULL.    -999.25                        :NULL VALUE
 COMP.    CARLETON GEO LOOP E-1          :COMPANY
 WELL.    278816-MULTITOOL                                             :WELL
 FLD .    NORTHFIELD 71-B                :FIELD\LOCATION
 LOC .    31    112   19                 :LOCATION
 CNTY.    RICE                           :COUNTY
 STAT.    CADDDC                         :STATE
 CTRY.    USA                            :COUNTRY
 SRVC.    TRUCK                          :SERVICE COMPANY
 DATE.    08/15/2017                     :LOG DATE
 API .                                       :API NUMBER
 LIC .                                   :LICENSE NUMBER
~Curve Information Block
#MNEM.UNIT      API CODE     Curve Description
#---------    -------------  ------------------------
 DEPT     .FT        00 001 00 00          :  1  DEPTH   
 GAMMA    .API-GR    00 310 00 00          :  2  GAMMA RAY           
 RES(FL)  .OHM-M     00 000 00 00          :  3  RES(FL)             
 SP       .MV        00 010 00 00          :  4  SPON POTENTIAL      
 TEMP     .DEG_F     00 660 00 00          :  5  TEMPERATURE         
 RES(16N) .OHM-M     00 040 00 00          :  6  16 NORMAL RES       
 RES(64N) .OHM-M     00 060 00 00          :  7  64 NORMAL RES       
 RES      .OHM       00 000 00 00          :  8  SINGLE POINT RES    
 DEL_TEMP .DEG_F     00 000 00 00          :  9  SAMPLE DELTA TEMP   
 LATERAL  .OHM-M     00 070 00 00          : 10  LATERAL             
 SP_COND  .US/CM     00 000 00 00          : 11  SP COND             
 TENSION  .CPS       00 000 00 00          : 12  LINE TENSION        
 TIME     .SECONDS   00 000 00 00          : 13  TIME                
~Parameter Information Block
#MNEM.UNIT   Information     Description
#---------- ---------------  ------------------------
 FILE.      PROCESSED          :File Type
 FIID.      8144A              :File Type Identifier
 VERS.      3.60Q              :System Version
 SER .      1                  :System Serial Number
 TRUK.      0.0                :Truck Calibration Number
 TOOL.        1229             :Tool Serial Number
 TIME.      1450               :Time    HrHrMinMin
 LAT .                         :Latitude
 LON .                         :Longitude
 LMF .                         :Log Measured From
 DMF .                         :Driller Measured From
 PD  .                         :Permanent Data
 PDEV.FT                       :Elevation Permanent Data
 EKB .FT                       :Elevation Kelly Bushing
 ELEV.FT                       :Elevation DF
 EGL .FT    938 L1             :Elevation Ground Level
 DRDP.FT    109                :Driller's Depth
 CASD.FT    6                  :Casing Diameter
 CASB.FT                       :Casing Bottom
 CASX.                         :Casing Type
 CAST.IN    0                  :Casing Thickness
 TNOC.                         :Time Circulation Stopped
 LOGU.                         :Logging Unit
 RECB.      PETTUS             :Recorded By
 OSR1.                         :Other Services
 OSR2.                         :Other Services
 OSR3.                         :Other Services
 BS  .IN           6           :Bit Size
 MST .F                        :Mean Surface Temperature
 TGRD.F     0                  :Temperature Gradiant
 MAGN.      0                  :Magnetic Declination
 MDEN.      2.84               :Density Matrix
 MATR.      DOLOMITE           :Neutron Matrix
 DTMT.      44                 :Delta T Matrix
 DTFL.                         :Delta T Fluid
 MUDS.      0                  :Mud Sample Source
 MRS .      0                  :Mud Resistivity
 MTP .      0                  :Mud Temperature
 MFRS.                         :Resistivity Mud Filtrate
 MFTP.                         :Temperature Mud Filtrate
 MCRS.      0                  :Resistivity Mud Cake
 MCTP.                         :Temperature Mud Cake
 FTYP.      0                  :Fluid Type
 FD  .LB/G     0               :Mud Weight
 DFV .S                        :Fluid Viscosity
 FPH .                         :Fuild PH
 ELCO.      2500               :Electron Cutoff
 CASL.IN    4                  :Casing Logger
 LOTD.FT                       :Logger TD
 ARTM.                         :Arrival Time
 DPTM.                         :Departure Time
 RIGN.                         :Rig Number
~Other Information
#MNEM.UNIT  Information      Description
#---------- ---------------  ------------------------
# -------------------------- 
~A DEPTH  GAMMA    RES(FL) SP    TEMP  RES(16N) RES(64N) RES      DEL_TEMP LATERAL  SP_COND  TENSION  TIME    
# ...
 447.130     69.4   20.13  -656.5 61.6    144.1    133.9    150.3  -999.25    147.5    496.7    -10.0  -999.25 
 447.150     69.4   20.13  -656.5 61.6    144.1    130.8    150.3  -0.03      148.6    496.7    -10.0  0.10000 
 447.170    198.8   20.13  -656.8 61.7    143.7    130.8    148.9  -999.25    147.9    496.7    -10.0  -999.25 
 447.190    198.8   20.14  -656.8 61.7    143.7    132.7    148.9  0.04       147.3    496.6    -10.0  0.10000 
 447.210    175.3   20.14  -656.8 61.6    143.7    132.7    149.9  -999.25    147.3    496.6    -10.0  -999.25 
 447.230    175.3   20.16  -656.7 61.6    143.8    132.7    149.9  -999.25    147.5    496.0    -10.0  -999.25 
 447.250    140.0   20.16  -656.7 61.6    143.8    130.0    149.1  -0.10      148.4    496.0    -10.0  0.10000 
 447.270    140.0   20.16  -656.9 61.7    143.0    130.0    149.1  -999.25    147.3    496.0    -10.0  -999.25 
 447.290    140.0   20.13  -656.9 61.7    143.0    132.6    149.1  -0.02      146.5    496.7    -10.0  0.10000 
 447.310    198.8   20.13  -656.9 61.7    143.0    132.6    149.3  -999.25    146.5    496.7    -10.0  -999.25 
 447.330    198.8   20.08  -656.8 61.7    143.4    131.4    149.3  -0.03      147.4    498.1    -10.0  0.10000 
 447.350    175.3   20.08  -656.8 61.8    143.4    131.4    149.1  -999.25    147.4    498.1    -10.0  -999.25 
 447.370    175.3   20.12  -656.5 61.8    144.2    131.4    149.1  -999.25    148.4    496.9    -10.0  -999.25 
 447.390    175.3   20.12  -656.5 61.8    144.2    133.1    149.1  0.02       147.9    496.9    -10.0  0.10000 
 447.410    116.5   20.12  -656.5 61.7    144.1    133.1    148.0  -999.25    147.8    496.9    -10.0  -999.25 
 447.430    116.5   20.06  -656.7 61.7    144.1    131.9    148.0  0.02       148.2    498.5    -10.0  0.10000 
 447.450    128.2   20.06  -656.7 61.7    144.1    131.9    149.6  -999.25    148.2    498.5    -10.0  -999.25 
 447.470    128.2   20.09  -656.7 61.7    144.2    130.1    149.6  -999.25    148.9    497.8    -10.0  -999.25 
 447.490    140.0   20.09  -656.7 61.7    144.2    130.1    149.6  -0.02      148.9    497.8    -10.0  0.10000 
 447.510    140.0   20.09  -656.7 61.7    143.6    130.1    148.1  -999.25    148.1    497.8    -10.0  -999.25 
 447.530    140.0   20.12  -656.6 61.7    143.6    133.3    148.1  0.04       147.0    496.9    -10.0  0.10000 
 447.550     69.4   20.12  -656.6 61.7    144.4    133.3    148.9  -999.25    148.1    496.9    -10.0  -999.25 
 447.570     69.4   20.11  -656.7 61.7    144.4    130.4    148.9  0.01       149.1    497.3    -10.0  0.10000 
 447.590    210.6   20.11  -656.7 61.7    144.4    130.4    148.0  -999.25    149.1    497.3    -10.0  -999.25 
 447.610    210.6   20.10  -656.7 61.7    144.0    130.4    148.0  -999.25    148.6    497.6    -10.0  -999.25 
 447.630    210.6   20.10  -656.6 61.7    144.0    133.0    148.0  -0.04      147.7    497.6    -10.0  0.10000 
 447.650    151.8   20.10  -656.6 61.7    144.7    133.0    148.2  -999.25    148.6    497.6    -10.0  -999.25 
 447.670    151.8   20.12  -656.7 61.7    144.7    132.2    148.2  0.02       148.9    496.9    -10.0  0.10000 
 447.690    116.5   20.12  -656.7 61.7    144.7    132.2    148.3  -999.25    148.9    496.9    -10.0  -999.25 
 447.710    116.5   20.15  -656.7 61.7    144.2    134.3    148.3  -999.25    147.5    496.4    -10.0  -999.25 
 447.730    116.5   20.15  -656.5 61.7    144.2    134.3    148.3  -0.03      147.5    496.4    -10.0  0.10000 
 447.750     81.2   20.15  -656.5 61.7    144.0    134.3    147.8  -999.25    147.2    496.4    -10.0  -999.25 
 447.770     81.2   20.10  -656.7 61.7    144.0    134.6    147.8  0.00       147.1    497.6    -10.0  0.10000 
 447.790    151.8   20.10  -656.7 61.7    144.1    134.6    149.2  -999.25    147.2    497.6    -10.0  -999.25 
 447.810    151.8   20.12  -656.7 61.7    144.1    133.4    149.2  0.06       147.6    497.1    -10.0  0.10000 
 447.830    128.2   20.12  -656.7 61.7    144.1    133.4    148.4  -999.25    147.6    497.1    -10.0  -999.25 
 447.850    128.2   20.12  -656.7 61.7    144.1    133.4    148.4  -999.25    147.6    497.1    -10.0  -999.25 
 447.870    128.2   20.09  -656.8 61.7    144.1    134.0    148.4  -0.06      147.4    497.8    -10.0  0.10000 
 447.890    140.0   20.09  -656.8 61.7    144.5    134.0    150.4  -999.25    148.0    497.8    -10.0  -999.25 
 447.910    140.0   20.09  -656.8 61.7    144.5    131.6    150.4  0.01       148.8    497.8    -10.0  0.10000 
 447.930    128.2   20.09  -656.6 61.7    144.5    131.6    149.5  -999.25    148.8    497.8    -10.0  -999.25 
 447.950    128.2   20.07  -656.6 61.7    143.5    133.9    149.5  -999.25    146.7    498.3    -10.0  -999.25 
 447.970    128.2   20.07  -656.6 61.7    143.5    133.9    149.5  -0.03      146.7    498.3    -10.0  0.10000 
 447.990    128.2   20.07  -656.6 61.8    144.2    133.9    151.7  -999.25    147.6    498.3    -10.0  -999.25 
 448.010    128.2   20.10  -656.6 61.8    144.2    131.4    151.7  0.04       148.4    497.4    -10.0  0.10000 
 448.030    128.2   20.10  -656.5 61.7    142.9    131.4    151.6  -999.25    146.7    497.4    -10.0  -999.25 
 448.050    128.2   20.06  -656.5 61.7    142.9    133.9    151.6  -999.25    145.9    498.5    -10.0  -999.25 
 448.070    163.5   20.06  -656.6 61.7    142.9    133.9    151.8  -0.00      145.9    498.5    -10.0  0.10000 
 448.090    163.5   20.06  -656.6 61.7    143.7    133.9    151.8  -999.25    146.9    498.5    -10.0  -999.25 
 448.110    163.5   20.07  -656.6 61.7    143.7    131.1    151.8  0.03       147.9    498.3    -10.0  0.10000 
 448.130    116.5   20.07  -656.5 61.7    143.2    131.1    151.5  -999.25    147.2    498.3    -10.0  -999.25 
 448.150    116.5   20.08  -656.5 61.7    143.2    131.6    151.5  -0.03      147.0    498.0    -10.0  0.10000 
 448.170     92.9   20.08  -656.6 61.7    143.2    131.6    150.3  -999.25    147.0    498.0    -10.0  -999.25 
 448.190     92.9   20.18  -656.6 61.7    142.7    131.8    150.3  -999.25    146.3    495.5    -10.0  -999.25 
 448.210     92.9   20.18  -656.6 61.7    142.7    131.8    151.7  -0.02      146.3    495.5    -10.0  0.10000 
 448.230    104.7   20.18  -656.5 61.7    142.5    131.8    151.7  -999.25    146.0    495.5    -10.0  -999.25 
 448.250    104.7   20.12  -656.5 61.7    142.5    132.1    151.7  -999.25    145.9    497.1    -10.0  0.10000 
 448.270     81.2   20.12  -656.6 61.7    141.6    132.1    150.1  -999.25    144.7    497.1    -10.0  -999.25 
 448.290     81.2   20.11  -656.6 61.7    141.6    133.6    150.1  -999.25    144.3    497.3    -10.0  -999.25 
 448.310    128.2   20.11  -656.6 61.7    141.6    133.6    150.4  -0.02      144.3    497.3    -10.0  0.10000 
 448.330    128.2   20.11  -656.9 61.8    142.3    133.6    150.4  -999.25    145.2    497.3    -10.0  -999.25 
 448.350    128.2   20.11  -656.9 61.8    142.3    130.3    150.4  0.06       146.3    497.3    -10.0  0.10000 
 448.370    151.8   20.11  -656.8 61.7    142.1    130.3    149.0  -999.25    146.1    497.3    -10.0  -999.25 
 448.390    151.8   20.11  -656.8 61.7    142.1    133.4    149.0  0.09       145.0    497.3    -10.0  0.10000 
 448.410    128.2   20.11  -656.8 61.6    142.1    133.4    149.3  -999.25    145.0    497.3    -10.0  -999.25 
 448.430    128.2   20.11  -656.8 61.6    142.3    131.0    149.3  -999.25    146.0    497.3    -10.0  -999.25 
 448.450    151.8   20.11  -656.8 61.6    142.3    131.0    149.0  -0.13      146.0    497.3    -10.0  0.10000 
 448.470    151.8   20.11  -656.3 61.7    141.3    131.0    149.0  -999.25    144.7    497.3    -10.0  -999.25 
 448.490    151.8   20.08  -656.3 61.7    141.3    133.1    149.0  0.01       144.0    498.1    -10.0  0.10000 
 448.510    116.5   20.08  -656.3 61.7    141.4    133.1    148.8  -999.25    144.2    498.1    -10.0  -999.25 
 448.530    116.5   20.17  -656.7 61.7    141.4    132.1    148.8  0.02       144.5    495.9    -10.0  0.10000 
 448.550    198.8   20.17  -656.7 61.7    141.4    132.1    150.3  -999.25    144.5    495.9    -10.0  -999.25 
