~Version Information
 VERS.                2.0:  CWLS LOG ASCII STANDARD -VERSION 2.0
 WRAP.                 NO:  ONE LINE PER DEPTH STEP
~WELL INFORMATION BLOCK
#MNEM.UNIT       DATA		            DESCRIPTION OF MNEMONIC
#---------    -------------            ------------------------
 STRT.FT  1.130                          :START DEPTH
 STOP.FT  518.850                        :STOP DEPTH
 STEP.FT  0.020                          :STEP    UP_HOLE  
 NULL.    -999.25                        :NULL VALUE
 COMP.    CARLETON GEO LOOP E-1          :COMPANY
 WELL.    278816-MULTITOOL                                             :WELL
 FLD .    NORTHFIELD 71-B                :FIELD\LOCATION
 LOC .    31    112   19                 :LOCATION
 CNTY.    RICE                           :COUNTY
 STAT.    CADDDC                         :STATE
 CTRY.    USA                            :COUNTRY
 SRVC.    TRUCK                          :SERVICE COMPANY
 DATE.    08/15/2017                     :LOG DATE
 API .                                       :API NUMBER
 LIC .                                   :LICENSE NUMBER
~Curve Information Block
#MNEM.UNIT      API CODE     Curve Description
#---------    -------------  ------------------------
 DEPT     .FT        00 001 00 00          :  1  DEPTH   
 GAMMA    .API-GR    00 310 00 00          :  2  GAMMA RAY           
 RES(FL)  .OHM-M     00 000 00 00          :  3  RES(FL)             
 SP       .MV        00 010 00 00          :  4  SPON POTENTIAL      
 TEMP     .DEG_F     00 660 00 00          :  5  TEMPERATURE         
 RES(16N) .OHM-M     00 040 00 00          :  6  16 NORMAL RES       
 RES(64N) .OHM-M     00 060 00 00          :  7  64 NORMAL RES       
 RES      .OHM       00 000 00 00          :  8  SINGLE POINT RES    
 DEL_TEMP .DEG_F     00 000 00 00          :  9  SAMPLE DELTA TEMP   
 LATERAL  .OHM-M     00 070 00 00          : 10  LATERAL             
 SP_COND  .US/CM     00 000 00 00          : 11  SP COND             
 TENSION  .CPS       00 000 00 00          : 12  LINE TENSION        
 TIME     .SECONDS   00 000 00 00          : 13  TIME                
~Parameter Information Block
#MNEM.UNIT   Information     Description
#---------- ---------------  ------------------------
 FILE.      PROCESSED          :File Type
 FIID.      8144A              :File Type Identifier
 VERS.      3.60Q              :System Version
 SER .      1                  :System Serial Number
 TRUK.      0.0                :Truck Calibration Number
 TOOL.        1229             :Tool Serial Number
 TIME.      1450               :Time    HrHrMinMin
 LAT .                         :Latitude
 LON .                         :Longitude
 LMF .                         :Log Measured From
 DMF .                         :Driller Measured From
 PD  .                         :Permanent Data
 PDEV.FT                       :Elevation Permanent Data
 EKB .FT                       :Elevation Kelly Bushing
 ELEV.FT                       :Elevation DF
 EGL .FT    938 L1             :Elevation Ground Level
 DRDP.FT    109                :Driller's Depth
 CASD.FT    6                  :Casing Diameter
 CASB.FT                       :Casing Bottom
 CASX.                         :Casing Type
 CAST.IN    0                  :Casing Thickness
 TNOC.                         :Time Circulation Stopped
 LOGU.                         :Logging Unit
 RECB.      PETTUS             :Recorded By
 OSR1.                         :Other Services
 OSR2.                         :Other Services
 OSR3.                         :Other Services
 BS  .IN           6           :Bit Size
 MST .F                        :Mean Surface Temperature
 TGRD.F     0                  :Temperature Gradiant
 MAGN.      0                  :Magnetic Declination
 MDEN.      2.84               :Density Matrix
 MATR.      DOLOMITE           :Neutron Matrix
 DTMT.      44                 :Delta T Matrix
 DTFL.                         :Delta T Fluid
 MUDS.      0                  :Mud Sample Source
 MRS .      0                  :Mud Resistivity
 MTP .      0                  :Mud Temperature
 MFRS.                         :Resistivity Mud Filtrate
 MFTP.                         :Temperature Mud Filtrate
 MCRS.      0                  :Resistivity Mud Cake
 MCTP.                         :Temperature Mud Cake
 FTYP.      0                  :Fluid Type
 FD  .LB/G     0               :Mud Weight
 DFV .S                        :Fluid Viscosity
 FPH .                         :Fuild PH
 ELCO.      2500               :Electron Cutoff
 CASL.IN    4                  :Casing Logger
 LOTD.FT                       :Logger TD
 ARTM.                         :Arrival Time
 DPTM.                         :Departure Time
 RIGN.                         :Rig Number
~Other Information
#MNEM.UNIT  Information      Description
#---------- ---------------  ------------------------
# -------------------------- 
~A DEPTH  GAMMA    RES(FL) SP    TEMP  RES(16N) RES(64N) RES      DEL_TEMP LATERAL  SP_COND  TENSION  TIME    
# ...
 244.090     45.9   19.79  -656.7 62.2    446.8    210.1    249.0  0.11       525.7    505.2    -10.0  0.10000 
 244.110     -1.2   19.79  -657.1 62.1    446.8    210.1    246.2  -999.25    525.7    505.2    -10.0  -999.25 
 244.130     -1.2   19.79  -657.1 62.1    446.8    210.6    246.2  -999.25    525.5    505.2    -10.0  -999.25 
 244.150     45.9   19.80  -656.9 62.1    445.8    210.6    246.2  -0.09      524.2    505.0    -10.0  0.10000 
 244.170     45.9   19.80  -656.9 62.2    445.8    210.6    247.0  -999.25    524.2    505.0    -10.0  -999.25 
 244.190     45.9   19.80  -656.9 62.2    446.9    206.8    247.0  -0.01      526.9    505.0    -10.0  0.10000 
 244.210     34.1   19.80  -657.2 62.2    446.9    206.8    246.3  -999.25    526.9    505.0    -10.0  -999.25 
 244.230     34.1   19.79  -657.2 62.2    446.9    208.6    246.3  -999.25    526.3    505.4    -10.0  -999.25 
 244.250     45.9   19.79  -657.2 62.2    447.1    208.6    245.2  0.01       526.6    505.4    -10.0  0.10000 
 244.270     45.9   19.79  -657.2 62.2    447.1    208.6    245.2  -999.25    526.6    505.4    -10.0  -999.25 
 244.290     45.9   19.79  -657.2 62.2    447.9    204.9    245.2  -0.01      528.9    505.4    -10.0  0.10000 
 244.310     34.1   19.79  -657.0 62.2    447.9    204.9    245.3  -999.25    528.9    505.4    -10.0  -999.25 
 244.330     34.1   19.80  -657.0 62.2    447.9    210.0    245.3  -999.25    527.2    505.0    -10.0  -999.25 
 244.350     45.9   19.80  -657.0 62.2    447.7    210.0    242.2  0.06       527.0    505.0    -10.0  0.10000 
 244.370     45.9   19.80  -657.0 62.1    447.7    210.0    242.2  -999.25    527.0    505.0    -10.0  -999.25 
 244.390     45.9   19.78  -657.0 62.1    446.7    206.3    242.2  -0.08      526.9    505.6    -10.0  0.10000 
 244.410     34.1   19.78  -657.1 62.2    446.7    206.3    243.4  -999.25    526.9    505.6    -10.0  -999.25 
 244.430     34.1   19.79  -657.1 62.2    446.7    208.9    243.4  0.02       526.0    505.4    -10.0  0.10000 
 244.450     10.6   19.79  -657.2 62.2    446.0    208.9    240.4  -999.25    525.0    505.4    -10.0  -999.25 
 244.470     10.6   19.79  -657.2 62.2    446.0    208.9    240.4  -999.25    525.0    505.4    -10.0  -999.25 
 244.490     22.4   19.78  -657.2 62.2    444.2    207.1    240.4  -999.25    523.2    505.6    -10.0  0.10000 
 244.510     22.4   19.78  -657.1 62.2    444.2    207.1    241.4  -999.25    523.2    505.6    -10.0  -999.25 
 244.530     22.4   19.78  -657.1 62.2    444.4    206.0    241.4  0.03       523.8    505.6    -10.0  0.10000 
 244.550     45.9   19.78  -657.2 62.2    444.4    206.0    238.8  -999.25    523.8    505.6    -10.0  -999.25 
 244.570     45.9   19.78  -657.2 62.2    444.4    206.0    238.8  -999.25    523.8    505.6    -10.0  -999.25 
 244.590     69.4   19.79  -657.2 62.2    440.9    205.4    238.8  -0.03      519.5    505.4    -10.0  0.10000 
 244.610     69.4   19.79  -657.1 62.2    440.9    205.4    238.4  -999.25    519.5    505.4    -10.0  -999.25 
 244.630     69.4   19.79  -657.1 62.2    438.9    204.5    238.4  0.03       517.0    505.4    -10.0  0.10000 
 244.650     34.1   19.79  -657.2 62.2    438.9    204.5    237.7  -999.25    517.0    505.4    -10.0  -999.25 
 244.670     34.1   19.79  -657.2 62.2    438.9    204.5    237.7  -999.25    517.0    505.4    -10.0  -999.25 
 244.690     57.6   19.78  -657.2 62.2    435.0    208.0    237.7  0.03       510.7    505.6    -10.0  0.10000 
 244.710     57.6   19.78  -657.0 62.1    435.0    208.0    237.2  -999.25    510.7    505.6    -10.0  -999.25 
 244.730     57.6   19.79  -657.0 62.1    432.4    204.1    237.2  -0.05      508.5    505.4    -10.0  0.10000 
 244.750     34.1   19.79  -657.2 62.2    432.4    204.1    237.5  -999.25    508.5    505.4    -10.0  -999.25 
 244.770     34.1   19.79  -657.2 62.2    432.4    204.1    237.5  -999.25    508.5    505.4    -10.0  -999.25 
 244.790     45.9   19.79  -656.9 62.2    428.7    206.4    237.5  0.04       502.7    505.4    -10.0  0.10000 
 244.810     45.9   19.79  -656.9 62.2    428.7    206.4    234.4  -999.25    502.7    505.4    -10.0  -999.25 
 244.830     45.9   19.78  -656.9 62.2    424.3    203.6    234.4  -0.01      497.9    505.6    -10.0  0.10000 
 244.850     69.4   19.78  -656.8 62.2    424.3    203.6    236.4  -999.25    497.9    505.6    -10.0  -999.25 
 244.870     69.4   19.78  -656.8 62.2    424.3    203.6    236.4  -999.25    497.9    505.6    -10.0  -999.25 
 244.890     22.4   19.79  -657.2 62.2    419.3    206.5    236.4  0.04       490.2    505.2    -10.0  0.10000 
 244.910     22.4   19.79  -657.2 62.1    419.3    206.5    234.4  -999.25    490.2    505.2    -10.0  -999.25 
 244.930     22.4   19.81  -657.2 62.1    413.0    206.0    234.4  -0.04      482.0    504.8    -10.0  0.09900 
 244.950     69.4   19.81  -657.0 62.2    413.0    206.0    235.7  -999.25    482.0    504.8    -10.0  -999.25 
 244.970     69.4   19.81  -657.0 62.2    413.0    205.1    235.7  -999.25    482.3    504.8    -10.0  -999.25 
 244.990     69.4   19.79  -657.0 62.2    408.8    205.1    235.7  -0.04      476.7    505.4    -10.0  0.10100 
 245.010     69.4   19.79  -657.0 62.2    408.8    205.1    234.5  -999.25    476.7    505.4    -10.0  -999.25 
 245.030     69.4   19.78  -657.0 62.2    401.3    205.1    234.5  0.05       466.7    505.6    -10.0  0.10000 
 245.050     22.4   19.78  -657.1 62.2    401.3    205.1    234.2  -999.25    466.7    505.6    -10.0  -999.25 
 245.070     22.4   19.78  -657.1 62.2    401.3    203.5    234.2  -999.25    467.2    505.6    -10.0  -999.25 
 245.090     69.4   19.79  -657.2 62.2    394.0    203.5    234.2  -0.02      457.6    505.2    -10.0  0.10000 
 245.110     69.4   19.79  -657.2 62.2    394.0    203.5    233.6  -999.25    457.6    505.2    -10.0  -999.25 
 245.130     69.4   19.80  -657.2 62.2    384.3    207.9    233.6  -0.03      443.1    505.0    -10.0  0.10000 
 245.150     45.9   19.80  -657.1 62.2    384.3    207.9    232.5  -999.25    443.1    505.0    -10.0  -999.25 
 245.170     45.9   19.80  -657.1 62.2    384.3    202.1    232.5  -999.25    445.0    505.0    -10.0  -999.25 
 245.190     22.4   19.81  -657.0 62.2    374.7    202.1    234.2  0.03       432.2    504.8    -10.0  0.09900 
 245.210     22.4   19.81  -657.0 62.2    374.7    202.1    234.2  -999.25    432.2    504.8    -10.0  -999.25 
 245.230     22.4   19.78  -657.0 62.2    364.6    204.1    234.2  -0.02      418.1    505.6    -10.0  0.10100 
 245.250     57.6   19.78  -657.0 62.2    364.6    204.1    231.1  -999.25    418.1    505.6    -10.0  -999.25 
 245.270     57.6   19.78  -657.0 62.2    364.6    201.8    231.1  -999.25    418.8    505.6    -10.0  -999.25 
 245.290     57.6   19.77  -656.8 62.2    353.7    201.8    231.9  0.01       404.4    505.7    -10.0  0.10000 
 245.310     57.6   19.77  -656.8 62.2    353.7    201.8    231.9  -999.25    404.4    505.7    -10.0  -999.25 
 245.330     57.6   19.82  -656.8 62.2    343.3    202.9    231.9  0.01       390.1    504.7    -10.0  0.10000 
 245.350     22.4   19.82  -656.8 62.2    343.3    202.9    228.6  -999.25    390.1    504.7    -10.0  -999.25 
 245.370     22.4   19.82  -656.8 62.2    343.3    201.4    228.6  -999.25    390.6    504.7    -10.0  -999.25 
 245.390     34.1   19.79  -657.2 62.2    331.4    201.4    228.9  0.01       374.7    505.2    -10.0  0.10000 
 245.410     34.1   19.79  -657.2 62.2    331.4    201.4    228.9  -999.25    374.7    505.2    -10.0  -999.25 
 245.430     45.9   19.79  -657.2 62.2    322.1    200.1    228.9  0.01       362.8    505.2    -10.0  0.09900 
 245.450     45.9   19.79  -656.9 62.1    322.1    200.1    226.2  -999.25    362.8    505.2    -10.0  -999.25 
 245.470     45.9   19.79  -656.9 62.1    322.1    201.2    226.2  -999.25    362.4    505.2    -10.0  -999.25 
 245.490     22.4   19.80  -656.8 62.1    312.8    201.2    224.5  -0.03      350.0    505.0    -10.0  0.10100 
 245.510     22.4   19.80  -656.8 62.2    312.8    201.2    224.5  -999.25    350.0    505.0    -10.0  -999.25 
