~Version Information
 VERS.                2.0:  CWLS LOG ASCII STANDARD -VERSION 2.0
 WRAP.                 NO:  ONE LINE PER DEPTH STEP
~WELL INFORMATION BLOCK
#MNEM.UNIT       DATA		            DESCRIPTION OF MNEMONIC
#---------    -------------            ------------------------
 STRT.FT  1.130                          :START DEPTH
 STOP.FT  518.850                        :STOP DEPTH
 STEP.FT  0.020                          :STEP    UP_HOLE  
 NULL.    -999.25                        :NULL VALUE
 COMP.    CARLETON GEO LOOP E-1          :COMPANY
 WELL.    278816-MULTITOOL                                             :WELL
 FLD .    NORTHFIELD 71-B                :FIELD\LOCATION
 LOC .    31    112   19                 :LOCATION
 CNTY.    RICE                           :COUNTY
 STAT.    CADDDC                         :STATE
 CTRY.    USA                            :COUNTRY
 SRVC.    TRUCK                          :SERVICE COMPANY
 DATE.    08/15/2017                     :LOG DATE
 API .                                       :API NUMBER
 LIC .                                   :LICENSE NUMBER
~Curve Information Block
#MNEM.UNIT      API CODE     Curve Description
#---------    -------------  ------------------------
 DEPT     .FT        00 001 00 00          :  1  DEPTH   
 GAMMA    .API-GR    00 310 00 00          :  2  GAMMA RAY           
 RES(FL)  .OHM-M     00 000 00 00          :  3  RES(FL)             
 SP       .MV        00 010 00 00          :  4  SPON POTENTIAL      
 TEMP     .DEG_F     00 660 00 00          :  5  TEMPERATURE         
 RES(16N) .OHM-M     00 040 00 00          :  6  16 NORMAL RES       
 RES(64N) .OHM-M     00 060 00 00          :  7  64 NORMAL RES       
 RES      .OHM       00 000 00 00          :  8  SINGLE POINT RES    
 DEL_TEMP .DEG_F     00 000 00 00          :  9  SAMPLE DELTA TEMP   
 LATERAL  .OHM-M     00 070 00 00          : 10  LATERAL             
 SP_COND  .US/CM     00 000 00 00          : 11  SP COND             
 TENSION  .CPS       00 000 00 00          : 12  LINE TENSION        
 TIME     .SECONDS   00 000 00 00          : 13  TIME                
~Parameter Information Block
#MNEM.UNIT   Information     Description
#---------- ---------------  ------------------------
 FILE.      PROCESSED          :File Type
 FIID.      8144A              :File Type Identifier
 VERS.      3.60Q              :System Version
 SER .      1                  :System Serial Number
 TRUK.      0.0                :Truck Calibration Number
 TOOL.        1229             :Tool Serial Number
 TIME.      1450               :Time    HrHrMinMin
 LAT .                         :Latitude
 LON .                         :Longitude
 LMF .                         :Log Measured From
 DMF .                         :Driller Measured From
 PD  .                         :Permanent Data
 PDEV.FT                       :Elevation Permanent Data
 EKB .FT                       :Elevation Kelly Bushing
 ELEV.FT                       :Elevation DF
 EGL .FT    938 L1             :Elevation Ground Level
 DRDP.FT    109                :Driller's Depth
 CASD.FT    6                  :Casing Diameter
 CASB.FT                       :Casing Bottom
 CASX.                         :Casing Type
 CAST.IN    0                  :Casing Thickness
 TNOC.                         :Time Circulation Stopped
 LOGU.                         :Logging Unit
 RECB.      PETTUS             :Recorded By
 OSR1.                         :Other Services
 OSR2.                         :Other Services
 OSR3.                         :Other Services
 BS  .IN           6           :Bit Size
 MST .F                        :Mean Surface Temperature
 TGRD.F     0                  :Temperature Gradiant
 MAGN.      0                  :Magnetic Declination
 MDEN.      2.84               :Density Matrix
 MATR.      DOLOMITE           :Neutron Matrix
 DTMT.      44                 :Delta T Matrix
 DTFL.                         :Delta T Fluid
 MUDS.      0                  :Mud Sample Source
 MRS .      0                  :Mud Resistivity
 MTP .      0                  :Mud Temperature
 MFRS.                         :Resistivity Mud Filtrate
 MFTP.                         :Temperature Mud Filtrate
 MCRS.      0                  :Resistivity Mud Cake
 MCTP.                         :Temperature Mud Cake
 FTYP.      0                  :Fluid Type
 FD  .LB/G     0               :Mud Weight
 DFV .S                        :Fluid Viscosity
 FPH .                         :Fuild PH
 ELCO.      2500               :Electron Cutoff
 CASL.IN    4                  :Casing Logger
 LOTD.FT                       :Logger TD
 ARTM.                         :Arrival Time
 DPTM.                         :Departure Time
 RIGN.                         :Rig Number
~Other Information
#MNEM.UNIT  Information      Description
#---------- ---------------  ------------------------
# -------------------------- 
~A DEPTH  GAMMA    RES(FL) SP    TEMP  RES(16N) RES(64N) RES      DEL_TEMP LATERAL  SP_COND  TENSION  TIME    
# ...
  41.050     34.1   17.92  -656.0 65.0      2.1     13.7     32.1  -999.25     -1.8    557.9    -10.0  -999.25 
  41.070     34.1   17.92  -656.0 65.0      2.5     14.0     32.0  -999.25     -1.4    557.9    -10.0  -999.25 
  41.090     34.1   17.92  -656.0 65.0      2.5     14.0     32.0  0.03        -1.4    557.9    -10.0  0.10000 
  41.110     34.1   17.92  -655.9 65.0      2.5     14.0     32.0  -999.25     -1.4    557.9    -10.0  -999.25 
  41.130     -1.2   17.94  -655.9 65.0      2.5     14.0     32.0  -999.25     -1.4    557.5    -10.0  -999.25 
  41.150     -1.2   17.94  -655.9 65.0      2.4     13.7     32.0  -999.25     -1.4    557.5    -10.0  -999.25 
  41.170     -1.2   17.94  -655.9 65.0      2.4     13.7     32.0  -0.03       -1.4    557.5    -10.0  0.10100 
  41.190     -1.2   17.94  -656.0 65.0      2.4     13.7     32.0  -999.25     -1.4    557.5    -10.0  -999.25 
  41.210     57.6   17.94  -656.0 65.0      2.4     13.7     32.0  -999.25     -1.4    557.5    -10.0  -999.25 
  41.230     57.6   17.93  -656.0 65.0      2.4     14.3     32.0  -999.25     -1.6    557.7    -10.0  -999.25 
  41.250     57.6   17.93  -656.0 65.0      2.4     14.3     32.0  0.02        -1.6    557.7    -10.0  0.09900 
  41.270     57.6   17.93  -656.0 65.0      2.4     14.3     32.0  -999.25     -1.6    557.7    -10.0  -999.25 
  41.290     57.6   17.93  -656.0 65.0      2.4     14.3     32.0  -999.25     -1.6    557.7    -10.0  -999.25 
  41.310     22.4   17.94  -656.0 65.0      2.7     14.1     32.0  -999.25     -1.0    557.5    -10.0  -999.25 
  41.330     22.4   17.94  -656.0 65.0      2.7     14.1     32.0  0.00        -1.0    557.5    -10.0  0.10100 
  41.350     22.4   17.94  -656.0 65.0      2.7     14.1     32.0  -999.25     -1.0    557.5    -10.0  -999.25 
  41.370     22.4   17.94  -656.0 65.0      2.7     14.1     32.0  -999.25     -1.0    557.5    -10.0  -999.25 
  41.390     -1.2   17.99  -656.0 65.0      2.7     14.1     32.1  -999.25     -1.0    555.9    -10.0  -999.25 
  41.410     -1.2   17.99  -656.0 65.0      2.7     13.8     32.1  -999.25     -0.9    555.9    -10.0  -999.25 
  41.430     -1.2   17.99  -656.0 65.0      2.7     13.8     32.1  0.01        -0.9    555.9    -10.0  0.09900 
  41.450     -1.2   17.99  -656.1 65.0      2.7     13.8     32.1  -999.25     -0.9    555.9    -10.0  -999.25 
  41.470     34.1   17.96  -656.1 65.0      2.7     13.8     32.0  -999.25     -0.9    556.8    -10.0  -999.25 
  41.490     34.1   17.96  -656.1 65.0      2.1     14.3     32.0  -999.25     -2.0    556.8    -10.0  -999.25 
  41.510     34.1   17.96  -656.1 65.0      2.1     14.3     32.0  -0.03       -2.0    556.8    -10.0  0.10000 
  41.530     34.1   17.96  -656.1 65.0      2.1     14.3     32.0  -999.25     -2.0    556.8    -10.0  -999.25 
  41.550     22.4   18.00  -656.1 65.0      2.1     14.3     32.0  -999.25     -2.0    555.5    -10.0  -999.25 
  41.570     22.4   18.00  -656.1 65.0      2.1     14.3     32.0  -999.25     -1.9    555.5    -10.0  -999.25 
  41.590     22.4   18.00  -656.1 65.0      2.1     14.3     32.0  0.01        -1.9    555.5    -10.0  0.10000 
  41.610     22.4   18.00  -656.1 65.0      2.1     14.3     32.0  -999.25     -1.9    555.5    -10.0  -999.25 
  41.630     34.1   18.01  -656.1 65.0      2.1     14.3     32.0  -999.25     -1.9    555.3    -10.0  -999.25 
  41.650     34.1   18.01  -656.1 65.0      2.2     14.4     31.9  -999.25     -1.8    555.3    -10.0  -999.25 
  41.670     34.1   18.01  -656.1 65.0      2.2     14.4     31.9  -0.01       -1.8    555.3    -10.0  0.10000 
  41.690     34.1   18.01  -656.0 65.0      2.2     14.4     31.9  -999.25     -1.8    555.3    -10.0  -999.25 
  41.710     45.9   18.02  -656.0 65.0      2.2     14.4     31.9  -999.25     -1.8    555.1    -10.0  -999.25 
  41.730     45.9   18.02  -656.0 65.0      2.1     14.4     31.8  -999.25     -2.0    555.1    -10.0  -999.25 
  41.750     45.9   18.02  -656.0 65.0      2.1     14.4     31.8  0.05        -2.0    555.1    -10.0  0.10100 
  41.770     45.9   18.02  -655.9 65.0      2.1     14.4     31.8  -999.25     -2.0    555.1    -10.0  -999.25 
  41.790     45.9   18.02  -655.9 65.0      2.1     14.4     31.8  -999.25     -2.0    555.1    -10.0  -999.25 
  41.810     81.2   18.00  -655.9 65.0      2.1     15.2     31.3  -999.25     -2.3    555.5    -10.0  -999.25 
  41.830     81.2   18.00  -655.9 65.0      1.9     15.2     31.3  -0.00       -2.6    555.5    -10.0  0.09900 
  41.850     81.2   18.00  -656.0 65.0      1.9     15.2     31.3  -999.25     -2.6    555.5    -10.0  -999.25 
  41.870     81.2   18.00  -656.0 65.0      1.9     15.2     31.3  -999.25     -2.6    555.5    -10.0  -999.25 
  41.890     22.4   18.04  -656.0 65.0      1.9     15.2     30.3  -999.25     -2.6    554.4    -10.0  -999.25 
  41.910     22.4   18.04  -656.0 65.0      2.0     15.7     30.3  0.03        -2.5    554.4    -10.0  0.10000 
  41.930     22.4   18.04  -656.0 64.9      2.0     15.7     30.3  -999.25     -2.5    554.4    -10.0  -999.25 
  41.950     22.4   18.04  -656.0 64.9      2.0     15.7     30.3  -999.25     -2.5    554.4    -10.0  -999.25 
  41.970     34.1   18.02  -656.0 64.9      2.0     15.7     29.6  -999.25     -2.5    555.1    -10.0  -999.25 
  41.990     34.1   18.02  -656.0 64.9      2.2     14.9     29.6  -999.25     -2.0    555.1    -10.0  -999.25 
  42.010     34.1   18.02  -656.0 64.9      2.2     14.9     29.6  -0.02       -2.0    555.1    -10.0  0.10000 
  42.030     34.1   18.02  -656.1 65.0      2.2     14.9     29.6  -999.25     -2.0    555.1    -10.0  -999.25 
  42.050     34.1   18.02  -656.1 65.0      2.2     14.9     29.6  -999.25     -2.0    554.8    -10.0  -999.25 
  42.070     34.1   18.02  -656.1 65.0      1.9     14.5     29.0  -999.25     -2.3    554.8    -10.0  -999.25 
  42.090     34.1   18.02  -656.1 65.0      1.9     14.5     29.0  0.05        -2.3    554.8    -10.0  0.10000 
  42.110     34.1   18.02  -656.1 64.9      1.9     14.5     29.0  -999.25     -2.3    554.8    -10.0  -999.25 
  42.130     34.1   18.03  -656.1 64.9      1.9     14.5     29.0  -999.25     -2.3    554.6    -10.0  -999.25 
  42.150     34.1   18.03  -656.1 64.9      1.7     14.7     28.0  -999.25     -2.7    554.6    -10.0  -999.25 
  42.170     34.1   18.03  -656.1 64.9      1.7     14.7     28.0  -0.08       -2.7    554.6    -10.0  0.10000 
  42.190     34.1   18.03  -655.9 65.0      1.7     14.7     28.0  -999.25     -2.7    554.6    -10.0  -999.25 
  42.210     34.1   18.02  -655.9 65.0      1.7     14.7     28.0  -999.25     -2.7    554.8    -10.0  -999.25 
  42.230     34.1   18.02  -655.9 65.0      1.9     15.0     26.8  -999.25     -2.5    554.8    -10.0  -999.25 
  42.250     34.1   18.02  -655.9 65.0      1.9     15.0     26.8  0.05        -2.5    554.8    -10.0  0.10000 
  42.270     34.1   18.02  -656.1 64.9      1.9     15.0     26.8  -999.25     -2.5    554.8    -10.0  -999.25 
  42.290     34.1   18.04  -656.1 64.9      1.9     15.0     26.8  -999.25     -2.5    554.2    -10.0  -999.25 
  42.310     -1.2   18.04  -656.1 64.9      1.9     14.6     27.2  -999.25     -2.4    554.2    -10.0  -999.25 
  42.330     -1.2   18.04  -656.1 64.9      2.0     14.6     27.2  -0.04       -2.1    554.2    -10.0  0.10000 
  42.350     -1.2   18.04  -656.0 65.0      2.0     14.6     27.2  -999.25     -2.1    554.2    -10.0  -999.25 
  42.370     -1.2   18.04  -656.0 65.0      2.0     14.6     27.2  -999.25     -2.1    554.2    -10.0  -999.25 
  42.390     34.1   18.04  -656.0 65.0      2.0     14.6     26.2  -999.25     -2.1    554.4    -10.0  -999.25 
  42.410     34.1   18.04  -656.0 65.0      2.0     14.5     26.2  -999.25     -2.1    554.4    -10.0  0.10000 
  42.430     34.1   18.04  -656.1 65.0      2.0     14.5     26.2  -999.25     -2.1    554.4    -10.0  -999.25 
  42.450     34.1   18.04  -656.1 65.0      2.0     14.5     26.2  -999.25     -2.1    554.4    -10.0  -999.25 
  42.470     10.6   18.07  -656.1 65.0      2.0     14.5     26.2  -999.25     -2.1    553.6    -10.0  -999.25 
