~Version Information
 VERS.                2.0:  CWLS LOG ASCII STANDARD -VERSION 2.0
 WRAP.                 NO:  ONE LINE PER DEPTH STEP
~WELL INFORMATION BLOCK
#MNEM.UNIT       DATA		            DESCRIPTION OF MNEMONIC
#---------    -------------            ------------------------
 STRT.FT  1.130                          :START DEPTH
 STOP.FT  518.850                        :STOP DEPTH
 STEP.FT  0.020                          :STEP    UP_HOLE  
 NULL.    -999.25                        :NULL VALUE
 COMP.    CARLETON GEO LOOP E-1          :COMPANY
 WELL.    278816-MULTITOOL                                             :WELL
 FLD .    NORTHFIELD 71-B                :FIELD\LOCATION
 LOC .    31    112   19                 :LOCATION
 CNTY.    RICE                           :COUNTY
 STAT.    CADDDC                         :STATE
 CTRY.    USA                            :COUNTRY
 SRVC.    TRUCK                          :SERVICE COMPANY
 DATE.    08/15/2017                     :LOG DATE
 API .                                       :API NUMBER
 LIC .                                   :LICENSE NUMBER
~Curve Information Block
#MNEM.UNIT      API CODE     Curve Description
#---------    -------------  ------------------------
 DEPT     .FT        00 001 00 00          :  1  DEPTH   
 GAMMA    .API-GR    00 310 00 00          :  2  GAMMA RAY           
 RES(FL)  .OHM-M     00 000 00 00          :  3  RES(FL)             
 SP       .MV        00 010 00 00          :  4  SPON POTENTIAL      
 TEMP     .DEG_F     00 660 00 00          :  5  TEMPERATURE         
 RES(16N) .OHM-M     00 040 00 00          :  6  16 NORMAL RES       
 RES(64N) .OHM-M     00 060 00 00          :  7  64 NORMAL RES       
 RES      .OHM       00 000 00 00          :  8  SINGLE POINT RES    
 DEL_TEMP .DEG_F     00 000 00 00          :  9  SAMPLE DELTA TEMP   
 LATERAL  .OHM-M     00 070 00 00          : 10  LATERAL             
 SP_COND  .US/CM     00 000 00 00          : 11  SP COND             
 TENSION  .CPS       00 000 00 00          : 12  LINE TENSION        
 TIME     .SECONDS   00 000 00 00          : 13  TIME                
~Parameter Information Block
#MNEM.UNIT   Information     Description
#---------- ---------------  ------------------------
 FILE.      PROCESSED          :File Type
 FIID.      8144A              :File Type Identifier
 VERS.      3.60Q              :System Version
 SER .      1                  :System Serial Number
 TRUK.      0.0                :Truck Calibration Number
 TOOL.        1229             :Tool Serial Number
 TIME.      1450               :Time    HrHrMinMin
 LAT .                         :Latitude
 LON .                         :Longitude
 LMF .                         :Log Measured From
 DMF .                         :Driller Measured From
 PD  .                         :Permanent Data
 PDEV.FT                       :Elevation Permanent Data
 EKB .FT                       :Elevation Kelly Bushing
 ELEV.FT                       :Elevation DF
 EGL .FT    938 L1             :Elevation Ground Level
 DRDP.FT    109                :Driller's Depth
 CASD.FT    6                  :Casing Diameter
 CASB.FT                       :Casing Bottom
 CASX.                         :Casing Type
 CAST.IN    0                  :Casing Thickness
 TNOC.                         :Time Circulation Stopped
 LOGU.                         :Logging Unit
 RECB.      PETTUS             :Recorded By
 OSR1.                         :Other Services
 OSR2.                         :Other Services
 OSR3.                         :Other Services
 BS  .IN           6           :Bit Size
 MST .F                        :Mean Surface Temperature
 TGRD.F     0                  :Temperature Gradiant
 MAGN.      0                  :Magnetic Declination
 MDEN.      2.84               :Density Matrix
 MATR.      DOLOMITE           :Neutron Matrix
 DTMT.      44                 :Delta T Matrix
 DTFL.                         :Delta T Fluid
 MUDS.      0                  :Mud Sample Source
 MRS .      0                  :Mud Resistivity
 MTP .      0                  :Mud Temperature
 MFRS.                         :Resistivity Mud Filtrate
 MFTP.                         :Temperature Mud Filtrate
 MCRS.      0                  :Resistivity Mud Cake
 MCTP.                         :Temperature Mud Cake
 FTYP.      0                  :Fluid Type
 FD  .LB/G     0               :Mud Weight
 DFV .S                        :Fluid Viscosity
 FPH .                         :Fuild PH
 ELCO.      2500               :Electron Cutoff
 CASL.IN    4                  :Casing Logger
 LOTD.FT                       :Logger TD
 ARTM.                         :Arrival Time
 DPTM.                         :Departure Time
 RIGN.                         :Rig Number
~Other Information
#MNEM.UNIT  Information      Description
#---------- ---------------  ------------------------
# -------------------------- 
~A DEPTH  GAMMA    RES(FL) SP    TEMP  RES(16N) RES(64N) RES      DEL_TEMP LATERAL  SP_COND  TENSION  TIME    
# ...
 141.850     57.6   20.99  -656.6 59.9   1160.8    664.1    399.7  -0.03     1326.4    476.4    -10.0  0.10000 
 141.870     -1.2   20.99  -656.6 59.9   1157.7    660.3    401.2  -999.25   1323.4    476.4    -10.0  -999.25 
 141.890     -1.2   21.00  -656.3 59.9   1157.7    660.3    401.2  0.06      1323.4    476.3    -10.0  0.10000 
 141.910     22.4   21.00  -656.3 59.8   1153.8    657.8    401.2  -999.25   1319.2    476.3    -10.0  -999.25 
 141.930     22.4   21.00  -656.4 59.8   1153.8    657.8    400.0  -999.25   1319.2    476.3    -10.0  -999.25 
 141.950     22.4   21.03  -656.4 59.8   1153.8    657.8    400.0  0.12      1319.2    475.5    -10.0  0.09900 
 141.970     -1.2   21.03  -656.4 59.7   1150.1    654.4    402.1  -999.25   1315.3    475.5    -10.0  -999.25 
 141.990     -1.2   21.01  -656.5 59.7   1150.1    654.4    402.1  -0.15     1315.3    476.0    -10.0  0.10100 
 142.010     22.4   21.01  -656.5 59.9   1146.0    653.3    402.1  -999.25   1310.2    476.0    -10.0  -999.25 
 142.030     22.4   21.01  -656.3 59.9   1146.0    653.3    400.3  -999.25   1310.2    476.0    -10.0  -999.25 
 142.050     22.4   21.01  -656.3 59.9   1146.0    653.3    400.3  0.00      1310.2    476.0    -10.0  0.10000 
 142.070     10.6   21.01  -656.3 59.9   1140.2    649.3    402.1  -999.25   1303.8    476.0    -10.0  -999.25 
 142.090     10.6   21.03  -656.4 59.9   1140.2    649.3    402.1  -0.00     1303.8    475.5    -10.0  0.09900 
 142.110     10.6   21.03  -656.4 59.9   1135.8    646.7    402.1  -999.25   1298.8    475.5    -10.0  -999.25 
 142.130     10.6   21.03  -656.4 59.9   1135.8    646.7    401.8  -999.25   1298.8    475.5    -10.0  -999.25 
 142.150     10.6   21.02  -656.6 59.9   1135.8    646.7    401.8  -0.01     1298.8    475.6    -10.0  0.10100 
 142.170     10.6   21.02  -656.6 59.9   1130.2    643.7    401.9  -999.25   1292.4    475.6    -10.0  -999.25 
 142.190     10.6   21.01  -656.6 59.9   1130.2    643.7    401.9  0.05      1292.4    476.0    -10.0  0.09900 
 142.210     22.4   21.01  -656.6 59.8   1125.2    641.0    401.9  -999.25   1286.6    476.0    -10.0  -999.25 
 142.230     22.4   21.01  -656.3 59.8   1125.2    641.0    401.7  -999.25   1286.6    476.0    -10.0  -999.25 
 142.250     22.4   21.01  -656.3 59.8   1125.2    641.0    401.7  0.04      1286.6    476.0    -10.0  0.10100 
 142.270     22.4   21.01  -656.3 59.8   1119.0    638.9    400.6  -999.25   1279.0    476.0    -10.0  -999.25 
 142.290     22.4   21.02  -656.9 59.8   1119.0    638.9    400.6  -0.02     1279.0    475.6    -10.0  0.10000 
 142.310     22.4   21.02  -656.9 59.8   1114.9    634.3    400.6  -999.25   1275.1    475.6    -10.0  -999.25 
 142.330     22.4   21.02  -656.5 59.8   1114.9    634.3    401.3  -999.25   1275.1    475.6    -10.0  -999.25 
 142.350     22.4   21.01  -656.5 59.8   1114.9    634.3    401.3  -0.01     1275.1    476.0    -10.0  0.09900 
 142.370     10.6   21.01  -656.5 59.8   1110.8    631.6    399.4  -999.25   1270.5    476.0    -10.0  -999.25 
 142.390     10.6   21.02  -656.6 59.8   1110.8    631.6    399.4  -0.02     1270.5    475.8    -10.0  0.10100 
 142.410     34.1   21.02  -656.6 59.8   1106.7    627.2    399.4  -999.25   1266.5    475.8    -10.0  -999.25 
 142.430     34.1   21.02  -656.4 59.8   1106.7    627.2    400.6  -999.25   1266.5    475.8    -10.0  -999.25 
 142.450     34.1   21.01  -656.4 59.8   1106.7    627.2    400.6  -0.01     1266.5    476.0    -10.0  0.09900 
 142.470     22.4   21.01  -656.4 59.9   1103.1    624.1    398.7  -999.25   1262.7    476.0    -10.0  -999.25 
 142.490     22.4   21.02  -656.6 59.9   1103.1    624.1    398.7  -0.04     1262.7    475.8    -10.0  0.10100 
 142.510     34.1   21.02  -656.6 59.9   1099.6    619.3    398.7  -999.25   1259.6    475.8    -10.0  -999.25 
 142.530     34.1   21.02  -656.3 59.9   1099.6    619.3    399.7  -999.25   1259.6    475.8    -10.0  -999.25 
 142.550     34.1   20.99  -656.3 59.9   1099.6    619.3    399.7  0.05      1259.6    476.4    -10.0  0.10000 
 142.570     57.6   20.99  -656.3 59.8   1097.2    615.8    398.6  -999.25   1257.7    476.4    -10.0  -999.25 
 142.590     57.6   21.02  -656.5 59.8   1097.2    615.8    398.6  -0.01     1257.7    475.8    -10.0  0.09900 
 142.610     57.6   21.02  -656.5 59.9   1093.0    611.2    398.6  -999.25   1253.6    475.8    -10.0  -999.25 
 142.630     57.6   21.02  -656.4 59.9   1093.0    611.2    398.2  -999.25   1253.6    475.8    -10.0  -999.25 
 142.650     57.6   21.00  -656.4 59.9   1093.0    611.2    398.2  0.01      1253.6    476.1    -10.0  0.10100 
 142.670     45.9   21.00  -656.4 59.8   1090.3    606.9    397.0  -999.25   1251.4    476.1    -10.0  -999.25 
 142.690     45.9   21.00  -656.7 59.8   1090.3    606.9    397.0  0.04      1251.4    476.1    -10.0  0.09900 
 142.710     34.1   21.00  -656.7 59.8   1085.0    603.6    397.0  -999.25   1245.4    476.1    -10.0  -999.25 
 142.730     34.1   21.00  -656.6 59.8   1085.0    603.6    395.4  -999.25   1245.4    476.1    -10.0  -999.25 
 142.750     34.1   21.02  -656.6 59.8   1085.0    603.6    395.4  0.11      1245.4    475.8    -10.0  0.10100 
 142.770     22.4   21.02  -656.6 59.7   1080.1    598.7    395.7  -999.25   1240.6    475.8    -10.0  -999.25 
 142.790     22.4   21.05  -656.6 59.7   1080.1    598.7    395.7  -0.16     1240.6    475.2    -10.0  0.10000 
 142.810     22.4   21.05  -656.6 59.8   1074.9    595.3    395.7  -999.25   1234.8    475.2    -10.0  -999.25 
 142.830     22.4   21.05  -656.4 59.8   1074.9    595.3    393.8  -999.25   1234.8    475.2    -10.0  -999.25 
 142.850     22.4   21.02  -656.4 59.8   1069.5    595.3    393.8  -0.03     1227.6    475.8    -10.0  0.09900 
 142.870     81.2   21.02  -656.4 59.9   1069.5    590.1    394.4  -999.25   1229.4    475.8    -10.0  -999.25 
 142.890     81.2   21.02  -656.7 59.9   1069.5    590.1    394.4  0.03      1229.4    475.8    -10.0  0.10100 
 142.910     34.1   21.02  -656.7 59.9   1065.4    586.0    394.4  -999.25   1225.2    475.8    -10.0  -999.25 
 142.930     34.1   21.02  -656.4 59.9   1065.4    586.0    391.8  -999.25   1225.2    475.8    -10.0  -999.25 
 142.950     34.1   20.99  -656.4 59.9   1065.4    586.0    391.8  -0.01     1225.2    476.4    -10.0  0.09900 
 142.970     45.9   20.99  -656.4 59.9   1059.9    580.2    391.7  -999.25   1219.8    476.4    -10.0  -999.25 
 142.990     45.9   21.05  -656.3 59.9   1059.9    580.2    391.7  0.02      1219.8    475.2    -10.0  0.10000 
 143.010     45.9   21.05  -656.3 59.9   1055.9    575.2    391.7  -999.25   1216.1    475.2    -10.0  -999.25 
 143.030     45.9   21.05  -656.6 59.9   1055.9    575.2    390.4  -999.25   1216.1    475.2    -10.0  -999.25 
 143.050     45.9   21.02  -656.6 59.9   1055.9    575.2    390.4  0.02      1216.1    475.8    -10.0  0.10100 
 143.070     45.9   21.02  -656.6 59.8   1051.2    568.4    389.3  -999.25   1212.1    475.8    -10.0  -999.25 
 143.090     45.9   20.99  -656.6 59.8   1051.2    568.4    389.3  -0.06     1212.1    476.4    -10.0  0.09900 
 143.110     45.9   20.99  -656.6 59.9   1047.9    561.3    389.3  -999.25   1210.1    476.4    -10.0  -999.25 
 143.130     45.9   20.99  -656.6 59.9   1047.9    561.3    388.8  -999.25   1210.1    476.4    -10.0  -999.25 
 143.150     45.9   21.02  -656.6 59.9   1047.9    561.3    388.8  0.03      1210.1    475.8    -10.0  0.10100 
 143.170     22.4   21.02  -656.6 59.9   1043.6    554.2    386.7  -999.25   1206.7    475.8    -10.0  -999.25 
 143.190     22.4   21.02  -656.4 59.9   1043.6    554.2    386.7  -0.01     1206.7    475.6    -10.0  0.09900 
 143.210     81.2   21.02  -656.4 59.9   1040.4    545.9    386.7  -999.25   1205.2    475.6    -10.0  -999.25 
 143.230     81.2   21.02  -656.2 59.9   1040.4    545.9    387.1  -999.25   1205.2    475.6    -10.0  -999.25 
 143.250     81.2   21.02  -656.2 59.9   1040.4    545.9    387.1  -0.01     1205.2    475.6    -10.0  0.10000 
 143.270     34.1   21.02  -656.2 59.9   1037.6    539.1    385.0  -999.25   1203.8    475.6    -10.0  -999.25 
